<?xml version="1.0" encoding="UTF-8"?>
<zipcodes>
  <object>
    <country_code>GT</country_code>
    <zipcode>16000</zipcode>
    <place>DEPTO DE ALTA VERAPAZ</place>
    <state>DEPTO DE ALTA VERAPAZ</state>
    <state_code>01</state_code>
    <province></province>
    <province_code></province_code>
    <community></community>
    <community_code></community_code>
    <latitude>15.387</latitude>
    <longitude>-90.1667</longitude>
  </object>
  <object>
    <country_code>GT</country_code>
    <zipcode>16001</zipcode>
    <place>COBAN</place>
    <state>DEPTO DE ALTA VERAPAZ</state>
    <state_code>01</state_code>
    <province></province>
    <province_code></province_code>
    <community></community>
    <community_code></community_code>
    <latitude>15.4833</latitude>
    <longitude>-90.3667</longitude>
  </object>
  <object>
    <country_code>GT</country_code>
    <zipcode>16002</zipcode>
    <place>SANTA CRUZ VERAPAZ</place>
    <state>DEPTO DE ALTA VERAPAZ</state>
    <state_code>01</state_code>
    <province></province>
    <province_code></province_code>
    <community></community>
    <community_code></community_code>
    <latitude>15.3667</latitude>
    <longitude>-90.4333</longitude>
  </object>
  <object>
    <country_code>GT</country_code>
    <zipcode>16003</zipcode>
    <place>SAN CRISTOBAL VERAPAZ</place>
    <state>DEPTO DE ALTA VERAPAZ</state>
    <state_code>01</state_code>
    <province></province>
    <province_code></province_code>
    <community></community>
    <community_code></community_code>
    <latitude>15.3833</latitude>
    <longitude>-90.4</longitude>
  </object>
  <object>
    <country_code>GT</country_code>
    <zipcode>16004</zipcode>
    <place>TACTIC</place>
    <state>DEPTO DE ALTA VERAPAZ</state>
    <state_code>01</state_code>
    <province></province>
    <province_code></province_code>
    <community></community>
    <community_code></community_code>
    <latitude>15.3333</latitude>
    <longitude>-90.3</longitude>
  </object>
  <object>
    <country_code>GT</country_code>
    <zipcode>16005</zipcode>
    <place>TAMAHU</place>
    <state>DEPTO DE ALTA VERAPAZ</state>
    <state_code>01</state_code>
    <province></province>
    <province_code></province_code>
    <community></community>
    <community_code></community_code>
    <latitude>15.3333</latitude>
    <longitude>-90.1667</longitude>
  </object>
  <object>
    <country_code>GT</country_code>
    <zipcode>16006</zipcode>
    <place>TUCURU</place>
    <state>DEPTO DE ALTA VERAPAZ</state>
    <state_code>01</state_code>
    <province></province>
    <province_code></province_code>
    <community></community>
    <community_code></community_code>
    <latitude>15.3</latitude>
    <longitude>-90.0667</longitude>
  </object>
  <object>
    <country_code>GT</country_code>
    <zipcode>16007</zipcode>
    <place>PANZOS</place>
    <state>DEPTO DE ALTA VERAPAZ</state>
    <state_code>01</state_code>
    <province></province>
    <province_code></province_code>
    <community></community>
    <community_code></community_code>
    <latitude>15.4</latitude>
    <longitude>-89.6667</longitude>
  </object>
  <object>
    <country_code>GT</country_code>
    <zipcode>16008</zipcode>
    <place>SENAHU</place>
    <state>DEPTO DE ALTA VERAPAZ</state>
    <state_code>01</state_code>
    <province></province>
    <province_code></province_code>
    <community></community>
    <community_code></community_code>
    <latitude>15.4</latitude>
    <longitude>-89.8333</longitude>
  </object>
  <object>
    <country_code>GT</country_code>
    <zipcode>16009</zipcode>
    <place>SAN PEDRO CARCHA</place>
    <state>DEPTO DE ALTA VERAPAZ</state>
    <state_code>01</state_code>
    <province></province>
    <province_code></province_code>
    <community></community>
    <community_code></community_code>
    <latitude>15.4833</latitude>
    <longitude>-90.2667</longitude>
  </object>
  <object>
    <country_code>GT</country_code>
    <zipcode>16010</zipcode>
    <place>SAN JUAN CHAMELCO</place>
    <state>DEPTO DE ALTA VERAPAZ</state>
    <state_code>01</state_code>
    <province></province>
    <province_code></province_code>
    <community></community>
    <community_code></community_code>
    <latitude>15.4333</latitude>
    <longitude>-90.3333</longitude>
  </object>
  <object>
    <country_code>GT</country_code>
    <zipcode>16011</zipcode>
    <place>LANQUIN</place>
    <state>DEPTO DE ALTA VERAPAZ</state>
    <state_code>01</state_code>
    <province></province>
    <province_code></province_code>
    <community></community>
    <community_code></community_code>
    <latitude>15.5667</latitude>
    <longitude>-89.9667</longitude>
  </object>
  <object>
    <country_code>GT</country_code>
    <zipcode>16012</zipcode>
    <place>CAHABON</place>
    <state>DEPTO DE ALTA VERAPAZ</state>
    <state_code>01</state_code>
    <province></province>
    <province_code></province_code>
    <community></community>
    <community_code></community_code>
    <latitude>15.5667</latitude>
    <longitude>-89.8167</longitude>
  </object>
  <object>
    <country_code>GT</country_code>
    <zipcode>16013</zipcode>
    <place>CHISET</place>
    <state>DEPTO DE ALTA VERAPAZ</state>
    <state_code>01</state_code>
    <province></province>
    <province_code></province_code>
    <community></community>
    <community_code></community_code>
    <latitude>15.5792</latitude>
    <longitude>-89.9208</longitude>
  </object>
  <object>
    <country_code>GT</country_code>
    <zipcode>16014</zipcode>
    <place>CHAHAL</place>
    <state>DEPTO DE ALTA VERAPAZ</state>
    <state_code>01</state_code>
    <province></province>
    <province_code></province_code>
    <community></community>
    <community_code></community_code>
    <latitude>15.75</latitude>
    <longitude>-89.5667</longitude>
  </object>
  <object>
    <country_code>GT</country_code>
    <zipcode>16015</zipcode>
    <place>FRAY BARTOLOME DE LAS CASAS</place>
    <state>DEPTO DE ALTA VERAPAZ</state>
    <state_code>01</state_code>
    <province></province>
    <province_code></province_code>
    <community></community>
    <community_code></community_code>
    <latitude>15.5792</latitude>
    <longitude>-89.9208</longitude>
  </object>
  <object>
    <country_code>GT</country_code>
    <zipcode>16016</zipcode>
    <place>LA TINTA (PANZOS)</place>
    <state>DEPTO DE ALTA VERAPAZ</state>
    <state_code>01</state_code>
    <province></province>
    <province_code></province_code>
    <community></community>
    <community_code></community_code>
    <latitude>15.5792</latitude>
    <longitude>-89.9208</longitude>
  </object>
  <object>
    <country_code>GT</country_code>
    <zipcode>16017</zipcode>
    <place>TELEMAN (PANZOS)</place>
    <state>DEPTO DE ALTA VERAPAZ</state>
    <state_code>01</state_code>
    <province></province>
    <province_code></province_code>
    <community></community>
    <community_code></community_code>
    <latitude>15.5792</latitude>
    <longitude>-89.9208</longitude>
  </object>
  <object>
    <country_code>GT</country_code>
    <zipcode>16018</zipcode>
    <place>PANCAJCHE (TUCURU)</place>
    <state>DEPTO DE ALTA VERAPAZ</state>
    <state_code>01</state_code>
    <province></province>
    <province_code></province_code>
    <community></community>
    <community_code></community_code>
    <latitude>15.5792</latitude>
    <longitude>-89.9208</longitude>
  </object>
  <object>
    <country_code>GT</country_code>
    <zipcode>16019</zipcode>
    <place>SEBOL (FRAY BARTOLOME)</place>
    <state>DEPTO DE ALTA VERAPAZ</state>
    <state_code>01</state_code>
    <province></province>
    <province_code></province_code>
    <community></community>
    <community_code></community_code>
    <latitude>15.5792</latitude>
    <longitude>-89.9208</longitude>
  </object>
  <object>
    <country_code>GT</country_code>
    <zipcode>16020</zipcode>
    <place>BOLONCO (FRAY BARTOLOME)</place>
    <state>DEPTO DE ALTA VERAPAZ</state>
    <state_code>01</state_code>
    <province></province>
    <province_code></province_code>
    <community></community>
    <community_code></community_code>
    <latitude>15.4462</latitude>
    <longitude>-90.091</longitude>
  </object>
  <object>
    <country_code>GT</country_code>
    <zipcode>16021</zipcode>
    <place>CAMPUR (SAN PEDRO CARCHA)</place>
    <state>DEPTO DE ALTA VERAPAZ</state>
    <state_code>01</state_code>
    <province></province>
    <province_code></province_code>
    <community></community>
    <community_code></community_code>
    <latitude>15.4462</latitude>
    <longitude>-90.091</longitude>
  </object>
  <object>
    <country_code>GT</country_code>
    <zipcode>16022</zipcode>
    <place>LAS CASAS</place>
    <state>DEPTO DE ALTA VERAPAZ</state>
    <state_code>01</state_code>
    <province></province>
    <province_code></province_code>
    <community></community>
    <community_code></community_code>
    <latitude>15.4462</latitude>
    <longitude>-90.091</longitude>
  </object>
  <object>
    <country_code>GT</country_code>
    <zipcode>16023</zipcode>
    <place>SALACUIN</place>
    <state>DEPTO DE ALTA VERAPAZ</state>
    <state_code>01</state_code>
    <province></province>
    <province_code></province_code>
    <community></community>
    <community_code></community_code>
    <latitude>15.4462</latitude>
    <longitude>-90.091</longitude>
  </object>
  <object>
    <country_code>GT</country_code>
    <zipcode>16024</zipcode>
    <place>EL ROSARIO</place>
    <state>DEPTO DE ALTA VERAPAZ</state>
    <state_code>01</state_code>
    <province></province>
    <province_code></province_code>
    <community></community>
    <community_code></community_code>
    <latitude>15.4462</latitude>
    <longitude>-90.091</longitude>
  </object>
  <object>
    <country_code>GT</country_code>
    <zipcode>16025</zipcode>
    <place>LAS CONCHAS</place>
    <state>DEPTO DE ALTA VERAPAZ</state>
    <state_code>01</state_code>
    <province></province>
    <province_code></province_code>
    <community></community>
    <community_code></community_code>
    <latitude>15.4462</latitude>
    <longitude>-90.091</longitude>
  </object>
  <object>
    <country_code>GT</country_code>
    <zipcode>16026</zipcode>
    <place>RAXRUHA (CHISEC)</place>
    <state>DEPTO DE ALTA VERAPAZ</state>
    <state_code>01</state_code>
    <province></province>
    <province_code></province_code>
    <community></community>
    <community_code></community_code>
    <latitude>15.4462</latitude>
    <longitude>-90.091</longitude>
  </object>
  <object>
    <country_code>GT</country_code>
    <zipcode>15000</zipcode>
    <place>DEPTO DE BAJA VERAPAZ</place>
    <state>DEPTO DE BAJA VERAPAZ</state>
    <state_code>02</state_code>
    <province></province>
    <province_code></province_code>
    <community></community>
    <community_code></community_code>
    <latitude>15.0516</latitude>
    <longitude>-90.4148</longitude>
  </object>
  <object>
    <country_code>GT</country_code>
    <zipcode>15001</zipcode>
    <place>SALAMA</place>
    <state>DEPTO DE BAJA VERAPAZ</state>
    <state_code>02</state_code>
    <province></province>
    <province_code></province_code>
    <community></community>
    <community_code></community_code>
    <latitude>15.1</latitude>
    <longitude>-90.2667</longitude>
  </object>
  <object>
    <country_code>GT</country_code>
    <zipcode>15002</zipcode>
    <place>SAN MIGUEL CHICAJ</place>
    <state>DEPTO DE BAJA VERAPAZ</state>
    <state_code>02</state_code>
    <province></province>
    <province_code></province_code>
    <community></community>
    <community_code></community_code>
    <latitude>15.1</latitude>
    <longitude>-90.4</longitude>
  </object>
  <object>
    <country_code>GT</country_code>
    <zipcode>15003</zipcode>
    <place>RABINAL</place>
    <state>DEPTO DE BAJA VERAPAZ</state>
    <state_code>02</state_code>
    <province></province>
    <province_code></province_code>
    <community></community>
    <community_code></community_code>
    <latitude>15.1</latitude>
    <longitude>-90.45</longitude>
  </object>
  <object>
    <country_code>GT</country_code>
    <zipcode>15004</zipcode>
    <place>CUBULCO</place>
    <state>DEPTO DE BAJA VERAPAZ</state>
    <state_code>02</state_code>
    <province></province>
    <province_code></province_code>
    <community></community>
    <community_code></community_code>
    <latitude>15.1333</latitude>
    <longitude>-90.5833</longitude>
  </object>
  <object>
    <country_code>GT</country_code>
    <zipcode>15005</zipcode>
    <place>GRANADOS</place>
    <state>DEPTO DE BAJA VERAPAZ</state>
    <state_code>02</state_code>
    <province></province>
    <province_code></province_code>
    <community></community>
    <community_code></community_code>
    <latitude>14.9136</latitude>
    <longitude>-90.5228</longitude>
  </object>
  <object>
    <country_code>GT</country_code>
    <zipcode>15006</zipcode>
    <place>EL CHOL</place>
    <state>DEPTO DE BAJA VERAPAZ</state>
    <state_code>02</state_code>
    <province></province>
    <province_code></province_code>
    <community></community>
    <community_code></community_code>
    <latitude>14.9642</latitude>
    <longitude>-90.4806</longitude>
  </object>
  <object>
    <country_code>GT</country_code>
    <zipcode>15007</zipcode>
    <place>SAN JERONIMO</place>
    <state>DEPTO DE BAJA VERAPAZ</state>
    <state_code>02</state_code>
    <province></province>
    <province_code></province_code>
    <community></community>
    <community_code></community_code>
    <latitude>15.05</latitude>
    <longitude>-90.2</longitude>
  </object>
  <object>
    <country_code>GT</country_code>
    <zipcode>15008</zipcode>
    <place>PERULHA</place>
    <state>DEPTO DE BAJA VERAPAZ</state>
    <state_code>02</state_code>
    <province></province>
    <province_code></province_code>
    <community></community>
    <community_code></community_code>
    <latitude>15.0516</latitude>
    <longitude>-90.4148</longitude>
  </object>
  <object>
    <country_code>GT</country_code>
    <zipcode>15009</zipcode>
    <place>LOS AMATES (EL CHOL)</place>
    <state>DEPTO DE BAJA VERAPAZ</state>
    <state_code>02</state_code>
    <province></province>
    <province_code></province_code>
    <community></community>
    <community_code></community_code>
    <latitude>15.0516</latitude>
    <longitude>-90.4148</longitude>
  </object>
  <object>
    <country_code>GT</country_code>
    <zipcode>15010</zipcode>
    <place>LA CANOA (SALAMA)</place>
    <state>DEPTO DE BAJA VERAPAZ</state>
    <state_code>02</state_code>
    <province></province>
    <province_code></province_code>
    <community></community>
    <community_code></community_code>
    <latitude>15.0516</latitude>
    <longitude>-90.4148</longitude>
  </object>
  <object>
    <country_code>GT</country_code>
    <zipcode>15011</zipcode>
    <place>SALTAN (GRANADOS)</place>
    <state>DEPTO DE BAJA VERAPAZ</state>
    <state_code>02</state_code>
    <province></province>
    <province_code></province_code>
    <community></community>
    <community_code></community_code>
    <latitude>15.0516</latitude>
    <longitude>-90.4148</longitude>
  </object>
  <object>
    <country_code>GT</country_code>
    <zipcode>15012</zipcode>
    <place>SAN GABRIEL PANTZUY (SAN MIGUEL CHICAJ)</place>
    <state>DEPTO DE BAJA VERAPAZ</state>
    <state_code>02</state_code>
    <province></province>
    <province_code></province_code>
    <community></community>
    <community_code></community_code>
    <latitude>15.0516</latitude>
    <longitude>-90.4148</longitude>
  </object>
  <object>
    <country_code>GT</country_code>
    <zipcode>04000</zipcode>
    <place>DEPTO DE CHIMALTENANGO</place>
    <state>DEPTO DE CHIMALTENANGO</state>
    <state_code>03</state_code>
    <province></province>
    <province_code></province_code>
    <community></community>
    <community_code></community_code>
    <latitude>14.7156</latitude>
    <longitude>-90.9328</longitude>
  </object>
  <object>
    <country_code>GT</country_code>
    <zipcode>04001</zipcode>
    <place>CHIMALTENANGO</place>
    <state>DEPTO DE CHIMALTENANGO</state>
    <state_code>03</state_code>
    <province></province>
    <province_code></province_code>
    <community></community>
    <community_code></community_code>
    <latitude>14.6686</latitude>
    <longitude>-90.8167</longitude>
  </object>
  <object>
    <country_code>GT</country_code>
    <zipcode>04002</zipcode>
    <place>SAN JOSE POAQUIL</place>
    <state>DEPTO DE CHIMALTENANGO</state>
    <state_code>03</state_code>
    <province></province>
    <province_code></province_code>
    <community></community>
    <community_code></community_code>
    <latitude>14.8197</latitude>
    <longitude>-90.9064</longitude>
  </object>
  <object>
    <country_code>GT</country_code>
    <zipcode>04003</zipcode>
    <place>SAN MARTIN JILOTEPEQUE</place>
    <state>DEPTO DE CHIMALTENANGO</state>
    <state_code>03</state_code>
    <province></province>
    <province_code></province_code>
    <community></community>
    <community_code></community_code>
    <latitude>14.7878</latitude>
    <longitude>-90.7925</longitude>
  </object>
  <object>
    <country_code>GT</country_code>
    <zipcode>04004</zipcode>
    <place>COMALAPA</place>
    <state>DEPTO DE CHIMALTENANGO</state>
    <state_code>03</state_code>
    <province></province>
    <province_code></province_code>
    <community></community>
    <community_code></community_code>
    <latitude>14.7411</latitude>
    <longitude>-90.8875</longitude>
  </object>
  <object>
    <country_code>GT</country_code>
    <zipcode>04005</zipcode>
    <place>SANTA APOLONIA</place>
    <state>DEPTO DE CHIMALTENANGO</state>
    <state_code>03</state_code>
    <province></province>
    <province_code></province_code>
    <community></community>
    <community_code></community_code>
    <latitude>14.7914</latitude>
    <longitude>-90.9708</longitude>
  </object>
  <object>
    <country_code>GT</country_code>
    <zipcode>04006</zipcode>
    <place>TECPAN GUATEMALA</place>
    <state>DEPTO DE CHIMALTENANGO</state>
    <state_code>03</state_code>
    <province></province>
    <province_code></province_code>
    <community></community>
    <community_code></community_code>
    <latitude>14.7669</latitude>
    <longitude>-90.9942</longitude>
  </object>
  <object>
    <country_code>GT</country_code>
    <zipcode>04007</zipcode>
    <place>PATZUN</place>
    <state>DEPTO DE CHIMALTENANGO</state>
    <state_code>03</state_code>
    <province></province>
    <province_code></province_code>
    <community></community>
    <community_code></community_code>
    <latitude>14.6833</latitude>
    <longitude>-91.0167</longitude>
  </object>
  <object>
    <country_code>GT</country_code>
    <zipcode>04008</zipcode>
    <place>POCHUTA</place>
    <state>DEPTO DE CHIMALTENANGO</state>
    <state_code>03</state_code>
    <province></province>
    <province_code></province_code>
    <community></community>
    <community_code></community_code>
    <latitude>14.55</latitude>
    <longitude>-91.0833</longitude>
  </object>
  <object>
    <country_code>GT</country_code>
    <zipcode>04009</zipcode>
    <place>PATZICIA</place>
    <state>DEPTO DE CHIMALTENANGO</state>
    <state_code>03</state_code>
    <province></province>
    <province_code></province_code>
    <community></community>
    <community_code></community_code>
    <latitude>14.6317</latitude>
    <longitude>-90.9269</longitude>
  </object>
  <object>
    <country_code>GT</country_code>
    <zipcode>04010</zipcode>
    <place>SANTA CRUZ BALANYA</place>
    <state>DEPTO DE CHIMALTENANGO</state>
    <state_code>03</state_code>
    <province></province>
    <province_code></province_code>
    <community></community>
    <community_code></community_code>
    <latitude>14.6872</latitude>
    <longitude>-90.915</longitude>
  </object>
  <object>
    <country_code>GT</country_code>
    <zipcode>04011</zipcode>
    <place>ACATENANGO</place>
    <state>DEPTO DE CHIMALTENANGO</state>
    <state_code>03</state_code>
    <province></province>
    <province_code></province_code>
    <community></community>
    <community_code></community_code>
    <latitude>14.5519</latitude>
    <longitude>-90.9422</longitude>
  </object>
  <object>
    <country_code>GT</country_code>
    <zipcode>04012</zipcode>
    <place>YEPOCAPA</place>
    <state>DEPTO DE CHIMALTENANGO</state>
    <state_code>03</state_code>
    <province></province>
    <province_code></province_code>
    <community></community>
    <community_code></community_code>
    <latitude>14.5042</latitude>
    <longitude>-90.9569</longitude>
  </object>
  <object>
    <country_code>GT</country_code>
    <zipcode>04013</zipcode>
    <place>SAN ANDRES ITZAPA</place>
    <state>DEPTO DE CHIMALTENANGO</state>
    <state_code>03</state_code>
    <province></province>
    <province_code></province_code>
    <community></community>
    <community_code></community_code>
    <latitude>14.62</latitude>
    <longitude>-90.8442</longitude>
  </object>
  <object>
    <country_code>GT</country_code>
    <zipcode>04014</zipcode>
    <place>PARRAMOS</place>
    <state>DEPTO DE CHIMALTENANGO</state>
    <state_code>03</state_code>
    <province></province>
    <province_code></province_code>
    <community></community>
    <community_code></community_code>
    <latitude>14.6078</latitude>
    <longitude>-90.8031</longitude>
  </object>
  <object>
    <country_code>GT</country_code>
    <zipcode>04015</zipcode>
    <place>ZARAGOZA</place>
    <state>DEPTO DE CHIMALTENANGO</state>
    <state_code>03</state_code>
    <province></province>
    <province_code></province_code>
    <community></community>
    <community_code></community_code>
    <latitude>14.6544</latitude>
    <longitude>-90.8894</longitude>
  </object>
  <object>
    <country_code>GT</country_code>
    <zipcode>04016</zipcode>
    <place>EL TEJAR</place>
    <state>DEPTO DE CHIMALTENANGO</state>
    <state_code>03</state_code>
    <province></province>
    <province_code></province_code>
    <community></community>
    <community_code></community_code>
    <latitude>14.6478</latitude>
    <longitude>-90.7928</longitude>
  </object>
  <object>
    <country_code>GT</country_code>
    <zipcode>20000</zipcode>
    <place>DEPTO DE CHIQUIMULA</place>
    <state>DEPTO DE CHIQUIMULA</state>
    <state_code>04</state_code>
    <province></province>
    <province_code></province_code>
    <community></community>
    <community_code></community_code>
    <latitude>14.7019</latitude>
    <longitude>-89.4352</longitude>
  </object>
  <object>
    <country_code>GT</country_code>
    <zipcode>20001</zipcode>
    <place>CHIQUIMULA</place>
    <state>DEPTO DE CHIQUIMULA</state>
    <state_code>04</state_code>
    <province></province>
    <province_code></province_code>
    <community></community>
    <community_code></community_code>
    <latitude>14.8</latitude>
    <longitude>-89.55</longitude>
  </object>
  <object>
    <country_code>GT</country_code>
    <zipcode>20002</zipcode>
    <place>SAN JOSE LA ARADA</place>
    <state>DEPTO DE CHIQUIMULA</state>
    <state_code>04</state_code>
    <province></province>
    <province_code></province_code>
    <community></community>
    <community_code></community_code>
    <latitude>14.7167</latitude>
    <longitude>-89.5833</longitude>
  </object>
  <object>
    <country_code>GT</country_code>
    <zipcode>20003</zipcode>
    <place>SAN JUAN ERMITA</place>
    <state>DEPTO DE CHIQUIMULA</state>
    <state_code>04</state_code>
    <province></province>
    <province_code></province_code>
    <community></community>
    <community_code></community_code>
    <latitude>14.7667</latitude>
    <longitude>-89.4333</longitude>
  </object>
  <object>
    <country_code>GT</country_code>
    <zipcode>20004</zipcode>
    <place>JOCOTAN</place>
    <state>DEPTO DE CHIQUIMULA</state>
    <state_code>04</state_code>
    <province></province>
    <province_code></province_code>
    <community></community>
    <community_code></community_code>
    <latitude>14.8167</latitude>
    <longitude>-89.3833</longitude>
  </object>
  <object>
    <country_code>GT</country_code>
    <zipcode>20005</zipcode>
    <place>CAMOTAN</place>
    <state>DEPTO DE CHIQUIMULA</state>
    <state_code>04</state_code>
    <province></province>
    <province_code></province_code>
    <community></community>
    <community_code></community_code>
    <latitude>14.8167</latitude>
    <longitude>-89.3667</longitude>
  </object>
  <object>
    <country_code>GT</country_code>
    <zipcode>20006</zipcode>
    <place>OLOPA</place>
    <state>DEPTO DE CHIQUIMULA</state>
    <state_code>04</state_code>
    <province></province>
    <province_code></province_code>
    <community></community>
    <community_code></community_code>
    <latitude>14.6833</latitude>
    <longitude>-89.35</longitude>
  </object>
  <object>
    <country_code>GT</country_code>
    <zipcode>20007</zipcode>
    <place>ESQUIPULAS</place>
    <state>DEPTO DE CHIQUIMULA</state>
    <state_code>04</state_code>
    <province></province>
    <province_code></province_code>
    <community></community>
    <community_code></community_code>
    <latitude>14.5667</latitude>
    <longitude>-89.35</longitude>
  </object>
  <object>
    <country_code>GT</country_code>
    <zipcode>20008</zipcode>
    <place>CONCEPCION LAS MINAS</place>
    <state>DEPTO DE CHIQUIMULA</state>
    <state_code>04</state_code>
    <province></province>
    <province_code></province_code>
    <community></community>
    <community_code></community_code>
    <latitude>14.5167</latitude>
    <longitude>-89.45</longitude>
  </object>
  <object>
    <country_code>GT</country_code>
    <zipcode>20009</zipcode>
    <place>QUETZALTEPEQUE</place>
    <state>DEPTO DE CHIQUIMULA</state>
    <state_code>04</state_code>
    <province></province>
    <province_code></province_code>
    <community></community>
    <community_code></community_code>
    <latitude>14.6333</latitude>
    <longitude>-89.45</longitude>
  </object>
  <object>
    <country_code>GT</country_code>
    <zipcode>20010</zipcode>
    <place>SAN JACINTO</place>
    <state>DEPTO DE CHIQUIMULA</state>
    <state_code>04</state_code>
    <province></province>
    <province_code></province_code>
    <community></community>
    <community_code></community_code>
    <latitude>14.6667</latitude>
    <longitude>-89.5</longitude>
  </object>
  <object>
    <country_code>GT</country_code>
    <zipcode>20011</zipcode>
    <place>IPALA</place>
    <state>DEPTO DE CHIQUIMULA</state>
    <state_code>04</state_code>
    <province></province>
    <province_code></province_code>
    <community></community>
    <community_code></community_code>
    <latitude>14.6167</latitude>
    <longitude>-89.6167</longitude>
  </object>
  <object>
    <country_code>GT</country_code>
    <zipcode>20012</zipcode>
    <place>ANGUIATU (CONCEP. LAS MINAS )</place>
    <state>DEPTO DE CHIQUIMULA</state>
    <state_code>04</state_code>
    <province></province>
    <province_code></province_code>
    <community></community>
    <community_code></community_code>
    <latitude>14.6875</latitude>
    <longitude>-89.5333</longitude>
  </object>
  <object>
    <country_code>GT</country_code>
    <zipcode>20013</zipcode>
    <place>EL AMATILLO (JOCOTAN)</place>
    <state>DEPTO DE CHIQUIMULA</state>
    <state_code>04</state_code>
    <province></province>
    <province_code></province_code>
    <community></community>
    <community_code></community_code>
    <latitude>14.6875</latitude>
    <longitude>-89.5333</longitude>
  </object>
  <object>
    <country_code>GT</country_code>
    <zipcode>20014</zipcode>
    <place>EL FLORIDO (CAMOTAN)</place>
    <state>DEPTO DE CHIQUIMULA</state>
    <state_code>04</state_code>
    <province></province>
    <province_code></province_code>
    <community></community>
    <community_code></community_code>
    <latitude>14.6875</latitude>
    <longitude>-89.5333</longitude>
  </object>
  <object>
    <country_code>GT</country_code>
    <zipcode>20015</zipcode>
    <place>SANTA ELENA (CHIQUIMULA)</place>
    <state>DEPTO DE CHIQUIMULA</state>
    <state_code>04</state_code>
    <province></province>
    <province_code></province_code>
    <community></community>
    <community_code></community_code>
    <latitude>14.7167</latitude>
    <longitude>-89.5</longitude>
  </object>
  <object>
    <country_code>GT</country_code>
    <zipcode>20016</zipcode>
    <place>VALDO HONDO (CHIQUIMULA)</place>
    <state>DEPTO DE CHIQUIMULA</state>
    <state_code>04</state_code>
    <province></province>
    <province_code></province_code>
    <community></community>
    <community_code></community_code>
    <latitude>14.6875</latitude>
    <longitude>-89.5333</longitude>
  </object>
  <object>
    <country_code>GT</country_code>
    <zipcode>20017</zipcode>
    <place>SAN ESTEBAN (CHIQUIMULA)</place>
    <state>DEPTO DE CHIQUIMULA</state>
    <state_code>04</state_code>
    <province></province>
    <province_code></province_code>
    <community></community>
    <community_code></community_code>
    <latitude>14.75</latitude>
    <longitude>-89.5167</longitude>
  </object>
  <object>
    <country_code>GT</country_code>
    <zipcode>20018</zipcode>
    <place>TIERRA COLORADA ( SAN JOSE LA ARADA)</place>
    <state>DEPTO DE CHIQUIMULA</state>
    <state_code>04</state_code>
    <province></province>
    <province_code></province_code>
    <community></community>
    <community_code></community_code>
    <latitude>14.6875</latitude>
    <longitude>-89.5333</longitude>
  </object>
  <object>
    <country_code>GT</country_code>
    <zipcode>20019</zipcode>
    <place>AGUA CALIENTE ( ESQUIPULAS)</place>
    <state>DEPTO DE CHIQUIMULA</state>
    <state_code>04</state_code>
    <province></province>
    <province_code></province_code>
    <community></community>
    <community_code></community_code>
    <latitude>14.6875</latitude>
    <longitude>-89.5333</longitude>
  </object>
  <object>
    <country_code>GT</country_code>
    <zipcode>20020</zipcode>
    <place>NUEVA ANGUIATU (CONCEP. LAS MINAS)</place>
    <state>DEPTO DE CHIQUIMULA</state>
    <state_code>04</state_code>
    <province></province>
    <province_code></province_code>
    <community></community>
    <community_code></community_code>
    <latitude>14.6974</latitude>
    <longitude>-89.4654</longitude>
  </object>
  <object>
    <country_code>GT</country_code>
    <zipcode>05000</zipcode>
    <place>DEPTO DE ESCUINTLA</place>
    <state>DEPTO DE ESCUINTLA</state>
    <state_code>06</state_code>
    <province></province>
    <province_code></province_code>
    <community></community>
    <community_code></community_code>
    <latitude>14.2088</latitude>
    <longitude>-90.9754</longitude>
  </object>
  <object>
    <country_code>GT</country_code>
    <zipcode>05001</zipcode>
    <place>ESCUINTLA</place>
    <state>DEPTO DE ESCUINTLA</state>
    <state_code>06</state_code>
    <province></province>
    <province_code></province_code>
    <community></community>
    <community_code></community_code>
    <latitude>14.305</latitude>
    <longitude>-90.785</longitude>
  </object>
  <object>
    <country_code>GT</country_code>
    <zipcode>05002</zipcode>
    <place>SANTA LUCIA COTZUMALGUAPA</place>
    <state>DEPTO DE ESCUINTLA</state>
    <state_code>06</state_code>
    <province></province>
    <province_code></province_code>
    <community></community>
    <community_code></community_code>
    <latitude>14.3333</latitude>
    <longitude>-91.0167</longitude>
  </object>
  <object>
    <country_code>GT</country_code>
    <zipcode>05003</zipcode>
    <place>LA DEMOCRACIA</place>
    <state>DEPTO DE ESCUINTLA</state>
    <state_code>06</state_code>
    <province></province>
    <province_code></province_code>
    <community></community>
    <community_code></community_code>
    <latitude>14.2308</latitude>
    <longitude>-90.9472</longitude>
  </object>
  <object>
    <country_code>GT</country_code>
    <zipcode>05004</zipcode>
    <place>SIQUINALA</place>
    <state>DEPTO DE ESCUINTLA</state>
    <state_code>06</state_code>
    <province></province>
    <province_code></province_code>
    <community></community>
    <community_code></community_code>
    <latitude>14.3061</latitude>
    <longitude>-90.965</longitude>
  </object>
  <object>
    <country_code>GT</country_code>
    <zipcode>05005</zipcode>
    <place>MASAGUA</place>
    <state>DEPTO DE ESCUINTLA</state>
    <state_code>06</state_code>
    <province></province>
    <province_code></province_code>
    <community></community>
    <community_code></community_code>
    <latitude>14.2031</latitude>
    <longitude>-90.8481</longitude>
  </object>
  <object>
    <country_code>GT</country_code>
    <zipcode>05006</zipcode>
    <place>TIQUISATE</place>
    <state>DEPTO DE ESCUINTLA</state>
    <state_code>06</state_code>
    <province></province>
    <province_code></province_code>
    <community></community>
    <community_code></community_code>
    <latitude>14.2833</latitude>
    <longitude>-91.3667</longitude>
  </object>
  <object>
    <country_code>GT</country_code>
    <zipcode>05007</zipcode>
    <place>LA GOMERA</place>
    <state>DEPTO DE ESCUINTLA</state>
    <state_code>06</state_code>
    <province></province>
    <province_code></province_code>
    <community></community>
    <community_code></community_code>
    <latitude>14.0833</latitude>
    <longitude>-91.05</longitude>
  </object>
  <object>
    <country_code>GT</country_code>
    <zipcode>05009</zipcode>
    <place>SAN JOSE</place>
    <state>DEPTO DE ESCUINTLA</state>
    <state_code>06</state_code>
    <province></province>
    <province_code></province_code>
    <community></community>
    <community_code></community_code>
    <latitude>13.9256</latitude>
    <longitude>-90.8244</longitude>
  </object>
  <object>
    <country_code>GT</country_code>
    <zipcode>05010</zipcode>
    <place>ITZAPA</place>
    <state>DEPTO DE ESCUINTLA</state>
    <state_code>06</state_code>
    <province></province>
    <province_code></province_code>
    <community></community>
    <community_code></community_code>
    <latitude>14.62</latitude>
    <longitude>-90.8442</longitude>
  </object>
  <object>
    <country_code>GT</country_code>
    <zipcode>05011</zipcode>
    <place>PALIN</place>
    <state>DEPTO DE ESCUINTLA</state>
    <state_code>06</state_code>
    <province></province>
    <province_code></province_code>
    <community></community>
    <community_code></community_code>
    <latitude>14.4056</latitude>
    <longitude>-90.6983</longitude>
  </object>
  <object>
    <country_code>GT</country_code>
    <zipcode>05012</zipcode>
    <place>SAN VICENTE PACAYA</place>
    <state>DEPTO DE ESCUINTLA</state>
    <state_code>06</state_code>
    <province></province>
    <province_code></province_code>
    <community></community>
    <community_code></community_code>
    <latitude>14.4161</latitude>
    <longitude>-90.6392</longitude>
  </object>
  <object>
    <country_code>GT</country_code>
    <zipcode>05013</zipcode>
    <place>NUEVA CONCEPCION</place>
    <state>DEPTO DE ESCUINTLA</state>
    <state_code>06</state_code>
    <province></province>
    <province_code></province_code>
    <community></community>
    <community_code></community_code>
    <latitude>14.2</latitude>
    <longitude>-91.3</longitude>
  </object>
  <object>
    <country_code>GT</country_code>
    <zipcode>05014</zipcode>
    <place>OBERO (MASAGUA)</place>
    <state>DEPTO DE ESCUINTLA</state>
    <state_code>06</state_code>
    <province></province>
    <province_code></province_code>
    <community></community>
    <community_code></community_code>
    <latitude>14.4104</latitude>
    <longitude>-90.8704</longitude>
  </object>
  <object>
    <country_code>GT</country_code>
    <zipcode>05015</zipcode>
    <place>BRITO (GUANAGAZAPA)</place>
    <state>DEPTO DE ESCUINTLA</state>
    <state_code>06</state_code>
    <province></province>
    <province_code></province_code>
    <community></community>
    <community_code></community_code>
    <latitude>14.4104</latitude>
    <longitude>-90.8704</longitude>
  </object>
  <object>
    <country_code>GT</country_code>
    <zipcode>05016</zipcode>
    <place>SANTA ANA MIXTAN (NUEVA CONCEPCION)</place>
    <state>DEPTO DE ESCUINTLA</state>
    <state_code>06</state_code>
    <province></province>
    <province_code></province_code>
    <community></community>
    <community_code></community_code>
    <latitude>14.4104</latitude>
    <longitude>-90.8704</longitude>
  </object>
  <object>
    <country_code>GT</country_code>
    <zipcode>05017</zipcode>
    <place>EL NARANJO (MASAGUA)</place>
    <state>DEPTO DE ESCUINTLA</state>
    <state_code>06</state_code>
    <province></province>
    <province_code></province_code>
    <community></community>
    <community_code></community_code>
    <latitude>14.4104</latitude>
    <longitude>-90.8704</longitude>
  </object>
  <object>
    <country_code>GT</country_code>
    <zipcode>05018</zipcode>
    <place>SAN ANDRES OSUMA (ESCUINTLA)</place>
    <state>DEPTO DE ESCUINTLA</state>
    <state_code>06</state_code>
    <province></province>
    <province_code></province_code>
    <community></community>
    <community_code></community_code>
    <latitude>14.4104</latitude>
    <longitude>-90.8704</longitude>
  </object>
  <object>
    <country_code>GT</country_code>
    <zipcode>05019</zipcode>
    <place>CUYUTA (MASAGUA)</place>
    <state>DEPTO DE ESCUINTLA</state>
    <state_code>06</state_code>
    <province></province>
    <province_code></province_code>
    <community></community>
    <community_code></community_code>
    <latitude>14.4104</latitude>
    <longitude>-90.8704</longitude>
  </object>
  <object>
    <country_code>GT</country_code>
    <zipcode>05020</zipcode>
    <place>EL PORVENIR TICANLU (TIQUISATE)</place>
    <state>DEPTO DE ESCUINTLA</state>
    <state_code>06</state_code>
    <province></province>
    <province_code></province_code>
    <community></community>
    <community_code></community_code>
    <latitude>14.276</latitude>
    <longitude>-90.9404</longitude>
  </object>
  <object>
    <country_code>GT</country_code>
    <zipcode>05021</zipcode>
    <place>SIPACATE (LA GOMERA)</place>
    <state>DEPTO DE ESCUINTLA</state>
    <state_code>06</state_code>
    <province></province>
    <province_code></province_code>
    <community></community>
    <community_code></community_code>
    <latitude>14.276</latitude>
    <longitude>-90.9404</longitude>
  </object>
  <object>
    <country_code>GT</country_code>
    <zipcode>01001</zipcode>
    <place>ZONA 1</place>
    <state>Ciudad de Guatemala</state>
    <state_code>07</state_code>
    <province></province>
    <province_code></province_code>
    <community></community>
    <community_code></community_code>
    <latitude>14.6328</latitude>
    <longitude>-90.5199</longitude>
  </object>
  <object>
    <country_code>GT</country_code>
    <zipcode>01002</zipcode>
    <place>ZONA 2</place>
    <state>Ciudad de Guatemala</state>
    <state_code>07</state_code>
    <province></province>
    <province_code></province_code>
    <community></community>
    <community_code></community_code>
    <latitude>14.6328</latitude>
    <longitude>-90.5199</longitude>
  </object>
  <object>
    <country_code>GT</country_code>
    <zipcode>01003</zipcode>
    <place>ZONA 3</place>
    <state>Ciudad de Guatemala</state>
    <state_code>07</state_code>
    <province></province>
    <province_code></province_code>
    <community></community>
    <community_code></community_code>
    <latitude>14.6328</latitude>
    <longitude>-90.5199</longitude>
  </object>
  <object>
    <country_code>GT</country_code>
    <zipcode>01004</zipcode>
    <place>ZONA 4</place>
    <state>Ciudad de Guatemala</state>
    <state_code>07</state_code>
    <province></province>
    <province_code></province_code>
    <community></community>
    <community_code></community_code>
    <latitude>14.6328</latitude>
    <longitude>-90.5199</longitude>
  </object>
  <object>
    <country_code>GT</country_code>
    <zipcode>01005</zipcode>
    <place>ZONA 5</place>
    <state>Ciudad de Guatemala</state>
    <state_code>07</state_code>
    <province></province>
    <province_code></province_code>
    <community></community>
    <community_code></community_code>
    <latitude>14.6328</latitude>
    <longitude>-90.5199</longitude>
  </object>
  <object>
    <country_code>GT</country_code>
    <zipcode>01006</zipcode>
    <place>ZONA 6</place>
    <state>Ciudad de Guatemala</state>
    <state_code>07</state_code>
    <province></province>
    <province_code></province_code>
    <community></community>
    <community_code></community_code>
    <latitude>14.6328</latitude>
    <longitude>-90.5199</longitude>
  </object>
  <object>
    <country_code>GT</country_code>
    <zipcode>01007</zipcode>
    <place>ZONA 7</place>
    <state>Ciudad de Guatemala</state>
    <state_code>07</state_code>
    <province></province>
    <province_code></province_code>
    <community></community>
    <community_code></community_code>
    <latitude>14.6328</latitude>
    <longitude>-90.5199</longitude>
  </object>
  <object>
    <country_code>GT</country_code>
    <zipcode>01008</zipcode>
    <place>ZONA 8</place>
    <state>Ciudad de Guatemala</state>
    <state_code>07</state_code>
    <province></province>
    <province_code></province_code>
    <community></community>
    <community_code></community_code>
    <latitude>14.6328</latitude>
    <longitude>-90.5199</longitude>
  </object>
  <object>
    <country_code>GT</country_code>
    <zipcode>01009</zipcode>
    <place>ZONA 9</place>
    <state>Ciudad de Guatemala</state>
    <state_code>07</state_code>
    <province></province>
    <province_code></province_code>
    <community></community>
    <community_code></community_code>
    <latitude>14.6328</latitude>
    <longitude>-90.5199</longitude>
  </object>
  <object>
    <country_code>GT</country_code>
    <zipcode>01010</zipcode>
    <place>ZONA 10</place>
    <state>Ciudad de Guatemala</state>
    <state_code>07</state_code>
    <province></province>
    <province_code></province_code>
    <community></community>
    <community_code></community_code>
    <latitude>14.6328</latitude>
    <longitude>-90.5199</longitude>
  </object>
  <object>
    <country_code>GT</country_code>
    <zipcode>01011</zipcode>
    <place>ZONA 11</place>
    <state>Ciudad de Guatemala</state>
    <state_code>07</state_code>
    <province></province>
    <province_code></province_code>
    <community></community>
    <community_code></community_code>
    <latitude>14.6328</latitude>
    <longitude>-90.5199</longitude>
  </object>
  <object>
    <country_code>GT</country_code>
    <zipcode>01012</zipcode>
    <place>ZONA 12</place>
    <state>Ciudad de Guatemala</state>
    <state_code>07</state_code>
    <province></province>
    <province_code></province_code>
    <community></community>
    <community_code></community_code>
    <latitude>14.6328</latitude>
    <longitude>-90.5199</longitude>
  </object>
  <object>
    <country_code>GT</country_code>
    <zipcode>01013</zipcode>
    <place>ZONA 13</place>
    <state>Ciudad de Guatemala</state>
    <state_code>07</state_code>
    <province></province>
    <province_code></province_code>
    <community></community>
    <community_code></community_code>
    <latitude>14.6328</latitude>
    <longitude>-90.5199</longitude>
  </object>
  <object>
    <country_code>GT</country_code>
    <zipcode>01014</zipcode>
    <place>ZONA 14</place>
    <state>Ciudad de Guatemala</state>
    <state_code>07</state_code>
    <province></province>
    <province_code></province_code>
    <community></community>
    <community_code></community_code>
    <latitude>14.6328</latitude>
    <longitude>-90.5199</longitude>
  </object>
  <object>
    <country_code>GT</country_code>
    <zipcode>01015</zipcode>
    <place>ZONA 15</place>
    <state>Ciudad de Guatemala</state>
    <state_code>07</state_code>
    <province></province>
    <province_code></province_code>
    <community></community>
    <community_code></community_code>
    <latitude>14.6328</latitude>
    <longitude>-90.5199</longitude>
  </object>
  <object>
    <country_code>GT</country_code>
    <zipcode>01016</zipcode>
    <place>ZONA 16</place>
    <state>Ciudad de Guatemala</state>
    <state_code>07</state_code>
    <province></province>
    <province_code></province_code>
    <community></community>
    <community_code></community_code>
    <latitude>14.6328</latitude>
    <longitude>-90.5199</longitude>
  </object>
  <object>
    <country_code>GT</country_code>
    <zipcode>01017</zipcode>
    <place>ZONA 17</place>
    <state>Ciudad de Guatemala</state>
    <state_code>07</state_code>
    <province></province>
    <province_code></province_code>
    <community></community>
    <community_code></community_code>
    <latitude>14.6328</latitude>
    <longitude>-90.5199</longitude>
  </object>
  <object>
    <country_code>GT</country_code>
    <zipcode>01018</zipcode>
    <place>ZONA 18</place>
    <state>Ciudad de Guatemala</state>
    <state_code>07</state_code>
    <province></province>
    <province_code></province_code>
    <community></community>
    <community_code></community_code>
    <latitude>14.6328</latitude>
    <longitude>-90.5199</longitude>
  </object>
  <object>
    <country_code>GT</country_code>
    <zipcode>01019</zipcode>
    <place>ZONA 19</place>
    <state>Ciudad de Guatemala</state>
    <state_code>07</state_code>
    <province></province>
    <province_code></province_code>
    <community></community>
    <community_code></community_code>
    <latitude>14.6328</latitude>
    <longitude>-90.5199</longitude>
  </object>
  <object>
    <country_code>GT</country_code>
    <zipcode>01021</zipcode>
    <place>ZONA 21</place>
    <state>Ciudad de Guatemala</state>
    <state_code>07</state_code>
    <province></province>
    <province_code></province_code>
    <community></community>
    <community_code></community_code>
    <latitude>14.6328</latitude>
    <longitude>-90.5199</longitude>
  </object>
  <object>
    <country_code>GT</country_code>
    <zipcode>01051</zipcode>
    <place>SANTA CATARINA PINULA</place>
    <state>DEPTO DE GUATEMALA</state>
    <state_code>07</state_code>
    <province></province>
    <province_code></province_code>
    <community></community>
    <community_code></community_code>
    <latitude>14.5689</latitude>
    <longitude>-90.4953</longitude>
  </object>
  <object>
    <country_code>GT</country_code>
    <zipcode>01052</zipcode>
    <place>SAN JOSE PINULA</place>
    <state>DEPTO DE GUATEMALA</state>
    <state_code>07</state_code>
    <province></province>
    <province_code></province_code>
    <community></community>
    <community_code></community_code>
    <latitude>14.5461</latitude>
    <longitude>-90.4114</longitude>
  </object>
  <object>
    <country_code>GT</country_code>
    <zipcode>01053</zipcode>
    <place>SAN JOSE DEL GOLFO</place>
    <state>DEPTO DE GUATEMALA</state>
    <state_code>07</state_code>
    <province></province>
    <province_code></province_code>
    <community></community>
    <community_code></community_code>
    <latitude>14.7628</latitude>
    <longitude>-90.3764</longitude>
  </object>
  <object>
    <country_code>GT</country_code>
    <zipcode>01054</zipcode>
    <place>PALENCIA</place>
    <state>DEPTO DE GUATEMALA</state>
    <state_code>07</state_code>
    <province></province>
    <province_code></province_code>
    <community></community>
    <community_code></community_code>
    <latitude>14.6647</latitude>
    <longitude>-90.3586</longitude>
  </object>
  <object>
    <country_code>GT</country_code>
    <zipcode>01055</zipcode>
    <place>CHINAUTLA</place>
    <state>DEPTO DE GUATEMALA</state>
    <state_code>07</state_code>
    <province></province>
    <province_code></province_code>
    <community></community>
    <community_code></community_code>
    <latitude>14.7083</latitude>
    <longitude>-90.4994</longitude>
  </object>
  <object>
    <country_code>GT</country_code>
    <zipcode>01056</zipcode>
    <place>SAN PEDRO AYAMPUC</place>
    <state>DEPTO DE GUATEMALA</state>
    <state_code>07</state_code>
    <province></province>
    <province_code></province_code>
    <community></community>
    <community_code></community_code>
    <latitude>14.7867</latitude>
    <longitude>-90.4511</longitude>
  </object>
  <object>
    <country_code>GT</country_code>
    <zipcode>01057</zipcode>
    <place>MIXCO</place>
    <state>DEPTO DE GUATEMALA</state>
    <state_code>07</state_code>
    <province></province>
    <province_code></province_code>
    <community></community>
    <community_code></community_code>
    <latitude>14.6333</latitude>
    <longitude>-90.6064</longitude>
  </object>
  <object>
    <country_code>GT</country_code>
    <zipcode>01058</zipcode>
    <place>SAN PEDRO SACATEPEQUEZ</place>
    <state>DEPTO DE GUATEMALA</state>
    <state_code>07</state_code>
    <province></province>
    <province_code></province_code>
    <community></community>
    <community_code></community_code>
    <latitude>14.6842</latitude>
    <longitude>-90.6442</longitude>
  </object>
  <object>
    <country_code>GT</country_code>
    <zipcode>01059</zipcode>
    <place>SAN JUAN SACATEPEQUEZ</place>
    <state>DEPTO DE GUATEMALA</state>
    <state_code>07</state_code>
    <province></province>
    <province_code></province_code>
    <community></community>
    <community_code></community_code>
    <latitude>14.7189</latitude>
    <longitude>-90.6442</longitude>
  </object>
  <object>
    <country_code>GT</country_code>
    <zipcode>01060</zipcode>
    <place>SAN RAYMUNDO</place>
    <state>DEPTO DE GUATEMALA</state>
    <state_code>07</state_code>
    <province></province>
    <province_code></province_code>
    <community></community>
    <community_code></community_code>
    <latitude>14.7647</latitude>
    <longitude>-90.5956</longitude>
  </object>
  <object>
    <country_code>GT</country_code>
    <zipcode>01061</zipcode>
    <place>CHUARRANCHO</place>
    <state>DEPTO DE GUATEMALA</state>
    <state_code>07</state_code>
    <province></province>
    <province_code></province_code>
    <community></community>
    <community_code></community_code>
    <latitude>14.8217</latitude>
    <longitude>-90.5086</longitude>
  </object>
  <object>
    <country_code>GT</country_code>
    <zipcode>01062</zipcode>
    <place>FRAIJANES</place>
    <state>DEPTO DE GUATEMALA</state>
    <state_code>07</state_code>
    <province></province>
    <province_code></province_code>
    <community></community>
    <community_code></community_code>
    <latitude>14.4653</latitude>
    <longitude>-90.4408</longitude>
  </object>
  <object>
    <country_code>GT</country_code>
    <zipcode>01063</zipcode>
    <place>AMATITLAN</place>
    <state>DEPTO DE GUATEMALA</state>
    <state_code>07</state_code>
    <province></province>
    <province_code></province_code>
    <community></community>
    <community_code></community_code>
    <latitude>14.4875</latitude>
    <longitude>-90.6153</longitude>
  </object>
  <object>
    <country_code>GT</country_code>
    <zipcode>01064</zipcode>
    <place>VILLA NUEVA</place>
    <state>DEPTO DE GUATEMALA</state>
    <state_code>07</state_code>
    <province></province>
    <province_code></province_code>
    <community></community>
    <community_code></community_code>
    <latitude>14.5269</latitude>
    <longitude>-90.5875</longitude>
  </object>
  <object>
    <country_code>GT</country_code>
    <zipcode>01065</zipcode>
    <place>VILLA CANALES</place>
    <state>DEPTO DE GUATEMALA</state>
    <state_code>07</state_code>
    <province></province>
    <province_code></province_code>
    <community></community>
    <community_code></community_code>
    <latitude>14.4814</latitude>
    <longitude>-90.5317</longitude>
  </object>
  <object>
    <country_code>GT</country_code>
    <zipcode>01066</zipcode>
    <place>PETAPA</place>
    <state>DEPTO DE GUATEMALA</state>
    <state_code>07</state_code>
    <province></province>
    <province_code></province_code>
    <community></community>
    <community_code></community_code>
    <latitude>14.5028</latitude>
    <longitude>-90.5517</longitude>
  </object>
  <object>
    <country_code>GT</country_code>
    <zipcode>01067</zipcode>
    <place>CANALITOS (ZONA 21)</place>
    <state>DEPTO DE GUATEMALA</state>
    <state_code>07</state_code>
    <province></province>
    <province_code></province_code>
    <community></community>
    <community_code></community_code>
    <latitude>14.5786</latitude>
    <longitude>-90.5473</longitude>
  </object>
  <object>
    <country_code>GT</country_code>
    <zipcode>01068</zipcode>
    <place>EL FISCAL (PALENCIA)</place>
    <state>DEPTO DE GUATEMALA</state>
    <state_code>07</state_code>
    <province></province>
    <province_code></province_code>
    <community></community>
    <community_code></community_code>
    <latitude>14.5786</latitude>
    <longitude>-90.5473</longitude>
  </object>
  <object>
    <country_code>GT</country_code>
    <zipcode>01069</zipcode>
    <place>BOCA DEL MONTE (VILLA CANALES)</place>
    <state>DEPTO DE GUATEMALA</state>
    <state_code>07</state_code>
    <province></province>
    <province_code></province_code>
    <community></community>
    <community_code></community_code>
    <latitude>14.5786</latitude>
    <longitude>-90.5473</longitude>
  </object>
  <object>
    <country_code>GT</country_code>
    <zipcode>01070</zipcode>
    <place>VUELTA GRANDE (SAN RAYMUNDO)</place>
    <state>DEPTO DE GUATEMALA</state>
    <state_code>07</state_code>
    <province></province>
    <province_code></province_code>
    <community></community>
    <community_code></community_code>
    <latitude>14.6328</latitude>
    <longitude>-90.5199</longitude>
  </object>
  <object>
    <country_code>GT</country_code>
    <zipcode>01071</zipcode>
    <place>TRAPICHE GRANDE (CHUARRANCHO)</place>
    <state>DEPTO DE GUATEMALA</state>
    <state_code>07</state_code>
    <province></province>
    <province_code></province_code>
    <community></community>
    <community_code></community_code>
    <latitude>14.6328</latitude>
    <longitude>-90.5199</longitude>
  </object>
  <object>
    <country_code>GT</country_code>
    <zipcode>01072</zipcode>
    <place>SANTA ELENA BARILLAS (VILLA CANALES)</place>
    <state>DEPTO DE GUATEMALA</state>
    <state_code>07</state_code>
    <province></province>
    <province_code></province_code>
    <community></community>
    <community_code></community_code>
    <latitude>14.6328</latitude>
    <longitude>-90.5199</longitude>
  </object>
  <object>
    <country_code>GT</country_code>
    <zipcode>01073</zipcode>
    <place>PUERTA PARADA (SANTA CATARINA PINULA)</place>
    <state>DEPTO DE GUATEMALA</state>
    <state_code>07</state_code>
    <province></province>
    <province_code></province_code>
    <community></community>
    <community_code></community_code>
    <latitude>14.6328</latitude>
    <longitude>-90.5199</longitude>
  </object>
  <object>
    <country_code>GT</country_code>
    <zipcode>02000</zipcode>
    <place>DEPTO DE EL PROGRESO</place>
    <state>DEPTO DE EL PROGRESO</state>
    <state_code>07</state_code>
    <province></province>
    <province_code></province_code>
    <community></community>
    <community_code></community_code>
    <latitude>14.8515</latitude>
    <longitude>-90.1145</longitude>
  </object>
  <object>
    <country_code>GT</country_code>
    <zipcode>02001</zipcode>
    <place>GUASTATOYA</place>
    <state>DEPTO DE EL PROGRESO</state>
    <state_code>07</state_code>
    <province></province>
    <province_code></province_code>
    <community></community>
    <community_code></community_code>
    <latitude>14.8539</latitude>
    <longitude>-90.0647</longitude>
  </object>
  <object>
    <country_code>GT</country_code>
    <zipcode>02002</zipcode>
    <place>MORAZAN</place>
    <state>DEPTO DE EL PROGRESO</state>
    <state_code>07</state_code>
    <province></province>
    <province_code></province_code>
    <community></community>
    <community_code></community_code>
    <latitude>14.9328</latitude>
    <longitude>-90.1431</longitude>
  </object>
  <object>
    <country_code>GT</country_code>
    <zipcode>02003</zipcode>
    <place>SAN AGUSTIN ACASAGUASTLAN</place>
    <state>DEPTO DE EL PROGRESO</state>
    <state_code>07</state_code>
    <province></province>
    <province_code></province_code>
    <community></community>
    <community_code></community_code>
    <latitude>14.95</latitude>
    <longitude>-89.9667</longitude>
  </object>
  <object>
    <country_code>GT</country_code>
    <zipcode>02004</zipcode>
    <place>SAN CRISTOBAL ACASAGUASTLAN</place>
    <state>DEPTO DE EL PROGRESO</state>
    <state_code>07</state_code>
    <province></province>
    <province_code></province_code>
    <community></community>
    <community_code></community_code>
    <latitude>14.9167</latitude>
    <longitude>-89.8833</longitude>
  </object>
  <object>
    <country_code>GT</country_code>
    <zipcode>02005</zipcode>
    <place>EL JICARO</place>
    <state>DEPTO DE EL PROGRESO</state>
    <state_code>07</state_code>
    <province></province>
    <province_code></province_code>
    <community></community>
    <community_code></community_code>
    <latitude>14.8667</latitude>
    <longitude>-90.2667</longitude>
  </object>
  <object>
    <country_code>GT</country_code>
    <zipcode>02006</zipcode>
    <place>SANSARE</place>
    <state>DEPTO DE EL PROGRESO</state>
    <state_code>07</state_code>
    <province></province>
    <province_code></province_code>
    <community></community>
    <community_code></community_code>
    <latitude>14.7472</latitude>
    <longitude>-90.1125</longitude>
  </object>
  <object>
    <country_code>GT</country_code>
    <zipcode>02007</zipcode>
    <place>SANARATE</place>
    <state>DEPTO DE EL PROGRESO</state>
    <state_code>07</state_code>
    <province></province>
    <province_code></province_code>
    <community></community>
    <community_code></community_code>
    <latitude>14.795</latitude>
    <longitude>-90.1922</longitude>
  </object>
  <object>
    <country_code>GT</country_code>
    <zipcode>02008</zipcode>
    <place>SAN ANTONIO LA PAZ</place>
    <state>DEPTO DE EL PROGRESO</state>
    <state_code>07</state_code>
    <province></province>
    <province_code></province_code>
    <community></community>
    <community_code></community_code>
    <latitude>14.7497</latitude>
    <longitude>-90.2867</longitude>
  </object>
  <object>
    <country_code>GT</country_code>
    <zipcode>02009</zipcode>
    <place>TULUMAJILLO (SAN AGUSTIN ACASAGUASTLAN)</place>
    <state>DEPTO DE EL PROGRESO</state>
    <state_code>07</state_code>
    <province></province>
    <province_code></province_code>
    <community></community>
    <community_code></community_code>
    <latitude>14.8515</latitude>
    <longitude>-90.1145</longitude>
  </object>
  <object>
    <country_code>GT</country_code>
    <zipcode>02010</zipcode>
    <place>ESTACION JALAPA (SANSARE)</place>
    <state>DEPTO DE EL PROGRESO</state>
    <state_code>07</state_code>
    <province></province>
    <province_code></province_code>
    <community></community>
    <community_code></community_code>
    <latitude>14.8515</latitude>
    <longitude>-90.1145</longitude>
  </object>
  <object>
    <country_code>GT</country_code>
    <zipcode>02011</zipcode>
    <place>TULUMAJE (SAN AGUSTIN ACASAGUASTLAN)</place>
    <state>DEPTO DE EL PROGRESO</state>
    <state_code>07</state_code>
    <province></province>
    <province_code></province_code>
    <community></community>
    <community_code></community_code>
    <latitude>14.8515</latitude>
    <longitude>-90.1145</longitude>
  </object>
  <object>
    <country_code>GT</country_code>
    <zipcode>02012</zipcode>
    <place>ESTANCIA DE LA VIRGEN (SAN CRISTOBAL ACASAGUASTLAN)</place>
    <state>DEPTO DE EL PROGRESO</state>
    <state_code>07</state_code>
    <province></province>
    <province_code></province_code>
    <community></community>
    <community_code></community_code>
    <latitude>14.8515</latitude>
    <longitude>-90.1145</longitude>
  </object>
  <object>
    <country_code>GT</country_code>
    <zipcode>02013</zipcode>
    <place>PASO DE LOS JALAPAS (EL JICARO)</place>
    <state>DEPTO DE EL PROGRESO</state>
    <state_code>07</state_code>
    <province></province>
    <province_code></province_code>
    <community></community>
    <community_code></community_code>
    <latitude>14.8515</latitude>
    <longitude>-90.1145</longitude>
  </object>
  <object>
    <country_code>GT</country_code>
    <zipcode>02014</zipcode>
    <place>SANTA RITA (GUASTATOYA)</place>
    <state>DEPTO DE EL PROGRESO</state>
    <state_code>07</state_code>
    <province></province>
    <province_code></province_code>
    <community></community>
    <community_code></community_code>
    <latitude>14.8515</latitude>
    <longitude>-90.1145</longitude>
  </object>
  <object>
    <country_code>GT</country_code>
    <zipcode>02015</zipcode>
    <place>EL RANCHO ( SAN AGUSTIN ACASAGUASTLAN)</place>
    <state>DEPTO DE EL PROGRESO</state>
    <state_code>07</state_code>
    <province></province>
    <province_code></province_code>
    <community></community>
    <community_code></community_code>
    <latitude>14.8515</latitude>
    <longitude>-90.1145</longitude>
  </object>
  <object>
    <country_code>GT</country_code>
    <zipcode>13000</zipcode>
    <place>DEPTO DE HUEHUETENANGO</place>
    <state>DEPTO DE HUEHUETENANGO</state>
    <state_code>08</state_code>
    <province></province>
    <province_code></province_code>
    <community></community>
    <community_code></community_code>
    <latitude>15.5368</latitude>
    <longitude>-91.6565</longitude>
  </object>
  <object>
    <country_code>GT</country_code>
    <zipcode>13001</zipcode>
    <place>HUEHUETENANGO</place>
    <state>DEPTO DE HUEHUETENANGO</state>
    <state_code>08</state_code>
    <province></province>
    <province_code></province_code>
    <community></community>
    <community_code></community_code>
    <latitude>15.3197</latitude>
    <longitude>-91.4708</longitude>
  </object>
  <object>
    <country_code>GT</country_code>
    <zipcode>13002</zipcode>
    <place>CHIANTLA</place>
    <state>DEPTO DE HUEHUETENANGO</state>
    <state_code>08</state_code>
    <province></province>
    <province_code></province_code>
    <community></community>
    <community_code></community_code>
    <latitude>15.3547</latitude>
    <longitude>-91.4583</longitude>
  </object>
  <object>
    <country_code>GT</country_code>
    <zipcode>13003</zipcode>
    <place>MALACANCITO</place>
    <state>DEPTO DE HUEHUETENANGO</state>
    <state_code>08</state_code>
    <province></province>
    <province_code></province_code>
    <community></community>
    <community_code></community_code>
    <latitude>15.5368</latitude>
    <longitude>-91.6565</longitude>
  </object>
  <object>
    <country_code>GT</country_code>
    <zipcode>13004</zipcode>
    <place>CUILCO</place>
    <state>DEPTO DE HUEHUETENANGO</state>
    <state_code>08</state_code>
    <province></province>
    <province_code></province_code>
    <community></community>
    <community_code></community_code>
    <latitude>15.4</latitude>
    <longitude>-91.9667</longitude>
  </object>
  <object>
    <country_code>GT</country_code>
    <zipcode>13005</zipcode>
    <place>NENTON</place>
    <state>DEPTO DE HUEHUETENANGO</state>
    <state_code>08</state_code>
    <province></province>
    <province_code></province_code>
    <community></community>
    <community_code></community_code>
    <latitude>15.8</latitude>
    <longitude>-91.75</longitude>
  </object>
  <object>
    <country_code>GT</country_code>
    <zipcode>13006</zipcode>
    <place>SAN PEDRO NECTA</place>
    <state>DEPTO DE HUEHUETENANGO</state>
    <state_code>08</state_code>
    <province></province>
    <province_code></province_code>
    <community></community>
    <community_code></community_code>
    <latitude>15.5</latitude>
    <longitude>-91.7667</longitude>
  </object>
  <object>
    <country_code>GT</country_code>
    <zipcode>13007</zipcode>
    <place>JACALTENANGO</place>
    <state>DEPTO DE HUEHUETENANGO</state>
    <state_code>08</state_code>
    <province></province>
    <province_code></province_code>
    <community></community>
    <community_code></community_code>
    <latitude>15.6667</latitude>
    <longitude>-91.7333</longitude>
  </object>
  <object>
    <country_code>GT</country_code>
    <zipcode>13008</zipcode>
    <place>SOLOMA</place>
    <state>DEPTO DE HUEHUETENANGO</state>
    <state_code>08</state_code>
    <province></province>
    <province_code></province_code>
    <community></community>
    <community_code></community_code>
    <latitude>15.7167</latitude>
    <longitude>-91.45</longitude>
  </object>
  <object>
    <country_code>GT</country_code>
    <zipcode>13009</zipcode>
    <place>IXTAHUATAN</place>
    <state>DEPTO DE HUEHUETENANGO</state>
    <state_code>08</state_code>
    <province></province>
    <province_code></province_code>
    <community></community>
    <community_code></community_code>
    <latitude>15.5368</latitude>
    <longitude>-91.6565</longitude>
  </object>
  <object>
    <country_code>GT</country_code>
    <zipcode>13010</zipcode>
    <place>SANTA BARBARA</place>
    <state>DEPTO DE HUEHUETENANGO</state>
    <state_code>08</state_code>
    <province></province>
    <province_code></province_code>
    <community></community>
    <community_code></community_code>
    <latitude>15.3167</latitude>
    <longitude>-91.6167</longitude>
  </object>
  <object>
    <country_code>GT</country_code>
    <zipcode>13011</zipcode>
    <place>LA LIBERTAD</place>
    <state>DEPTO DE HUEHUETENANGO</state>
    <state_code>08</state_code>
    <province></province>
    <province_code></province_code>
    <community></community>
    <community_code></community_code>
    <latitude>15.5</latitude>
    <longitude>-91.8333</longitude>
  </object>
  <object>
    <country_code>GT</country_code>
    <zipcode>13012</zipcode>
    <place>LA DEMOCRACIA</place>
    <state>DEPTO DE HUEHUETENANGO</state>
    <state_code>08</state_code>
    <province></province>
    <province_code></province_code>
    <community></community>
    <community_code></community_code>
    <latitude>15.5739</latitude>
    <longitude>-91.6113</longitude>
  </object>
  <object>
    <country_code>GT</country_code>
    <zipcode>13013</zipcode>
    <place>SAN MIGUEL ACATAN</place>
    <state>DEPTO DE HUEHUETENANGO</state>
    <state_code>08</state_code>
    <province></province>
    <province_code></province_code>
    <community></community>
    <community_code></community_code>
    <latitude>15.7</latitude>
    <longitude>-91.6167</longitude>
  </object>
  <object>
    <country_code>GT</country_code>
    <zipcode>13014</zipcode>
    <place>SAN RAFAEL LA INDEPENDENCIA</place>
    <state>DEPTO DE HUEHUETENANGO</state>
    <state_code>08</state_code>
    <province></province>
    <province_code></province_code>
    <community></community>
    <community_code></community_code>
    <latitude>15.7167</latitude>
    <longitude>-91.5333</longitude>
  </object>
  <object>
    <country_code>GT</country_code>
    <zipcode>13015</zipcode>
    <place>TODOS SANTOS CUCHUMATAN</place>
    <state>DEPTO DE HUEHUETENANGO</state>
    <state_code>08</state_code>
    <province></province>
    <province_code></province_code>
    <community></community>
    <community_code></community_code>
    <latitude>15.5167</latitude>
    <longitude>-91.6167</longitude>
  </object>
  <object>
    <country_code>GT</country_code>
    <zipcode>13016</zipcode>
    <place>SAN JUAN ATITAN</place>
    <state>DEPTO DE HUEHUETENANGO</state>
    <state_code>08</state_code>
    <province></province>
    <province_code></province_code>
    <community></community>
    <community_code></community_code>
    <latitude>15.4333</latitude>
    <longitude>-91.6333</longitude>
  </object>
  <object>
    <country_code>GT</country_code>
    <zipcode>13017</zipcode>
    <place>SANTA EULALIA</place>
    <state>DEPTO DE HUEHUETENANGO</state>
    <state_code>08</state_code>
    <province></province>
    <province_code></province_code>
    <community></community>
    <community_code></community_code>
    <latitude>15.7331</latitude>
    <longitude>-91.4569</longitude>
  </object>
  <object>
    <country_code>GT</country_code>
    <zipcode>13018</zipcode>
    <place>SAN MATEO IXTATAN</place>
    <state>DEPTO DE HUEHUETENANGO</state>
    <state_code>08</state_code>
    <province></province>
    <province_code></province_code>
    <community></community>
    <community_code></community_code>
    <latitude>15.8319</latitude>
    <longitude>-91.4781</longitude>
  </object>
  <object>
    <country_code>GT</country_code>
    <zipcode>13019</zipcode>
    <place>COLOTENANGO</place>
    <state>DEPTO DE HUEHUETENANGO</state>
    <state_code>08</state_code>
    <province></province>
    <province_code></province_code>
    <community></community>
    <community_code></community_code>
    <latitude>15.4167</latitude>
    <longitude>-91.7167</longitude>
  </object>
  <object>
    <country_code>GT</country_code>
    <zipcode>13020</zipcode>
    <place>SAN SEBASTIAN HUEHUETENANGO</place>
    <state>DEPTO DE HUEHUETENANGO</state>
    <state_code>08</state_code>
    <province></province>
    <province_code></province_code>
    <community></community>
    <community_code></community_code>
    <latitude>15.3833</latitude>
    <longitude>-91.5833</longitude>
  </object>
  <object>
    <country_code>GT</country_code>
    <zipcode>13021</zipcode>
    <place>TECTITAN</place>
    <state>DEPTO DE HUEHUETENANGO</state>
    <state_code>08</state_code>
    <province></province>
    <province_code></province_code>
    <community></community>
    <community_code></community_code>
    <latitude>15.3333</latitude>
    <longitude>-92.0333</longitude>
  </object>
  <object>
    <country_code>GT</country_code>
    <zipcode>13022</zipcode>
    <place>CONCEPCION</place>
    <state>DEPTO DE HUEHUETENANGO</state>
    <state_code>08</state_code>
    <province></province>
    <province_code></province_code>
    <community></community>
    <community_code></community_code>
    <latitude>15.6167</latitude>
    <longitude>-91.6833</longitude>
  </object>
  <object>
    <country_code>GT</country_code>
    <zipcode>13023</zipcode>
    <place>SAN JUAN IXCOY</place>
    <state>DEPTO DE HUEHUETENANGO</state>
    <state_code>08</state_code>
    <province></province>
    <province_code></province_code>
    <community></community>
    <community_code></community_code>
    <latitude>15.5997</latitude>
    <longitude>-91.4453</longitude>
  </object>
  <object>
    <country_code>GT</country_code>
    <zipcode>13024</zipcode>
    <place>SAN ANTONIO HUISTA</place>
    <state>DEPTO DE HUEHUETENANGO</state>
    <state_code>08</state_code>
    <province></province>
    <province_code></province_code>
    <community></community>
    <community_code></community_code>
    <latitude>15.65</latitude>
    <longitude>-91.7667</longitude>
  </object>
  <object>
    <country_code>GT</country_code>
    <zipcode>13025</zipcode>
    <place>SAN SEBASTIAN COSTAN</place>
    <state>DEPTO DE HUEHUETENANGO</state>
    <state_code>08</state_code>
    <province></province>
    <province_code></province_code>
    <community></community>
    <community_code></community_code>
    <latitude>15.5033</latitude>
    <longitude>-91.6136</longitude>
  </object>
  <object>
    <country_code>GT</country_code>
    <zipcode>13026</zipcode>
    <place>BARILLAS</place>
    <state>DEPTO DE HUEHUETENANGO</state>
    <state_code>08</state_code>
    <province></province>
    <province_code></province_code>
    <community></community>
    <community_code></community_code>
    <latitude>15.8036</latitude>
    <longitude>-91.3158</longitude>
  </object>
  <object>
    <country_code>GT</country_code>
    <zipcode>13027</zipcode>
    <place>AGUACATAN</place>
    <state>DEPTO DE HUEHUETENANGO</state>
    <state_code>08</state_code>
    <province></province>
    <province_code></province_code>
    <community></community>
    <community_code></community_code>
    <latitude>15.3431</latitude>
    <longitude>-91.3117</longitude>
  </object>
  <object>
    <country_code>GT</country_code>
    <zipcode>13028</zipcode>
    <place>SAN RAFAEL PETZAL</place>
    <state>DEPTO DE HUEHUETENANGO</state>
    <state_code>08</state_code>
    <province></province>
    <province_code></province_code>
    <community></community>
    <community_code></community_code>
    <latitude>15.4167</latitude>
    <longitude>-91.6667</longitude>
  </object>
  <object>
    <country_code>GT</country_code>
    <zipcode>13029</zipcode>
    <place>SAN GASPAR IXCHIL</place>
    <state>DEPTO DE HUEHUETENANGO</state>
    <state_code>08</state_code>
    <province></province>
    <province_code></province_code>
    <community></community>
    <community_code></community_code>
    <latitude>15.3833</latitude>
    <longitude>-91.7167</longitude>
  </object>
  <object>
    <country_code>GT</country_code>
    <zipcode>13030</zipcode>
    <place>SANTIAGO CHIMALTENANGO</place>
    <state>DEPTO DE HUEHUETENANGO</state>
    <state_code>08</state_code>
    <province></province>
    <province_code></province_code>
    <community></community>
    <community_code></community_code>
    <latitude>15.4667</latitude>
    <longitude>-91.7167</longitude>
  </object>
  <object>
    <country_code>GT</country_code>
    <zipcode>13031</zipcode>
    <place>SANTA ANA HUISTA</place>
    <state>DEPTO DE HUEHUETENANGO</state>
    <state_code>08</state_code>
    <province></province>
    <province_code></province_code>
    <community></community>
    <community_code></community_code>
    <latitude>15.6833</latitude>
    <longitude>-91.8167</longitude>
  </object>
  <object>
    <country_code>GT</country_code>
    <zipcode>13032</zipcode>
    <place>GRACIAS A DIOS (NENTON)</place>
    <state>DEPTO DE HUEHUETENANGO</state>
    <state_code>08</state_code>
    <province></province>
    <province_code></province_code>
    <community></community>
    <community_code></community_code>
    <latitude>15.4798</latitude>
    <longitude>-91.6645</longitude>
  </object>
  <object>
    <country_code>GT</country_code>
    <zipcode>13033</zipcode>
    <place>SAN LORENZO (HUEHUETENANGO)</place>
    <state>DEPTO DE HUEHUETENANGO</state>
    <state_code>08</state_code>
    <province></province>
    <province_code></province_code>
    <community></community>
    <community_code></community_code>
    <latitude>15.2894</latitude>
    <longitude>-91.4603</longitude>
  </object>
  <object>
    <country_code>GT</country_code>
    <zipcode>13034</zipcode>
    <place>SAN MARTIN CUCHUMATAN (TODOS SANTOS CUCHUMATAN)</place>
    <state>DEPTO DE HUEHUETENANGO</state>
    <state_code>08</state_code>
    <province></province>
    <province_code></province_code>
    <community></community>
    <community_code></community_code>
    <latitude>15.4798</latitude>
    <longitude>-91.6645</longitude>
  </object>
  <object>
    <country_code>GT</country_code>
    <zipcode>13035</zipcode>
    <place>SAN MARCOS HUISTA (JACALTENANGO)</place>
    <state>DEPTO DE HUEHUETENANGO</state>
    <state_code>08</state_code>
    <province></province>
    <province_code></province_code>
    <community></community>
    <community_code></community_code>
    <latitude>15.4798</latitude>
    <longitude>-91.6645</longitude>
  </object>
  <object>
    <country_code>GT</country_code>
    <zipcode>13036</zipcode>
    <place>PETATAN (CONCEPCION)</place>
    <state>DEPTO DE HUEHUETENANGO</state>
    <state_code>08</state_code>
    <province></province>
    <province_code></province_code>
    <community></community>
    <community_code></community_code>
    <latitude>15.4798</latitude>
    <longitude>-91.6645</longitude>
  </object>
  <object>
    <country_code>GT</country_code>
    <zipcode>13037</zipcode>
    <place>PAQUIX (CHIANTLA)</place>
    <state>DEPTO DE HUEHUETENANGO</state>
    <state_code>08</state_code>
    <province></province>
    <province_code></province_code>
    <community></community>
    <community_code></community_code>
    <latitude>15.4798</latitude>
    <longitude>-91.6645</longitude>
  </object>
  <object>
    <country_code>GT</country_code>
    <zipcode>13038</zipcode>
    <place>MICHICOY (SAN PEDRO NECTA)</place>
    <state>DEPTO DE HUEHUETENANGO</state>
    <state_code>08</state_code>
    <province></province>
    <province_code></province_code>
    <community></community>
    <community_code></community_code>
    <latitude>15.4798</latitude>
    <longitude>-91.6645</longitude>
  </object>
  <object>
    <country_code>GT</country_code>
    <zipcode>13039</zipcode>
    <place>SAN ANDRES HIUISTA (JACALTENANGO)</place>
    <state>DEPTO DE HUEHUETENANGO</state>
    <state_code>08</state_code>
    <province></province>
    <province_code></province_code>
    <community></community>
    <community_code></community_code>
    <latitude>15.4798</latitude>
    <longitude>-91.6645</longitude>
  </object>
  <object>
    <country_code>GT</country_code>
    <zipcode>13040</zipcode>
    <place>CHALUM (LA LIBERTAD)</place>
    <state>DEPTO DE HUEHUETENANGO</state>
    <state_code>08</state_code>
    <province></province>
    <province_code></province_code>
    <community></community>
    <community_code></community_code>
    <latitude>15.6167</latitude>
    <longitude>-91.9833</longitude>
  </object>
  <object>
    <country_code>GT</country_code>
    <zipcode>13041</zipcode>
    <place>LA MESILLA</place>
    <state>DEPTO DE HUEHUETENANGO</state>
    <state_code>08</state_code>
    <province></province>
    <province_code></province_code>
    <community></community>
    <community_code></community_code>
    <latitude>15.6167</latitude>
    <longitude>-91.9833</longitude>
  </object>
  <object>
    <country_code>GT</country_code>
    <zipcode>18000</zipcode>
    <place>DEPTO DE IZABAL</place>
    <state>DEPTO DE IZABAL</state>
    <state_code>09</state_code>
    <province></province>
    <province_code></province_code>
    <community></community>
    <community_code></community_code>
    <latitude>15.5667</latitude>
    <longitude>-88.9233</longitude>
  </object>
  <object>
    <country_code>GT</country_code>
    <zipcode>18001</zipcode>
    <place>PUERTO BARRIOS</place>
    <state>DEPTO DE IZABAL</state>
    <state_code>09</state_code>
    <province></province>
    <province_code></province_code>
    <community></community>
    <community_code></community_code>
    <latitude>15.7167</latitude>
    <longitude>-88.6</longitude>
  </object>
  <object>
    <country_code>GT</country_code>
    <zipcode>18002</zipcode>
    <place>LIVINGSTON</place>
    <state>DEPTO DE IZABAL</state>
    <state_code>09</state_code>
    <province></province>
    <province_code></province_code>
    <community></community>
    <community_code></community_code>
    <latitude>15.8333</latitude>
    <longitude>-88.75</longitude>
  </object>
  <object>
    <country_code>GT</country_code>
    <zipcode>18003</zipcode>
    <place>EL ESTOR</place>
    <state>DEPTO DE IZABAL</state>
    <state_code>09</state_code>
    <province></province>
    <province_code></province_code>
    <community></community>
    <community_code></community_code>
    <latitude>15.5333</latitude>
    <longitude>-89.35</longitude>
  </object>
  <object>
    <country_code>GT</country_code>
    <zipcode>18004</zipcode>
    <place>MORALES</place>
    <state>DEPTO DE IZABAL</state>
    <state_code>09</state_code>
    <province></province>
    <province_code></province_code>
    <community></community>
    <community_code></community_code>
    <latitude>15.4833</latitude>
    <longitude>-88.8167</longitude>
  </object>
  <object>
    <country_code>GT</country_code>
    <zipcode>18005</zipcode>
    <place>LOS AMATES</place>
    <state>DEPTO DE IZABAL</state>
    <state_code>09</state_code>
    <province></province>
    <province_code></province_code>
    <community></community>
    <community_code></community_code>
    <latitude>15.2667</latitude>
    <longitude>-89.1</longitude>
  </object>
  <object>
    <country_code>GT</country_code>
    <zipcode>18006</zipcode>
    <place>PLAYITAS (MORALES)</place>
    <state>DEPTO DE IZABAL</state>
    <state_code>09</state_code>
    <province></province>
    <province_code></province_code>
    <community></community>
    <community_code></community_code>
    <latitude>15.5667</latitude>
    <longitude>-88.9233</longitude>
  </object>
  <object>
    <country_code>GT</country_code>
    <zipcode>18007</zipcode>
    <place>EL RICO (LOS AMATES)</place>
    <state>DEPTO DE IZABAL</state>
    <state_code>09</state_code>
    <province></province>
    <province_code></province_code>
    <community></community>
    <community_code></community_code>
    <latitude>15.5667</latitude>
    <longitude>-88.9233</longitude>
  </object>
  <object>
    <country_code>GT</country_code>
    <zipcode>18008</zipcode>
    <place>CAYUGA (MORALES)</place>
    <state>DEPTO DE IZABAL</state>
    <state_code>09</state_code>
    <province></province>
    <province_code></province_code>
    <community></community>
    <community_code></community_code>
    <latitude>15.5667</latitude>
    <longitude>-88.9233</longitude>
  </object>
  <object>
    <country_code>GT</country_code>
    <zipcode>18009</zipcode>
    <place>QUIRIGUA (LOS AMATES)</place>
    <state>DEPTO DE IZABAL</state>
    <state_code>09</state_code>
    <province></province>
    <province_code></province_code>
    <community></community>
    <community_code></community_code>
    <latitude>15.5667</latitude>
    <longitude>-88.9233</longitude>
  </object>
  <object>
    <country_code>GT</country_code>
    <zipcode>18010</zipcode>
    <place>EL CINCHADO (PUERTO BARRIOS)</place>
    <state>DEPTO DE IZABAL</state>
    <state_code>09</state_code>
    <province></province>
    <province_code></province_code>
    <community></community>
    <community_code></community_code>
    <latitude>15.5667</latitude>
    <longitude>-88.9233</longitude>
  </object>
  <object>
    <country_code>GT</country_code>
    <zipcode>18011</zipcode>
    <place>LAS QUEBRADAS (MORALES)</place>
    <state>DEPTO DE IZABAL</state>
    <state_code>09</state_code>
    <province></province>
    <province_code></province_code>
    <community></community>
    <community_code></community_code>
    <latitude>15.5667</latitude>
    <longitude>-88.9233</longitude>
  </object>
  <object>
    <country_code>GT</country_code>
    <zipcode>18012</zipcode>
    <place>ENTRE RIOS (PUERTO BARRIOS)</place>
    <state>DEPTO DE IZABAL</state>
    <state_code>09</state_code>
    <province></province>
    <province_code></province_code>
    <community></community>
    <community_code></community_code>
    <latitude>15.5667</latitude>
    <longitude>-88.9233</longitude>
  </object>
  <object>
    <country_code>GT</country_code>
    <zipcode>18013</zipcode>
    <place>SANTO TOMAS DE CASTILLA (PUERTO BARRIOS)</place>
    <state>DEPTO DE IZABAL</state>
    <state_code>09</state_code>
    <province></province>
    <province_code></province_code>
    <community></community>
    <community_code></community_code>
    <latitude>15.5667</latitude>
    <longitude>-88.9233</longitude>
  </object>
  <object>
    <country_code>GT</country_code>
    <zipcode>18014</zipcode>
    <place>EL MITCHAL (MORALES)</place>
    <state>DEPTO DE IZABAL</state>
    <state_code>09</state_code>
    <province></province>
    <province_code></province_code>
    <community></community>
    <community_code></community_code>
    <latitude>15.5667</latitude>
    <longitude>-88.9233</longitude>
  </object>
  <object>
    <country_code>GT</country_code>
    <zipcode>18015</zipcode>
    <place>LAS VINAS (MORALES)</place>
    <state>DEPTO DE IZABAL</state>
    <state_code>09</state_code>
    <province></province>
    <province_code></province_code>
    <community></community>
    <community_code></community_code>
    <latitude>15.5667</latitude>
    <longitude>-88.9233</longitude>
  </object>
  <object>
    <country_code>GT</country_code>
    <zipcode>18016</zipcode>
    <place>EL REFUGIO (LOS AMATES)</place>
    <state>DEPTO DE IZABAL</state>
    <state_code>09</state_code>
    <province></province>
    <province_code></province_code>
    <community></community>
    <community_code></community_code>
    <latitude>15.5667</latitude>
    <longitude>-88.9233</longitude>
  </object>
  <object>
    <country_code>GT</country_code>
    <zipcode>18017</zipcode>
    <place>SANTA INES (LOS AMATES)</place>
    <state>DEPTO DE IZABAL</state>
    <state_code>09</state_code>
    <province></province>
    <province_code></province_code>
    <community></community>
    <community_code></community_code>
    <latitude>15.5667</latitude>
    <longitude>-88.9233</longitude>
  </object>
  <object>
    <country_code>GT</country_code>
    <zipcode>18018</zipcode>
    <place>TENEDORES (MORALES)</place>
    <state>DEPTO DE IZABAL</state>
    <state_code>09</state_code>
    <province></province>
    <province_code></province_code>
    <community></community>
    <community_code></community_code>
    <latitude>15.5667</latitude>
    <longitude>-88.9233</longitude>
  </object>
  <object>
    <country_code>GT</country_code>
    <zipcode>18019</zipcode>
    <place>SAN FELIPE (LIVINGSTON)</place>
    <state>DEPTO DE IZABAL</state>
    <state_code>09</state_code>
    <province></province>
    <province_code></province_code>
    <community></community>
    <community_code></community_code>
    <latitude>15.5667</latitude>
    <longitude>-88.9233</longitude>
  </object>
  <object>
    <country_code>GT</country_code>
    <zipcode>18020</zipcode>
    <place>BANANERA (MORALES)</place>
    <state>DEPTO DE IZABAL</state>
    <state_code>09</state_code>
    <province></province>
    <province_code></province_code>
    <community></community>
    <community_code></community_code>
    <latitude>15.5667</latitude>
    <longitude>-88.9233</longitude>
  </object>
  <object>
    <country_code>GT</country_code>
    <zipcode>18021</zipcode>
    <place>FRONTERAS (LIVINGSTON)</place>
    <state>DEPTO DE IZABAL</state>
    <state_code>09</state_code>
    <province></province>
    <province_code></province_code>
    <community></community>
    <community_code></community_code>
    <latitude>15.5667</latitude>
    <longitude>-88.9233</longitude>
  </object>
  <object>
    <country_code>GT</country_code>
    <zipcode>18022</zipcode>
    <place>MARISCOS (LOS AMATES)</place>
    <state>DEPTO DE IZABAL</state>
    <state_code>09</state_code>
    <province></province>
    <province_code></province_code>
    <community></community>
    <community_code></community_code>
    <latitude>15.5667</latitude>
    <longitude>-88.9233</longitude>
  </object>
  <object>
    <country_code>GT</country_code>
    <zipcode>18023</zipcode>
    <place>BUENOS AIRES (MORALES)</place>
    <state>DEPTO DE IZABAL</state>
    <state_code>09</state_code>
    <province></province>
    <province_code></province_code>
    <community></community>
    <community_code></community_code>
    <latitude>15.5667</latitude>
    <longitude>-88.9233</longitude>
  </object>
  <object>
    <country_code>GT</country_code>
    <zipcode>21000</zipcode>
    <place>DEPTO DE JALAPA</place>
    <state>DEPTO DE JALAPA</state>
    <state_code>10</state_code>
    <province></province>
    <province_code></province_code>
    <community></community>
    <community_code></community_code>
    <latitude>14.583</latitude>
    <longitude>-89.8896</longitude>
  </object>
  <object>
    <country_code>GT</country_code>
    <zipcode>21001</zipcode>
    <place>JALAPA</place>
    <state>DEPTO DE JALAPA</state>
    <state_code>10</state_code>
    <province></province>
    <province_code></province_code>
    <community></community>
    <community_code></community_code>
    <latitude>14.6333</latitude>
    <longitude>-89.9833</longitude>
  </object>
  <object>
    <country_code>GT</country_code>
    <zipcode>21002</zipcode>
    <place>SAN PEDRO PINULA</place>
    <state>DEPTO DE JALAPA</state>
    <state_code>10</state_code>
    <province></province>
    <province_code></province_code>
    <community></community>
    <community_code></community_code>
    <latitude>14.6667</latitude>
    <longitude>-89.85</longitude>
  </object>
  <object>
    <country_code>GT</country_code>
    <zipcode>21003</zipcode>
    <place>SAN LUIS JILOTEPEQUE</place>
    <state>DEPTO DE JALAPA</state>
    <state_code>10</state_code>
    <province></province>
    <province_code></province_code>
    <community></community>
    <community_code></community_code>
    <latitude>14.65</latitude>
    <longitude>-89.7333</longitude>
  </object>
  <object>
    <country_code>GT</country_code>
    <zipcode>21004</zipcode>
    <place>SAN MANUEL CHAPARRON</place>
    <state>DEPTO DE JALAPA</state>
    <state_code>10</state_code>
    <province></province>
    <province_code></province_code>
    <community></community>
    <community_code></community_code>
    <latitude>14.5167</latitude>
    <longitude>-89.7667</longitude>
  </object>
  <object>
    <country_code>GT</country_code>
    <zipcode>21005</zipcode>
    <place>SAN CARLOS ALZATATE</place>
    <state>DEPTO DE JALAPA</state>
    <state_code>10</state_code>
    <province></province>
    <province_code></province_code>
    <community></community>
    <community_code></community_code>
    <latitude>14.4978</latitude>
    <longitude>-90.0603</longitude>
  </object>
  <object>
    <country_code>GT</country_code>
    <zipcode>21006</zipcode>
    <place>MONJAS</place>
    <state>DEPTO DE JALAPA</state>
    <state_code>10</state_code>
    <province></province>
    <province_code></province_code>
    <community></community>
    <community_code></community_code>
    <latitude>14.5</latitude>
    <longitude>-89.8667</longitude>
  </object>
  <object>
    <country_code>GT</country_code>
    <zipcode>21007</zipcode>
    <place>MATATESCUINTLA</place>
    <state>DEPTO DE JALAPA</state>
    <state_code>10</state_code>
    <province></province>
    <province_code></province_code>
    <community></community>
    <community_code></community_code>
    <latitude>14.583</latitude>
    <longitude>-89.8896</longitude>
  </object>
  <object>
    <country_code>GT</country_code>
    <zipcode>21008</zipcode>
    <place>LLANO GRANDE</place>
    <state>DEPTO DE JALAPA</state>
    <state_code>10</state_code>
    <province></province>
    <province_code></province_code>
    <community></community>
    <community_code></community_code>
    <latitude>14.6167</latitude>
    <longitude>-89.9667</longitude>
  </object>
  <object>
    <country_code>GT</country_code>
    <zipcode>22000</zipcode>
    <place>DEPTO DE JUTIAPA</place>
    <state>DEPTO DE JUTIAPA</state>
    <state_code>11</state_code>
    <province></province>
    <province_code></province_code>
    <community></community>
    <community_code></community_code>
    <latitude>14.3069</latitude>
    <longitude>-89.7775</longitude>
  </object>
  <object>
    <country_code>GT</country_code>
    <zipcode>22001</zipcode>
    <place>JUTIAPA</place>
    <state>DEPTO DE JUTIAPA</state>
    <state_code>11</state_code>
    <province></province>
    <province_code></province_code>
    <community></community>
    <community_code></community_code>
    <latitude>14.2833</latitude>
    <longitude>-89.9</longitude>
  </object>
  <object>
    <country_code>GT</country_code>
    <zipcode>22002</zipcode>
    <place>EL PROGRESO</place>
    <state>DEPTO DE JUTIAPA</state>
    <state_code>11</state_code>
    <province></province>
    <province_code></province_code>
    <community></community>
    <community_code></community_code>
    <latitude>14.35</latitude>
    <longitude>-89.85</longitude>
  </object>
  <object>
    <country_code>GT</country_code>
    <zipcode>22003</zipcode>
    <place>SANTA CATARINA MITA</place>
    <state>DEPTO DE JUTIAPA</state>
    <state_code>11</state_code>
    <province></province>
    <province_code></province_code>
    <community></community>
    <community_code></community_code>
    <latitude>14.45</latitude>
    <longitude>-89.75</longitude>
  </object>
  <object>
    <country_code>GT</country_code>
    <zipcode>22004</zipcode>
    <place>AGUA BLANCA</place>
    <state>DEPTO DE JUTIAPA</state>
    <state_code>11</state_code>
    <province></province>
    <province_code></province_code>
    <community></community>
    <community_code></community_code>
    <latitude>14.5</latitude>
    <longitude>-89.65</longitude>
  </object>
  <object>
    <country_code>GT</country_code>
    <zipcode>22005</zipcode>
    <place>ASUNCION MITA</place>
    <state>DEPTO DE JUTIAPA</state>
    <state_code>11</state_code>
    <province></province>
    <province_code></province_code>
    <community></community>
    <community_code></community_code>
    <latitude>14.3308</latitude>
    <longitude>-89.7108</longitude>
  </object>
  <object>
    <country_code>GT</country_code>
    <zipcode>22006</zipcode>
    <place>YUPILTEPEQUE</place>
    <state>DEPTO DE JUTIAPA</state>
    <state_code>11</state_code>
    <province></province>
    <province_code></province_code>
    <community></community>
    <community_code></community_code>
    <latitude>14.2</latitude>
    <longitude>-89.7833</longitude>
  </object>
  <object>
    <country_code>GT</country_code>
    <zipcode>22007</zipcode>
    <place>ATESCATEMPA</place>
    <state>DEPTO DE JUTIAPA</state>
    <state_code>11</state_code>
    <province></province>
    <province_code></province_code>
    <community></community>
    <community_code></community_code>
    <latitude>14.1744</latitude>
    <longitude>-89.7425</longitude>
  </object>
  <object>
    <country_code>GT</country_code>
    <zipcode>22008</zipcode>
    <place>JERES</place>
    <state>DEPTO DE JUTIAPA</state>
    <state_code>11</state_code>
    <province></province>
    <province_code></province_code>
    <community></community>
    <community_code></community_code>
    <latitude>14.3069</latitude>
    <longitude>-89.7775</longitude>
  </object>
  <object>
    <country_code>GT</country_code>
    <zipcode>22009</zipcode>
    <place>EL ADELANTO</place>
    <state>DEPTO DE JUTIAPA</state>
    <state_code>11</state_code>
    <province></province>
    <province_code></province_code>
    <community></community>
    <community_code></community_code>
    <latitude>14.1667</latitude>
    <longitude>-89.8333</longitude>
  </object>
  <object>
    <country_code>GT</country_code>
    <zipcode>22010</zipcode>
    <place>ZAPOTITLAN</place>
    <state>DEPTO DE JUTIAPA</state>
    <state_code>11</state_code>
    <province></province>
    <province_code></province_code>
    <community></community>
    <community_code></community_code>
    <latitude>14.1333</latitude>
    <longitude>-89.8333</longitude>
  </object>
  <object>
    <country_code>GT</country_code>
    <zipcode>22011</zipcode>
    <place>COMAPA</place>
    <state>DEPTO DE JUTIAPA</state>
    <state_code>11</state_code>
    <province></province>
    <province_code></province_code>
    <community></community>
    <community_code></community_code>
    <latitude>14.1167</latitude>
    <longitude>-89.9167</longitude>
  </object>
  <object>
    <country_code>GT</country_code>
    <zipcode>22012</zipcode>
    <place>JALPATAGUA</place>
    <state>DEPTO DE JUTIAPA</state>
    <state_code>11</state_code>
    <province></province>
    <province_code></province_code>
    <community></community>
    <community_code></community_code>
    <latitude>14.1417</latitude>
    <longitude>-90.0086</longitude>
  </object>
  <object>
    <country_code>GT</country_code>
    <zipcode>22013</zipcode>
    <place>CONGUANCO</place>
    <state>DEPTO DE JUTIAPA</state>
    <state_code>11</state_code>
    <province></province>
    <province_code></province_code>
    <community></community>
    <community_code></community_code>
    <latitude>14.1347</latitude>
    <longitude>-90.0304</longitude>
  </object>
  <object>
    <country_code>GT</country_code>
    <zipcode>22014</zipcode>
    <place>MOYUTA</place>
    <state>DEPTO DE JUTIAPA</state>
    <state_code>11</state_code>
    <province></province>
    <province_code></province_code>
    <community></community>
    <community_code></community_code>
    <latitude>14.0386</latitude>
    <longitude>-90.0808</longitude>
  </object>
  <object>
    <country_code>GT</country_code>
    <zipcode>22015</zipcode>
    <place>PASACO</place>
    <state>DEPTO DE JUTIAPA</state>
    <state_code>11</state_code>
    <province></province>
    <province_code></province_code>
    <community></community>
    <community_code></community_code>
    <latitude>13.9772</latitude>
    <longitude>-90.2064</longitude>
  </object>
  <object>
    <country_code>GT</country_code>
    <zipcode>22016</zipcode>
    <place>SAN JOSE ACATEMPA</place>
    <state>DEPTO DE JUTIAPA</state>
    <state_code>11</state_code>
    <province></province>
    <province_code></province_code>
    <community></community>
    <community_code></community_code>
    <latitude>14.2653</latitude>
    <longitude>-90.1269</longitude>
  </object>
  <object>
    <country_code>GT</country_code>
    <zipcode>22017</zipcode>
    <place>QUESADA</place>
    <state>DEPTO DE JUTIAPA</state>
    <state_code>11</state_code>
    <province></province>
    <province_code></province_code>
    <community></community>
    <community_code></community_code>
    <latitude>14.2703</latitude>
    <longitude>-90.0403</longitude>
  </object>
  <object>
    <country_code>GT</country_code>
    <zipcode>22018</zipcode>
    <place>CIUDAD PEDRO DE ALVARADO (MOYUTA)</place>
    <state>DEPTO DE JUTIAPA</state>
    <state_code>11</state_code>
    <province></province>
    <province_code></province_code>
    <community></community>
    <community_code></community_code>
    <latitude>14.1347</latitude>
    <longitude>-90.0304</longitude>
  </object>
  <object>
    <country_code>GT</country_code>
    <zipcode>22019</zipcode>
    <place>SAN CRSITOBAL FRONTERA (ATESCATEMPA)</place>
    <state>DEPTO DE JUTIAPA</state>
    <state_code>11</state_code>
    <province></province>
    <province_code></province_code>
    <community></community>
    <community_code></community_code>
    <latitude>14.1347</latitude>
    <longitude>-90.0304</longitude>
  </object>
  <object>
    <country_code>GT</country_code>
    <zipcode>22020</zipcode>
    <place>VALLE NUEVO JALPATAGUA</place>
    <state>DEPTO DE JUTIAPA</state>
    <state_code>11</state_code>
    <province></province>
    <province_code></province_code>
    <community></community>
    <community_code></community_code>
    <latitude>14.2333</latitude>
    <longitude>-89.9667</longitude>
  </object>
  <object>
    <country_code>GT</country_code>
    <zipcode>22021</zipcode>
    <place>RIO DE PAZ</place>
    <state>DEPTO DE JUTIAPA</state>
    <state_code>11</state_code>
    <province></province>
    <province_code></province_code>
    <community></community>
    <community_code></community_code>
    <latitude>14.2333</latitude>
    <longitude>-89.9667</longitude>
  </object>
  <object>
    <country_code>GT</country_code>
    <zipcode>22022</zipcode>
    <place>HORCONES (STA. CAT. MITA)</place>
    <state>DEPTO DE JUTIAPA</state>
    <state_code>11</state_code>
    <province></province>
