[
  {
    "country_code": "BY",
    "zipcode": "210000",
    "place": "Витебск",
    "state": "Vitebsk",
    "state_code": "",
    "province": "Vitebsk",
    "province_code": "",
    "community": "",
    "community_code": "",
    "latitude": "55.1904",
    "longitude": "30.2049"
  },
  {
    "country_code": "BY",
    "zipcode": "211000",
    "place": "Старь",
    "state": "Vitebsk",
    "state_code": "",
    "province": "Orcha",
    "province_code": "",
    "community": "",
    "community_code": "",
    "latitude": "54.5603",
    "longitude": "30.2323"
  },
  {
    "country_code": "BY",
    "zipcode": "211001",
    "place": "Заболотье",
    "state": "Vitebsk",
    "state_code": "",
    "province": "Orcha",
    "province_code": "",
    "community": "",
    "community_code": "",
    "latitude": "54.5322",
    "longitude": "30.3138"
  },
  {
    "country_code": "BY",
    "zipcode": "211002",
    "place": "Заднепровский",
    "state": "Vitebsk",
    "state_code": "",
    "province": "Orcha",
    "province_code": "",
    "community": "",
    "community_code": "",
    "latitude": "54.5164",
    "longitude": "30.341"
  },
  {
    "country_code": "BY",
    "zipcode": "211003",
    "place": "Устье",
    "state": "Vitebsk",
    "state_code": "",
    "province": "Orcha",
    "province_code": "",
    "community": "",
    "community_code": "",
    "latitude": "54.6293",
    "longitude": "30.8884"
  },
  {
    "country_code": "BY",
    "zipcode": "211004",
    "place": "Болбасово",
    "state": "Vitebsk",
    "state_code": "",
    "province": "Orcha",
    "province_code": "",
    "community": "",
    "community_code": "",
    "latitude": "54.4207",
    "longitude": "30.2909"
  },
  {
    "country_code": "BY",
    "zipcode": "211005",
    "place": "Зубревичи",
    "state": "Vitebsk",
    "state_code": "",
    "province": "Orcha",
    "province_code": "",
    "community": "",
    "community_code": "",
    "latitude": "54.3995",
    "longitude": "30.2119"
  },
  {
    "country_code": "BY",
    "zipcode": "211006",
    "place": "Малое Бабино",
    "state": "Vitebsk",
    "state_code": "",
    "province": "Orcha",
    "province_code": "",
    "community": "",
    "community_code": "",
    "latitude": "54.6803",
    "longitude": "30.4233"
  },
  {
    "country_code": "BY",
    "zipcode": "211007",
    "place": "Лисуны",
    "state": "Vitebsk",
    "state_code": "",
    "province": "Orcha",
    "province_code": "",
    "community": "",
    "community_code": "",
    "latitude": "54.4553",
    "longitude": "30.1386"
  },
  {
    "country_code": "BY",
    "zipcode": "211008",
    "place": "Белево",
    "state": "Vitebsk",
    "state_code": "",
    "province": "Orcha",
    "province_code": "",
    "community": "",
    "community_code": "",
    "latitude": "54.4534",
    "longitude": "30.2286"
  },
  {
    "country_code": "BY",
    "zipcode": "211011",
    "place": "Барань",
    "state": "Vitebsk",
    "state_code": "",
    "province": "Orcha",
    "province_code": "",
    "community": "",
    "community_code": "",
    "latitude": "54.4784",
    "longitude": "30.3159"
  },
  {
    "country_code": "BY",
    "zipcode": "211012",
    "place": "Засекли",
    "state": "Vitebsk",
    "state_code": "",
    "province": "Orcha",
    "province_code": "",
    "community": "",
    "community_code": "",
    "latitude": "54.5734",
    "longitude": "30.1553"
  },
  {
    "country_code": "BY",
    "zipcode": "211013",
    "place": "Корово",
    "state": "Vitebsk",
    "state_code": "",
    "province": "Orcha",
    "province_code": "",
    "community": "",
    "community_code": "",
    "latitude": "54.5676",
    "longitude": "30.318"
  },
  {
    "country_code": "BY",
    "zipcode": "211014",
    "place": "Смольяны",
    "state": "Vitebsk",
    "state_code": "",
    "province": "Orcha",
    "province_code": "",
    "community": "",
    "community_code": "",
    "latitude": "54.6063",
    "longitude": "30.359"
  },
  {
    "country_code": "BY",
    "zipcode": "211015",
    "place": "Стайки",
    "state": "Vitebsk",
    "state_code": "",
    "province": "Orcha",
    "province_code": "",
    "community": "",
    "community_code": "",
    "latitude": "54.6828",
    "longitude": "30.3179"
  },
  {
    "country_code": "BY",
    "zipcode": "211016",
    "place": "Заполье",
    "state": "Vitebsk",
    "state_code": "",
    "province": "Orcha",
    "province_code": "",
    "community": "",
    "community_code": "",
    "latitude": "54.708",
    "longitude": "30.7287"
  },
  {
    "country_code": "BY",
    "zipcode": "211017",
    "place": "Межево",
    "state": "Vitebsk",
    "state_code": "",
    "province": "Orcha",
    "province_code": "",
    "community": "",
    "community_code": "",
    "latitude": "54.6274",
    "longitude": "30.3082"
  },
  {
    "country_code": "BY",
    "zipcode": "211018",
    "place": "Юрцево",
    "state": "Vitebsk",
    "state_code": "",
    "province": "Orcha",
    "province_code": "",
    "community": "",
    "community_code": "",
    "latitude": "54.6068",
    "longitude": "30.369"
  },
  {
    "country_code": "BY",
    "zipcode": "211019",
    "place": "Пищалово",
    "state": "Vitebsk",
    "state_code": "",
    "province": "Orcha",
    "province_code": "",
    "community": "",
    "community_code": "",
    "latitude": "54.6063",
    "longitude": "30.359"
  },
  {
    "country_code": "BY",
    "zipcode": "211020",
    "place": "Лариновка",
    "state": "Vitebsk",
    "state_code": "",
    "province": "Orcha",
    "province_code": "",
    "community": "",
    "community_code": "",
    "latitude": "54.5227",
    "longitude": "30.474"
  },
  {
    "country_code": "BY",
    "zipcode": "211021",
    "place": "Крапивино",
    "state": "Vitebsk",
    "state_code": "",
    "province": "Orcha",
    "province_code": "",
    "community": "",
    "community_code": "",
    "latitude": "54.6654",
    "longitude": "30.4364"
  },
  {
    "country_code": "BY",
    "zipcode": "211022",
    "place": "Митьковщина",
    "state": "Vitebsk",
    "state_code": "",
    "province": "Orcha",
    "province_code": "",
    "community": "",
    "community_code": "",
    "latitude": "54.5748",
    "longitude": "30.5243"
  },
  {
    "country_code": "BY",
    "zipcode": "211023",
    "place": "Андреевщина",
    "state": "Vitebsk",
    "state_code": "",
    "province": "Orcha",
    "province_code": "",
    "community": "",
    "community_code": "",
    "latitude": "54.8076",
    "longitude": "30.2813"
  },
  {
    "country_code": "BY",
    "zipcode": "211024",
    "place": "Высокое",
    "state": "Vitebsk",
    "state_code": "",
    "province": "Orcha",
    "province_code": "",
    "community": "",
    "community_code": "",
    "latitude": "54.6654",
    "longitude": "30.4364"
  },
  {
    "country_code": "BY",
    "zipcode": "211026",
    "place": "Ореховск",
    "state": "Vitebsk",
    "state_code": "",
    "province": "Orcha",
    "province_code": "",
    "community": "",
    "community_code": "",
    "latitude": "54.6853",
    "longitude": "30.4998"
  },
  {
    "country_code": "BY",
    "zipcode": "211029",
    "place": "Клюковка",
    "state": "Vitebsk",
    "state_code": "",
    "province": "Orcha",
    "province_code": "",
    "community": "",
    "community_code": "",
    "latitude": "54.7365",
    "longitude": "30.4027"
  },
  {
    "country_code": "BY",
    "zipcode": "211030",
    "place": "Орша",
    "state": "Vitebsk",
    "state_code": "",
    "province": "Orcha",
    "province_code": "",
    "community": "",
    "community_code": "",
    "latitude": "54.5081",
    "longitude": "30.4172"
  },
  {
    "country_code": "BY",
    "zipcode": "211031",
    "place": "Пинизовье",
    "state": "Vitebsk",
    "state_code": "",
    "province": "Orcha",
    "province_code": "",
    "community": "",
    "community_code": "",
    "latitude": "54.4016",
    "longitude": "30.4902"
  },
  {
    "country_code": "BY",
    "zipcode": "211032",
    "place": "Пугляи",
    "state": "Vitebsk",
    "state_code": "",
    "province": "Orcha",
    "province_code": "",
    "community": "",
    "community_code": "",
    "latitude": "54.4274",
    "longitude": "30.5356"
  },
  {
    "country_code": "BY",
    "zipcode": "211033",
    "place": "Браздетчино",
    "state": "Vitebsk",
    "state_code": "",
    "province": "Orcha",
    "province_code": "",
    "community": "",
    "community_code": "",
    "latitude": "54.4521",
    "longitude": "30.636"
  },
  {
    "country_code": "BY",
    "zipcode": "211034",
    "place": "Борздовка",
    "state": "Vitebsk",
    "state_code": "",
    "province": "Orcha",
    "province_code": "",
    "community": "",
    "community_code": "",
    "latitude": "54.4122",
    "longitude": "30.6557"
  },
  {
    "country_code": "BY",
    "zipcode": "211035",
    "place": "Бабиничи",
    "state": "Vitebsk",
    "state_code": "",
    "province": "Orcha",
    "province_code": "",
    "community": "",
    "community_code": "",
    "latitude": "54.4232",
    "longitude": "30.4418"
  },
  {
    "country_code": "BY",
    "zipcode": "211036",
    "place": "Яковлевичи",
    "state": "Vitebsk",
    "state_code": "",
    "province": "Orcha",
    "province_code": "",
    "community": "",
    "community_code": "",
    "latitude": "54.3419",
    "longitude": "30.5018"
  },
  {
    "country_code": "BY",
    "zipcode": "211037",
    "place": "Зубово",
    "state": "Vitebsk",
    "state_code": "",
    "province": "Orcha",
    "province_code": "",
    "community": "",
    "community_code": "",
    "latitude": "54.3568",
    "longitude": "30.4026"
  },
  {
    "country_code": "BY",
    "zipcode": "211038",
    "place": "Копысь",
    "state": "Vitebsk",
    "state_code": "",
    "province": "Orcha",
    "province_code": "",
    "community": "",
    "community_code": "",
    "latitude": "54.3221",
    "longitude": "30.2897"
  },
  {
    "country_code": "BY",
    "zipcode": "211039",
    "place": "Козловичи",
    "state": "Vitebsk",
    "state_code": "",
    "province": "Orcha",
    "province_code": "",
    "community": "",
    "community_code": "",
    "latitude": "54.371",
    "longitude": "30.5318"
  },
  {
    "country_code": "BY",
    "zipcode": "211040",
    "place": "Дубровно",
    "state": "Vitebsk",
    "state_code": "",
    "province": "Doubrovno",
    "province_code": "",
    "community": "",
    "community_code": "",
    "latitude": "54.5716",
    "longitude": "30.691"
  },
  {
    "country_code": "BY",
    "zipcode": "211041",
    "place": "Станиславово",
    "state": "Vitebsk",
    "state_code": "",
    "province": "Doubrovno",
    "province_code": "",
    "community": "",
    "community_code": "",
    "latitude": "54.5378",
    "longitude": "30.6838"
  },
  {
    "country_code": "BY",
    "zipcode": "211044",
    "place": "Буда",
    "state": "Vitebsk",
    "state_code": "",
    "province": "Doubrovno",
    "province_code": "",
    "community": "",
    "community_code": "",
    "latitude": "54.6579",
    "longitude": "30.6446"
  },
  {
    "country_code": "BY",
    "zipcode": "211045",
    "place": "Редьки",
    "state": "Vitebsk",
    "state_code": "",
    "province": "Doubrovno",
    "province_code": "",
    "community": "",
    "community_code": "",
    "latitude": "54.6891",
    "longitude": "30.7946"
  },
  {
    "country_code": "BY",
    "zipcode": "211046",
    "place": "Осинторф",
    "state": "Vitebsk",
    "state_code": "",
    "province": "Doubrovno",
    "province_code": "",
    "community": "",
    "community_code": "",
    "latitude": "54.7148",
    "longitude": "30.6581"
  },
  {
    "country_code": "BY",
    "zipcode": "211047",
    "place": "Застенки",
    "state": "Vitebsk",
    "state_code": "",
    "province": "Doubrovno",
    "province_code": "",
    "community": "",
    "community_code": "",
    "latitude": "54.6793",
    "longitude": "30.9272"
  },
  {
    "country_code": "BY",
    "zipcode": "211048",
    "place": "Россасно",
    "state": "Vitebsk",
    "state_code": "",
    "province": "Doubrovno",
    "province_code": "",
    "community": "",
    "community_code": "",
    "latitude": "54.6466",
    "longitude": "30.8798"
  },
  {
    "country_code": "BY",
    "zipcode": "211052",
    "place": "Баево",
    "state": "Vitebsk",
    "state_code": "",
    "province": "Doubrovno",
    "province_code": "",
    "community": "",
    "community_code": "",
    "latitude": "54.4866",
    "longitude": "31.1079"
  },
  {
    "country_code": "BY",
    "zipcode": "211054",
    "place": "Добрынь",
    "state": "Vitebsk",
    "state_code": "",
    "province": "Doubrovno",
    "province_code": "",
    "community": "",
    "community_code": "",
    "latitude": "54.4495",
    "longitude": "30.7914"
  },
  {
    "country_code": "BY",
    "zipcode": "211055",
    "place": "Сватошицы",
    "state": "Vitebsk",
    "state_code": "",
    "province": "Doubrovno",
    "province_code": "",
    "community": "",
    "community_code": "",
    "latitude": "54.5425",
    "longitude": "30.9345"
  },
  {
    "country_code": "BY",
    "zipcode": "211057",
    "place": "Боброво",
    "state": "Vitebsk",
    "state_code": "",
    "province": "Doubrovno",
    "province_code": "",
    "community": "",
    "community_code": "",
    "latitude": "54.6181",
    "longitude": "30.8281"
  },
  {
    "country_code": "BY",
    "zipcode": "211058",
    "place": "Еремеевщина",
    "state": "Vitebsk",
    "state_code": "",
    "province": "Doubrovno",
    "province_code": "",
    "community": "",
    "community_code": "",
    "latitude": "54.5582",
    "longitude": "30.7742"
  },
  {
    "country_code": "BY",
    "zipcode": "211059",
    "place": "Ляды",
    "state": "Vitebsk",
    "state_code": "",
    "province": "Doubrovno",
    "province_code": "",
    "community": "",
    "community_code": "",
    "latitude": "54.6",
    "longitude": "31.171"
  },
  {
    "country_code": "BY",
    "zipcode": "211060",
    "place": "Коханово",
    "state": "Vitebsk",
    "state_code": "",
    "province": "Tolotchin",
    "province_code": "",
    "community": "",
    "community_code": "",
    "latitude": "54.4611",
    "longitude": "30.0018"
  },
  {
    "country_code": "BY",
    "zipcode": "211061",
    "place": "Мартюхово",
    "state": "Vitebsk",
    "state_code": "",
    "province": "Tolotchin",
    "province_code": "",
    "community": "",
    "community_code": "",
    "latitude": "54.4262",
    "longitude": "29.9535"
  },
  {
    "country_code": "BY",
    "zipcode": "211062",
    "place": "Горщевщина",
    "state": "Vitebsk",
    "state_code": "",
    "province": "Tolotchin",
    "province_code": "",
    "community": "",
    "community_code": "",
    "latitude": "54.5602",
    "longitude": "29.9705"
  },
  {
    "country_code": "BY",
    "zipcode": "211063",
    "place": "Лавреновка",
    "state": "Vitebsk",
    "state_code": "",
    "province": "Tolotchin",
    "province_code": "",
    "community": "",
    "community_code": "",
    "latitude": "54.5417",
    "longitude": "29.8486"
  },
  {
    "country_code": "BY",
    "zipcode": "211064",
    "place": "Обольцы",
    "state": "Vitebsk",
    "state_code": "",
    "province": "Tolotchin",
    "province_code": "",
    "community": "",
    "community_code": "",
    "latitude": "54.4262",
    "longitude": "29.9535"
  },
  {
    "country_code": "BY",
    "zipcode": "211065",
    "place": "Заболотье",
    "state": "Vitebsk",
    "state_code": "",
    "province": "Tolotchin",
    "province_code": "",
    "community": "",
    "community_code": "",
    "latitude": "54.5322",
    "longitude": "30.3138"
  },
  {
    "country_code": "BY",
    "zipcode": "211066",
    "place": "Речки",
    "state": "Vitebsk",
    "state_code": "",
    "province": "Tolotchin",
    "province_code": "",
    "community": "",
    "community_code": "",
    "latitude": "54.4122",
    "longitude": "29.9892"
  },
  {
    "country_code": "BY",
    "zipcode": "211067",
    "place": "Звенячи",
    "state": "Vitebsk",
    "state_code": "",
    "province": "Tolotchin",
    "province_code": "",
    "community": "",
    "community_code": "",
    "latitude": "54.4731",
    "longitude": "30.0374"
  },
  {
    "country_code": "BY",
    "zipcode": "211068",
    "place": "Жукнево",
    "state": "Vitebsk",
    "state_code": "",
    "province": "Tolotchin",
    "province_code": "",
    "community": "",
    "community_code": "",
    "latitude": "54.3746",
    "longitude": "30.0023"
  },
  {
    "country_code": "BY",
    "zipcode": "211069",
    "place": "Заозерье",
    "state": "Vitebsk",
    "state_code": "",
    "province": "Tolotchin",
    "province_code": "",
    "community": "",
    "community_code": "",
    "latitude": "54.0544",
    "longitude": "29.4643"
  },
  {
    "country_code": "BY",
    "zipcode": "211070",
    "place": "Толочин",
    "state": "Vitebsk",
    "state_code": "",
    "province": "Tolotchin",
    "province_code": "",
    "community": "",
    "community_code": "",
    "latitude": "54.4087",
    "longitude": "29.6955"
  },
  {
    "country_code": "BY",
    "zipcode": "211071",
    "place": "Новинка",
    "state": "Vitebsk",
    "state_code": "",
    "province": "Tolotchin",
    "province_code": "",
    "community": "",
    "community_code": "",
    "latitude": "54.3867",
    "longitude": "29.5201"
  },
  {
    "country_code": "BY",
    "zipcode": "211072",
    "place": "Озерцы",
    "state": "Vitebsk",
    "state_code": "",
    "province": "Tolotchin",
    "province_code": "",
    "community": "",
    "community_code": "",
    "latitude": "54.7913",
    "longitude": "28.777"
  },
  {
    "country_code": "BY",
    "zipcode": "211074",
    "place": "Волковичи",
    "state": "Vitebsk",
    "state_code": "",
    "province": "Tolotchin",
    "province_code": "",
    "community": "",
    "community_code": "",
    "latitude": "54.3782",
    "longitude": "29.8393"
  },
  {
    "country_code": "BY",
    "zipcode": "211075",
    "place": "Воронцевичи",
    "state": "Vitebsk",
    "state_code": "",
    "province": "Tolotchin",
    "province_code": "",
    "community": "",
    "community_code": "",
    "latitude": "54.3694",
    "longitude": "29.9043"
  },
  {
    "country_code": "BY",
    "zipcode": "211076",
    "place": "Друцк",
    "state": "Vitebsk",
    "state_code": "",
    "province": "Tolotchin",
    "province_code": "",
    "community": "",
    "community_code": "",
    "latitude": "54.3409",
    "longitude": "29.7652"
  },
  {
    "country_code": "BY",
    "zipcode": "211077",
    "place": "Плоское",
    "state": "Vitebsk",
    "state_code": "",
    "province": "Tolotchin",
    "province_code": "",
    "community": "",
    "community_code": "",
    "latitude": "54.4425",
    "longitude": "29.5336"
  },
  {
    "country_code": "BY",
    "zipcode": "211078",
    "place": "Матиево",
    "state": "Vitebsk",
    "state_code": "",
    "province": "Tolotchin",
    "province_code": "",
    "community": "",
    "community_code": "",
    "latitude": "54.4323",
    "longitude": "29.5696"
  },
  {
    "country_code": "BY",
    "zipcode": "211079",
    "place": "Славени",
    "state": "Vitebsk",
    "state_code": "",
    "province": "Tolotchin",
    "province_code": "",
    "community": "",
    "community_code": "",
    "latitude": "54.3411",
    "longitude": "29.5216"
  },
  {
    "country_code": "BY",
    "zipcode": "211080",
    "place": "Усвиж - Бук",
    "state": "Vitebsk",
    "state_code": "",
    "province": "Tolotchin",
    "province_code": "",
    "community": "",
    "community_code": "",
    "latitude": "54.4878",
    "longitude": "29.7022"
  },
  {
    "country_code": "BY",
    "zipcode": "211081",
    "place": "Анелино",
    "state": "Vitebsk",
    "state_code": "",
    "province": "Tolotchin",
    "province_code": "",
    "community": "",
    "community_code": "",
    "latitude": "54.5222",
    "longitude": "29.7788"
  },
  {
    "country_code": "BY",
    "zipcode": "211082",
    "place": "Серковица",
    "state": "Vitebsk",
    "state_code": "",
    "province": "Tolotchin",
    "province_code": "",
    "community": "",
    "community_code": "",
    "latitude": "54.5031",
    "longitude": "29.7155"
  },
  {
    "country_code": "BY",
    "zipcode": "211084",
    "place": "Ромашково",
    "state": "Vitebsk",
    "state_code": "",
    "province": "Tolotchin",
    "province_code": "",
    "community": "",
    "community_code": "",
    "latitude": "54.5159",
    "longitude": "30.0476"
  },
  {
    "country_code": "BY",
    "zipcode": "211085",
    "place": "Высокий Городец",
    "state": "Vitebsk",
    "state_code": "",
    "province": "Tolotchin",
    "province_code": "",
    "community": "",
    "community_code": "",
    "latitude": "54.5983",
    "longitude": "29.5478"
  },
  {
    "country_code": "BY",
    "zipcode": "211086",
    "place": "Волосово",
    "state": "Vitebsk",
    "state_code": "",
    "province": "Tolotchin",
    "province_code": "",
    "community": "",
    "community_code": "",
    "latitude": "54.5501",
    "longitude": "29.5344"
  },
  {
    "country_code": "BY",
    "zipcode": "211087",
    "place": "Мешково",
    "state": "Vitebsk",
    "state_code": "",
    "province": "Tolotchin",
    "province_code": "",
    "community": "",
    "community_code": "",
    "latitude": "54.4806",
    "longitude": "29.6303"
  },
  {
    "country_code": "BY",
    "zipcode": "211088",
    "place": "Заднево",
    "state": "Vitebsk",
    "state_code": "",
    "province": "Tolotchin",
    "province_code": "",
    "community": "",
    "community_code": "",
    "latitude": "54.4505",
    "longitude": "29.8106"
  },
  {
    "country_code": "BY",
    "zipcode": "211089",
    "place": "Райцы",
    "state": "Vitebsk",
    "state_code": "",
    "province": "Tolotchin",
    "province_code": "",
    "community": "",
    "community_code": "",
    "latitude": "54.4193",
    "longitude": "29.6727"
  },
  {
    "country_code": "BY",
    "zipcode": "211090",
    "place": "Славное",
    "state": "Vitebsk",
    "state_code": "",
    "province": "Tolotchin",
    "province_code": "",
    "community": "",
    "community_code": "",
    "latitude": "54.3056",
    "longitude": "29.4441"
  },
  {
    "country_code": "BY",
    "zipcode": "211095",
    "place": "Черцы",
    "state": "Vitebsk",
    "state_code": "",
    "province": "Lepel",
    "province_code": "",
    "community": "",
    "community_code": "",
    "latitude": "54.6226",
    "longitude": "29.1067"
  },
  {
    "country_code": "BY",
    "zipcode": "211096",
    "place": "Велевщина",
    "state": "Vitebsk",
    "state_code": "",
    "province": "Lepel",
    "province_code": "",
    "community": "",
    "community_code": "",
    "latitude": "54.6226",
    "longitude": "29.1067"
  },
  {
    "country_code": "BY",
    "zipcode": "211097",
    "place": "Старое Лядно",
    "state": "Vitebsk",
    "state_code": "",
    "province": "Lepel",
    "province_code": "",
    "community": "",
    "community_code": "",
    "latitude": "54.9395",
    "longitude": "28.7693"
  },
  {
    "country_code": "BY",
    "zipcode": "211098",
    "place": "Черейшина",
    "state": "Vitebsk",
    "state_code": "",
    "province": "Lepel",
    "province_code": "",
    "community": "",
    "community_code": "",
    "latitude": "54.6226",
    "longitude": "29.1067"
  },
  {
    "country_code": "BY",
    "zipcode": "211102",
    "place": "Литусово",
    "state": "Vitebsk",
    "state_code": "",
    "province": "Senno",
    "province_code": "",
    "community": "",
    "community_code": "",
    "latitude": "54.6836",
    "longitude": "30.1753"
  },
  {
    "country_code": "BY",
    "zipcode": "211105",
    "place": "Богданово",
    "state": "Vitebsk",
    "state_code": "",
    "province": "Senno",
    "province_code": "",
    "community": "",
    "community_code": "",
    "latitude": "54.7",
    "longitude": "29.8001"
  },
  {
    "country_code": "BY",
    "zipcode": "211110",
    "place": "Первая",
    "state": "Vitebsk",
    "state_code": "",
    "province": "Senno",
    "province_code": "",
    "community": "",
    "community_code": "",
    "latitude": "54.6848",
    "longitude": "29.6207"
  },
  {
    "country_code": "BY",
    "zipcode": "211111",
    "place": "Пламя",
    "state": "Vitebsk",
    "state_code": "",
    "province": "Senno",
    "province_code": "",
    "community": "",
    "community_code": "",
    "latitude": "54.6848",
    "longitude": "29.6207"
  },
  {
    "country_code": "BY",
    "zipcode": "211120",
    "place": "Сенно",
    "state": "Vitebsk",
    "state_code": "",
    "province": "Senno",
    "province_code": "",
    "community": "",
    "community_code": "",
    "latitude": "54.8108",
    "longitude": "29.7086"
  },
  {
    "country_code": "BY",
    "zipcode": "211121",
    "place": "Немойта",
    "state": "Vitebsk",
    "state_code": "",
    "province": "Senno",
    "province_code": "",
    "community": "",
    "community_code": "",
    "latitude": "54.7501",
    "longitude": "29.7652"
  },
  {
    "country_code": "BY",
    "zipcode": "211122",
    "place": "Латыголь",
    "state": "Vitebsk",
    "state_code": "",
    "province": "Senno",
    "province_code": "",
    "community": "",
    "community_code": "",
    "latitude": "54.7671",
    "longitude": "29.6292"
  },
  {
    "country_code": "BY",
    "zipcode": "211123",
    "place": "Ульяновичи",
    "state": "Vitebsk",
    "state_code": "",
    "province": "Senno",
    "province_code": "",
    "community": "",
    "community_code": "",
    "latitude": "54.8021",
    "longitude": "29.4918"
  },
  {
    "country_code": "BY",
    "zipcode": "211124",
    "place": "Поженьки",
    "state": "Vitebsk",
    "state_code": "",
    "province": "Senno",
    "province_code": "",
    "community": "",
    "community_code": "",
    "latitude": "54.8405",
    "longitude": "29.5461"
  },
  {
    "country_code": "BY",
    "zipcode": "211126",
    "place": "Белая Липа",
    "state": "Vitebsk",
    "state_code": "",
    "province": "Senno",
    "province_code": "",
    "community": "",
    "community_code": "",
    "latitude": "54.9125",
    "longitude": "29.7404"
  },
  {
    "country_code": "BY",
    "zipcode": "211127",
    "place": "Ходцы",
    "state": "Vitebsk",
    "state_code": "",
    "province": "Senno",
    "province_code": "",
    "community": "",
    "community_code": "",
    "latitude": "54.9686",
    "longitude": "29.8123"
  },
  {
    "country_code": "BY",
    "zipcode": "211128",
    "place": "Поповка",
    "state": "Vitebsk",
    "state_code": "",
    "province": "Senno",
    "province_code": "",
    "community": "",
    "community_code": "",
    "latitude": "54.795",
    "longitude": "29.7381"
  },
  {
    "country_code": "BY",
    "zipcode": "211130",
    "place": "Синегорская",
    "state": "Vitebsk",
    "state_code": "",
    "province": "Senno",
    "province_code": "",
    "community": "",
    "community_code": "",
    "latitude": "54.8172",
    "longitude": "29.9515"
  },
  {
    "country_code": "BY",
    "zipcode": "211131",
    "place": "Алексиничи",
    "state": "Vitebsk",
    "state_code": "",
    "province": "Senno",
    "province_code": "",
    "community": "",
    "community_code": "",
    "latitude": "54.7715",
    "longitude": "29.9746"
  },
  {
    "country_code": "BY",
    "zipcode": "211132",
    "place": "Оболь",
    "state": "Vitebsk",
    "state_code": "",
    "province": "Senno",
    "province_code": "",
    "community": "",
    "community_code": "",
    "latitude": "54.8372",
    "longitude": "29.9988"
  },
  {
    "country_code": "BY",
    "zipcode": "211134",
    "place": "Дубовцы",
    "state": "Vitebsk",
    "state_code": "",
    "province": "Senno",
    "province_code": "",
    "community": "",
    "community_code": "",
    "latitude": "54.7369",
    "longitude": "29.8243"
  },
  {
    "country_code": "BY",
    "zipcode": "211135",
    "place": "Мошканы",
    "state": "Vitebsk",
    "state_code": "",
    "province": "Senno",
    "province_code": "",
    "community": "",
    "community_code": "",
    "latitude": "54.952",
    "longitude": "30.0308"
  },
  {
    "country_code": "BY",
    "zipcode": "211136",
    "place": "Застодолье",
    "state": "Vitebsk",
    "state_code": "",
    "province": "Senno",
    "province_code": "",
    "community": "",
    "community_code": "",
    "latitude": "54.8197",
    "longitude": "29.9894"
  },
  {
    "country_code": "BY",
    "zipcode": "211137",
    "place": "Шинково",
    "state": "Vitebsk",
    "state_code": "",
    "province": "Senno",
    "province_code": "",
    "community": "",
    "community_code": "",
    "latitude": "54.7527",
    "longitude": "29.8842"
  },
  {
    "country_code": "BY",
    "zipcode": "211138",
    "place": "Студенка",
    "state": "Vitebsk",
    "state_code": "",
    "province": "Senno",
    "province_code": "",
    "community": "",
    "community_code": "",
    "latitude": "54.8181",
    "longitude": "29.8809"
  },
  {
    "country_code": "BY",
    "zipcode": "211139",
    "place": "Константово",
    "state": "Vitebsk",
    "state_code": "",
    "province": "Senno",
    "province_code": "",
    "community": "",
    "community_code": "",
    "latitude": "54.8495",
    "longitude": "30.029"
  },
  {
    "country_code": "BY",
    "zipcode": "211140",
    "place": "Круглица",
    "state": "Vitebsk",
    "state_code": "",
    "province": "Tchachniki",
    "province_code": "",
    "community": "",
    "community_code": "",
    "latitude": "54.5936",
    "longitude": "28.7937"
  },
  {
    "country_code": "BY",
    "zipcode": "211141",
    "place": "Гриньки",
    "state": "Vitebsk",
    "state_code": "",
    "province": "Tchachniki",
    "province_code": "",
    "community": "",
    "community_code": "",
    "latitude": "54.8096",
    "longitude": "29.3379"
  },
  {
    "country_code": "BY",
    "zipcode": "211142",
    "place": "Дворец",
    "state": "Vitebsk",
    "state_code": "",
    "province": "Tchachniki",
    "province_code": "",
    "community": "",
    "community_code": "",
    "latitude": "54.8651",
    "longitude": "28.9759"
  },
  {
    "country_code": "BY",
    "zipcode": "211147",
    "place": "Октябрьский",
    "state": "Vitebsk",
    "state_code": "",
    "province": "Tchachniki",
    "province_code": "",
    "community": "",
    "community_code": "",
    "latitude": "54.7766",
    "longitude": "29.0439"
  },
  {
    "country_code": "BY",
    "zipcode": "211148",
    "place": "Тяпино",
    "state": "Vitebsk",
    "state_code": "",
    "province": "Tchachniki",
    "province_code": "",
    "community": "",
    "community_code": "",
    "latitude": "54.838",
    "longitude": "29.0683"
  },
  {
    "country_code": "BY",
    "zipcode": "211150",
    "place": "Чашники",
    "state": "Vitebsk",
    "state_code": "",
    "province": "Tchachniki",
    "province_code": "",
    "community": "",
    "community_code": "",
    "latitude": "54.8584",
    "longitude": "29.1608"
  },
  {
    "country_code": "BY",
    "zipcode": "211151",
    "place": "Проземля",
    "state": "Vitebsk",
    "state_code": "",
    "province": "Tchachniki",
    "province_code": "",
    "community": "",
    "community_code": "",
    "latitude": "54.8614",
    "longitude": "29.1049"
  },
  {
    "country_code": "BY",
    "zipcode": "211152",
    "place": "Латыголичи",
    "state": "Vitebsk",
    "state_code": "",
    "province": "Tchachniki",
    "province_code": "",
    "community": "",
    "community_code": "",
    "latitude": "54.6245",
    "longitude": "28.7005"
  },
  {
    "country_code": "BY",
    "zipcode": "211153",
    "place": "Иванск",
    "state": "Vitebsk",
    "state_code": "",
    "province": "Tchachniki",
    "province_code": "",
    "community": "",
    "community_code": "",
    "latitude": "54.9393",
    "longitude": "29.1446"
  },
  {
    "country_code": "BY",
    "zipcode": "211154",
    "place": "Малая Ведрень",
    "state": "Vitebsk",
    "state_code": "",
    "province": "Tchachniki",
    "province_code": "",
    "community": "",
    "community_code": "",
    "latitude": "54.9183",
    "longitude": "29.3045"
  },
  {
    "country_code": "BY",
    "zipcode": "211155",
    "place": "Малая Ольшанка",
    "state": "Vitebsk",
    "state_code": "",
    "province": "Tchachniki",
    "province_code": "",
    "community": "",
    "community_code": "",
    "latitude": "54.7482",
    "longitude": "28.9774"
  },
  {
    "country_code": "BY",
    "zipcode": "211156",
    "place": "Краснозвездное",
    "state": "Vitebsk",
    "state_code": "",
    "province": "Tchachniki",
    "province_code": "",
    "community": "",
    "community_code": "",
    "latitude": "54.7482",
    "longitude": "28.9774"
  },
  {
    "country_code": "BY",
    "zipcode": "211157",
    "place": "Антополье",
    "state": "Vitebsk",
    "state_code": "",
    "province": "Tchachniki",
    "province_code": "",
    "community": "",
    "community_code": "",
    "latitude": "54.1857",
    "longitude": "28.0544"
  },
  {
    "country_code": "BY",
    "zipcode": "211158",
    "place": "Замочек",
    "state": "Vitebsk",
    "state_code": "",
    "province": "Tchachniki",
    "province_code": "",
    "community": "",
    "community_code": "",
    "latitude": "54.7002",
    "longitude": "29.3287"
  },
  {
    "country_code": "BY",
    "zipcode": "211159",
    "place": "Паулье",
    "state": "Vitebsk",
    "state_code": "",
    "province": "Tchachniki",
    "province_code": "",
    "community": "",
    "community_code": "",
    "latitude": "54.8974",
    "longitude": "29.0207"
  },
  {
    "country_code": "BY",
    "zipcode": "211160",
    "place": "Почаевичи",
    "state": "Vitebsk",
    "state_code": "",
    "province": "Tchachniki",
    "province_code": "",
    "community": "",
    "community_code": "",
    "latitude": "54.7923",
    "longitude": "29.2533"
  },
  {
    "country_code": "BY",
    "zipcode": "211161",
    "place": "Лукомль",
    "state": "Vitebsk",
    "state_code": "",
    "province": "Tchachniki",
    "province_code": "",
    "community": "",
    "community_code": "",
    "latitude": "54.7078",
    "longitude": "29.1499"
  },
  {
    "country_code": "BY",
    "zipcode": "211162",
    "place": "Новолукомль",
    "state": "Vitebsk",
    "state_code": "",
    "province": "Tchachniki",
    "province_code": "",
    "community": "",
    "community_code": "",
    "latitude": "54.6619",
    "longitude": "29.1502"
  },
  {
    "country_code": "BY",
    "zipcode": "211163",
    "place": "Стражевичи",
    "state": "Vitebsk",
    "state_code": "",
    "province": "Tchachniki",
    "province_code": "",
    "community": "",
    "community_code": "",
    "latitude": "54.6618",
    "longitude": "29.2357"
  },
  {
    "country_code": "BY",
    "zipcode": "211164",
    "place": "Черея",
    "state": "Vitebsk",
    "state_code": "",
    "province": "Tchachniki",
    "province_code": "",
    "community": "",
    "community_code": "",
    "latitude": "54.6134",
    "longitude": "29.2796"
  },
  {
    "country_code": "BY",
    "zipcode": "211165",
    "place": "Гили",
    "state": "Vitebsk",
    "state_code": "",
    "province": "Tchachniki",
    "province_code": "",
    "community": "",
    "community_code": "",
    "latitude": "54.7444",
    "longitude": "29.0641"
  },
  {
    "country_code": "BY",
    "zipcode": "211166",
    "place": "Новая Заря",
    "state": "Vitebsk",
    "state_code": "",
    "province": "Tchachniki",
    "province_code": "",
    "community": "",
    "community_code": "",
    "latitude": "55.5962",
    "longitude": "29.9195"
  },
  {
    "country_code": "BY",
    "zipcode": "211167",
    "place": "Краснолуки",
    "state": "Vitebsk",
    "state_code": "",
    "province": "Tchachniki",
    "province_code": "",
    "community": "",
    "community_code": "",
    "latitude": "54.618",
    "longitude": "28.837"
  },
  {
    "country_code": "BY",
    "zipcode": "211169",
    "place": "Вятеро",
    "state": "Vitebsk",
    "state_code": "",
    "province": "Tchachniki",
    "province_code": "",
    "community": "",
    "community_code": "",
    "latitude": "54.7346",
    "longitude": "29.3905"
  },
  {
    "country_code": "BY",
    "zipcode": "211170",
    "place": "Новозаслоново",
    "state": "Vitebsk",
    "state_code": "",
    "province": "Lepel",
    "province_code": "",
    "community": "",
    "community_code": "",
    "latitude": "54.8835",
    "longitude": "28.9222"
  },
  {
    "country_code": "BY",
    "zipcode": "211171",
    "place": "Межица",
    "state": "Vitebsk",
    "state_code": "",
    "province": "Lepel",
    "province_code": "",
    "community": "",
    "community_code": "",
    "latitude": "54.9008",
    "longitude": "28.9884"
  },
  {
    "country_code": "BY",
    "zipcode": "211176",
    "place": "Поплавки",
    "state": "Vitebsk",
    "state_code": "",
    "province": "Lepel",
    "province_code": "",
    "community": "",
    "community_code": "",
    "latitude": "54.9305",
    "longitude": "28.5391"
  },
  {
    "country_code": "BY",
    "zipcode": "211177",
    "place": "Пышно",
    "state": "Vitebsk",
    "state_code": "",
    "province": "Lepel",
    "province_code": "",
    "community": "",
    "community_code": "",
    "latitude": "54.9575",
    "longitude": "28.4851"
  },
  {
    "country_code": "BY",
    "zipcode": "211180",
    "place": "Лепель",
    "state": "Vitebsk",
    "state_code": "",
    "province": "Lepel",
    "province_code": "",
    "community": "",
    "community_code": "",
    "latitude": "54.8814",
    "longitude": "28.699"
  },
  {
    "country_code": "BY",
    "zipcode": "211181",
    "place": "Большой Полсвиж",
    "state": "Vitebsk",
    "state_code": "",
    "province": "Lepel",
    "province_code": "",
    "community": "",
    "community_code": "",
    "latitude": "54.8529",
    "longitude": "28.7453"
  },
  {
    "country_code": "BY",
    "zipcode": "211182",
    "place": "Горки",
    "state": "Vitebsk",
    "state_code": "",
    "province": "Lepel",
    "province_code": "",
    "community": "",
    "community_code": "",
    "latitude": "54.8771",
    "longitude": "28.8676"
  },
  {
    "country_code": "BY",
    "zipcode": "211183",
    "place": "Новые Волосовичи",
    "state": "Vitebsk",
    "state_code": "",
    "province": "Lepel",
    "province_code": "",
    "community": "",
    "community_code": "",
    "latitude": "54.8564",
    "longitude": "28.7"
  },
  {
    "country_code": "BY",
    "zipcode": "211184",
    "place": "Грогоровичи",
    "state": "Vitebsk",
    "state_code": "",
    "province": "Lepel",
    "province_code": "",
    "community": "",
    "community_code": "",
    "latitude": "54.8564",
    "longitude": "28.7"
  },
  {
    "country_code": "BY",
    "zipcode": "211185",
    "place": "Старый Лепель",
    "state": "Vitebsk",
    "state_code": "",
    "province": "Lepel",
    "province_code": "",
    "community": "",
    "community_code": "",
    "latitude": "54.8564",
    "longitude": "28.7"
  },
  {
    "country_code": "BY",
    "zipcode": "211186",
    "place": "Слобода",
    "state": "Vitebsk",
    "state_code": "",
    "province": "Lepel",
    "province_code": "",
    "community": "",
    "community_code": "",
    "latitude": "54.857",
    "longitude": "28.9112"
  },
  {
    "country_code": "BY",
    "zipcode": "211187",
    "place": "Барсуки",
    "state": "Vitebsk",
    "state_code": "",
    "province": "Lepel",
    "province_code": "",
    "community": "",
    "community_code": "",
    "latitude": "54.7728",
    "longitude": "28.4767"
  },
  {
    "country_code": "BY",
    "zipcode": "211188",
    "place": "Домжерицы",
    "state": "Vitebsk",
    "state_code": "",
    "province": "Lepel",
    "province_code": "",
    "community": "",
    "community_code": "",
    "latitude": "54.7392",
    "longitude": "28.3168"
  },
  {
    "country_code": "BY",
    "zipcode": "211189",
    "place": "Камень",
    "state": "Vitebsk",
    "state_code": "",
    "province": "Lepel",
    "province_code": "",
    "community": "",
    "community_code": "",
    "latitude": "55.0146",
    "longitude": "28.8835"
  },
  {
    "country_code": "BY",
    "zipcode": "211190",
    "place": "Стаи",
    "state": "Vitebsk",
    "state_code": "",
    "province": "Lepel",
    "province_code": "",
    "community": "",
    "community_code": "",
    "latitude": "55.1984",
    "longitude": "29.1613"
  },
  {
    "country_code": "BY",
    "zipcode": "211191",
    "place": "Заборовье",
    "state": "Vitebsk",
    "state_code": "",
    "province": "Lepel",
    "province_code": "",
    "community": "",
    "community_code": "",
    "latitude": "55.0054",
    "longitude": "28.7475"
  },
  {
    "country_code": "BY",
    "zipcode": "211192",
    "place": "Губино",
    "state": "Vitebsk",
    "state_code": "",
    "province": "Lepel",
    "province_code": "",
    "community": "",
    "community_code": "",
    "latitude": "55.0426",
    "longitude": "28.9534"
  },
  {
    "country_code": "BY",
    "zipcode": "211194",
    "place": "Боровка",
    "state": "Vitebsk",
    "state_code": "",
    "province": "Lepel",
    "province_code": "",
    "community": "",
    "community_code": "",
    "latitude": "55.8115",
    "longitude": "27.944"
  },
  {
    "country_code": "BY",
    "zipcode": "211195",
    "place": "Двор - Бобча",
    "state": "Vitebsk",
    "state_code": "",
    "province": "Lepel",
    "province_code": "",
    "community": "",
    "community_code": "",
    "latitude": "55.2249",
    "longitude": "28.7598"
  },
  {
    "country_code": "BY",
    "zipcode": "211196",
    "place": "Суша",
    "state": "Vitebsk",
    "state_code": "",
    "province": "Lepel",
    "province_code": "",
    "community": "",
    "community_code": "",
    "latitude": "55.0851",
    "longitude": "29.0185"
  },
  {
    "country_code": "BY",
    "zipcode": "211197",
    "place": "Боброво",
    "state": "Vitebsk",
    "state_code": "",
    "province": "Lepel",
    "province_code": "",
    "community": "",
    "community_code": "",
    "latitude": "55.1887",
    "longitude": "28.9521"
  },
  {
    "country_code": "BY",
    "zipcode": "211198",
    "place": "Матырино",
    "state": "Vitebsk",
    "state_code": "",
    "province": "Lepel",
    "province_code": "",
    "community": "",
    "community_code": "",
    "latitude": "55.2423",
    "longitude": "28.542"
  },
  {
    "country_code": "BY",
    "zipcode": "211200",
    "place": "Лиозно",
    "state": "Vitebsk",
    "state_code": "",
    "province": "Liozno",
    "province_code": "",
    "community": "",
    "community_code": "",
    "latitude": "55.0247",
    "longitude": "30.797"
  },
  {
    "country_code": "BY",
    "zipcode": "211201",
    "place": "Черноручье",
    "state": "Vitebsk",
    "state_code": "",
    "province": "Liozno",
    "province_code": "",
    "community": "",
    "community_code": "",
    "latitude": "54.6974",
    "longitude": "30.9575"
  },
  {
    "country_code": "BY",
    "zipcode": "211202",
    "place": "Надежино",
    "state": "Vitebsk",
    "state_code": "",
    "province": "Liozno",
    "province_code": "",
    "community": "",
    "community_code": "",
    "latitude": "55.1512",
    "longitude": "30.9264"
  },
  {
    "country_code": "BY",
    "zipcode": "211203",
    "place": "Зачерня",
    "state": "Vitebsk",
    "state_code": "",
    "province": "Liozno",
    "province_code": "",
    "community": "",
    "community_code": "",
    "latitude": "54.9305",
    "longitude": "30.7883"
  },
  {
    "country_code": "BY",
    "zipcode": "211204",
    "place": "Барсеево",
    "state": "Vitebsk",
    "state_code": "",
    "province": "Liozno",
    "province_code": "",
    "community": "",
    "community_code": "",
    "latitude": "54.8645",
    "longitude": "30.7067"
  },
  {
    "country_code": "BY",
    "zipcode": "211206",
    "place": "Бабиновичи",
    "state": "Vitebsk",
    "state_code": "",
    "province": "Liozno",
    "province_code": "",
    "community": "",
    "community_code": "",
    "latitude": "54.8351",
    "longitude": "30.5725"
  },
  {
    "country_code": "BY",
    "zipcode": "211208",
    "place": "Зубки",
    "state": "Vitebsk",
    "state_code": "",
    "province": "Liozno",
    "province_code": "",
    "community": "",
    "community_code": "",
    "latitude": "55.0102",
    "longitude": "30.7699"
  },
  {
    "country_code": "BY",
    "zipcode": "211210",
    "place": "Стасево",
    "state": "Vitebsk",
    "state_code": "",
    "province": "Liozno",
    "province_code": "",
    "community": "",
    "community_code": "",
    "latitude": "55.092",
    "longitude": "30.643"
  },
  {
    "country_code": "BY",
    "zipcode": "211211",
    "place": "Новое Село",
    "state": "Vitebsk",
    "state_code": "",
    "province": "Liozno",
    "province_code": "",
    "community": "",
    "community_code": "",
    "latitude": "55.0258",
    "longitude": "30.581"
  },
  {
    "country_code": "BY",
    "zipcode": "211212",
    "place": "Крынки",
    "state": "Vitebsk",
    "state_code": "",
    "province": "Liozno",
    "province_code": "",
    "community": "",
    "community_code": "",
    "latitude": "55.0265",
    "longitude": "30.4326"
  },
  {
    "country_code": "BY",
    "zipcode": "211213",
    "place": "Высочаны",
    "state": "Vitebsk",
    "state_code": "",
    "province": "Liozno",
    "province_code": "",
    "community": "",
    "community_code": "",
    "latitude": "54.9786",
    "longitude": "30.4415"
  },
  {
    "country_code": "BY",
    "zipcode": "211214",
    "place": "Великое Село",
    "state": "Vitebsk",
    "state_code": "",
    "province": "Liozno",
    "province_code": "",
    "community": "",
    "community_code": "",
    "latitude": "54.6917",
    "longitude": "29.9805"
  },
  {
    "country_code": "BY",
    "zipcode": "211215",
    "place": "Велешковичи",
    "state": "Vitebsk",
    "state_code": "",
    "province": "Liozno",
    "province_code": "",
    "community": "",
    "community_code": "",
    "latitude": "55.1357",
    "longitude": "30.7791"
  },
  {
    "country_code": "BY",
    "zipcode": "211216",
    "place": "Адаменки",
    "state": "Vitebsk",
    "state_code": "",
    "province": "Liozno",
    "province_code": "",
    "community": "",
    "community_code": "",
    "latitude": "55.042",
    "longitude": "30.788"
  },
  {
    "country_code": "BY",
    "zipcode": "211217",
    "place": "Замшено",
    "state": "Vitebsk",
    "state_code": "",
    "province": "Liozno",
    "province_code": "",
    "community": "",
    "community_code": "",
    "latitude": "55.1466",
    "longitude": "30.833"
  },
  {
    "country_code": "BY",
    "zipcode": "211218",
    "place": "Емельяново",
    "state": "Vitebsk",
    "state_code": "",
    "province": "Liozno",
    "province_code": "",
    "community": "",
    "community_code": "",
    "latitude": "55.1922",
    "longitude": "30.7743"
  },
  {
    "country_code": "BY",
    "zipcode": "211219",
    "place": "Мальково",
    "state": "Vitebsk",
    "state_code": "",
    "province": "Liozno",
    "province_code": "",
    "community": "",
    "community_code": "",
    "latitude": "54.8822",
    "longitude": "30.7413"
  },
  {
    "country_code": "BY",
    "zipcode": "211222",
    "place": "Яськовщина",
    "state": "Vitebsk",
    "state_code": "",
    "province": "Liozno",
    "province_code": "",
    "community": "",
    "community_code": "",
    "latitude": "54.0569",
    "longitude": "30.697"
  },
  {
    "country_code": "BY",
    "zipcode": "211223",
    "place": "Добромысли",
    "state": "Vitebsk",
    "state_code": "",
    "province": "Liozno",
    "province_code": "",
    "community": "",
    "community_code": "",
    "latitude": "54.9309",
    "longitude": "30.6717"
  },
  {
    "country_code": "BY",
    "zipcode": "211224",
    "place": "Осипенки",
    "state": "Vitebsk",
    "state_code": "",
    "province": "Liozno",
    "province_code": "",
    "community": "",
    "community_code": "",
    "latitude": "54.8623",
    "longitude": "30.5567"
  },
  {
    "country_code": "BY",
    "zipcode": "211225",
    "place": "Пушки",
    "state": "Vitebsk",
    "state_code": "",
    "province": "Liozno",
    "province_code": "",
    "community": "",
    "community_code": "",
    "latitude": "54.9818",
    "longitude": "30.8199"
  },
  {
    "country_code": "BY",
    "zipcode": "211226",
    "place": "Михалиново",
    "state": "Vitebsk",
    "state_code": "",
    "province": "Liozno",
    "province_code": "",
    "community": "",
    "community_code": "",
    "latitude": "55.0878",
    "longitude": "30.7893"
  },
  {
    "country_code": "BY",
    "zipcode": "211227",
    "place": "Завидиненты",
    "state": "Grodno",
    "state_code": "",
    "province": "Ostrovets",
    "province_code": "",
    "community": "",
    "community_code": "",
    "latitude": "54.9054",
    "longitude": "30.3871"
  },
  {
    "country_code": "BY",
    "zipcode": "211227",
    "place": "Осипово",
    "state": "Vitebsk",
    "state_code": "",
    "province": "Liozno",
    "province_code": "",
    "community": "",
    "community_code": "",
    "latitude": "54.9054",
    "longitude": "30.3871"
  },
  {
    "country_code": "BY",
    "zipcode": "211228",
    "place": "Ковали",
    "state": "Vitebsk",
    "state_code": "",
    "province": "Liozno",
    "province_code": "",
    "community": "",
    "community_code": "",
    "latitude": "54.8246",
    "longitude": "29.9099"
  },
  {
    "country_code": "BY",
    "zipcode": "211230",
    "place": "Малые Летцы",
    "state": "Vitebsk",
    "state_code": "",
    "province": "Vitebsk",
    "province_code": "",
    "community": "",
    "community_code": "",
    "latitude": "55.051",
    "longitude": "30.1679"
  },
  {
    "country_code": "BY",
    "zipcode": "211232",
    "place": "Замосточье",
    "state": "Vitebsk",
    "state_code": "",
    "province": "Vitebsk",
    "province_code": "",
    "community": "",
    "community_code": "",
    "latitude": "55.0163",
    "longitude": "30.1653"
  },
  {
    "country_code": "BY",
    "zipcode": "211233",
    "place": "Сосновка",
    "state": "Vitebsk",
    "state_code": "",
    "province": "Vitebsk",
    "province_code": "",
    "community": "",
    "community_code": "",
    "latitude": "55.0856",
    "longitude": "30.1706"
  },
  {
    "country_code": "BY",
    "zipcode": "211240",
    "place": "Старое Село",
    "state": "Vitebsk",
    "state_code": "",
    "province": "Vitebsk",
    "province_code": "",
    "community": "",
    "community_code": "",
    "latitude": "55.1792",
    "longitude": "28.5003"
  },
  {
    "country_code": "BY",
    "zipcode": "211250",
    "place": "Язвино",
    "state": "Vitebsk",
    "state_code": "",
    "province": "Choumilino",
    "province_code": "",
    "community": "",
    "community_code": "",
    "latitude": "55.2613",
    "longitude": "29.7491"
  },
  {
    "country_code": "BY",
    "zipcode": "211255",
    "place": "Польковичи",
    "state": "Vitebsk",
    "state_code": "",
    "province": "Choumilino",
    "province_code": "",
    "community": "",
    "community_code": "",
    "latitude": "55.0842",
    "longitude": "29.5168"
  },
  {
    "country_code": "BY",
    "zipcode": "211258",
    "place": "Светлосельская",
    "state": "Vitebsk",
    "state_code": "",
    "province": "Choumilino",
    "province_code": "",
    "community": "",
    "community_code": "",
    "latitude": "55.1728",
    "longitude": "29.633"
  },
  {
    "country_code": "BY",
    "zipcode": "211260",
    "place": "Шумилино",
    "state": "Vitebsk",
    "state_code": "",
    "province": "Choumilino",
    "province_code": "",
    "community": "",
    "community_code": "",
    "latitude": "55.2985",
    "longitude": "29.6121"
  },
  {
    "country_code": "BY",
    "zipcode": "211261",
    "place": "Лесковичи",
    "state": "Vitebsk",
    "state_code": "",
    "province": "Choumilino",
    "province_code": "",
    "community": "",
    "community_code": "",
    "latitude": "55.2489",
    "longitude": "29.6397"
  },
  {
    "country_code": "BY",
    "zipcode": "211262",
    "place": "Амбросовичи",
    "state": "Vitebsk",
    "state_code": "",
    "province": "Choumilino",
    "province_code": "",
    "community": "",
    "community_code": "",
    "latitude": "55.1968",
    "longitude": "29.6515"
  },
  {
    "country_code": "BY",
    "zipcode": "211263",
    "place": "Большие Лежни",
    "state": "Vitebsk",
    "state_code": "",
    "province": "Choumilino",
    "province_code": "",
    "community": "",
    "community_code": "",
    "latitude": "55.2289",
    "longitude": "29.492"
  },
  {
    "country_code": "BY",
    "zipcode": "211264",
    "place": "Добея",
    "state": "Vitebsk",
    "state_code": "",
    "province": "Choumilino",
    "province_code": "",
    "community": "",
    "community_code": "",
    "latitude": "55.2457",
    "longitude": "29.5608"
  },
  {
    "country_code": "BY",
    "zipcode": "211265",
    "place": "Кривое Село",
    "state": "Vitebsk",
    "state_code": "",
    "province": "Choumilino",
    "province_code": "",
    "community": "",
    "community_code": "",
    "latitude": "55.1426",
    "longitude": "29.577"
  },
  {
    "country_code": "BY",
    "zipcode": "211266",
    "place": "Оболь",
    "state": "Vitebsk",
    "state_code": "",
    "province": "Choumilino",
    "province_code": "",
    "community": "",
    "community_code": "",
    "latitude": "55.3552",
    "longitude": "29.2918"
  },
  {
    "country_code": "BY",
    "zipcode": "211267",
    "place": "Леоново",
    "state": "Vitebsk",
    "state_code": "",
    "province": "Choumilino",
    "province_code": "",
    "community": "",
    "community_code": "",
    "latitude": "55.3174",
    "longitude": "29.1976"
  },
  {
    "country_code": "BY",
    "zipcode": "211268",
    "place": "Кордон",
    "state": "Vitebsk",
    "state_code": "",
    "province": "Choumilino",
    "province_code": "",
    "community": "",
    "community_code": "",
    "latitude": "55.2607",
    "longitude": "29.2271"
  },
  {
    "country_code": "BY",
    "zipcode": "211269",
    "place": "Николаево",
    "state": "Vitebsk",
    "state_code": "",
    "province": "Choumilino",
    "province_code": "",
    "community": "",
    "community_code": "",
    "latitude": "55.2394",
    "longitude": "29.2547"
  },
  {
    "country_code": "BY",
    "zipcode": "211270",
    "place": "Слобода",
    "state": "Vitebsk",
    "state_code": "",
    "province": "Choumilino",
    "province_code": "",
    "community": "",
    "community_code": "",
    "latitude": "55.2883",
    "longitude": "29.4286"
  },
  {
    "country_code": "BY",
    "zipcode": "211271",
    "place": "Сиротино",
    "state": "Vitebsk",
    "state_code": "",
    "province": "Choumilino",
    "province_code": "",
    "community": "",
    "community_code": "",
    "latitude": "55.3749",
    "longitude": "29.6253"
  },
  {
    "country_code": "BY",
    "zipcode": "211272",
    "place": "Мишневичи",
    "state": "Vitebsk",
    "state_code": "",
    "province": "Choumilino",
    "province_code": "",
    "community": "",
    "community_code": "",
    "latitude": "55.4403",
    "longitude": "29.599"
  },
  {
    "country_code": "BY",
    "zipcode": "211275",
    "place": "Мишковичи",
    "state": "Vitebsk",
    "state_code": "",
    "province": "Choumilino",
    "province_code": "",
    "community": "",
    "community_code": "",
    "latitude": "55.1869",
    "longitude": "29.3558"
  },
  {
    "country_code": "BY",
    "zipcode": "211276",
    "place": "Победа",
    "state": "Vitebsk",
    "state_code": "",
    "province": "Choumilino",
    "province_code": "",
    "community": "",
    "community_code": "",
    "latitude": "55.2953",
    "longitude": "29.474"
  },
  {
    "country_code": "BY",
    "zipcode": "211277",
    "place": "Грудиново",
    "state": "Vitebsk",
    "state_code": "",
    "province": "Choumilino",
    "province_code": "",
    "community": "",
    "community_code": "",
    "latitude": "55.353",
    "longitude": "29.2155"
  },
  {
    "country_code": "BY",
    "zipcode": "211278",
    "place": "Добрино",
    "state": "Vitebsk",
    "state_code": "",
    "province": "Choumilino",
    "province_code": "",
    "community": "",
    "community_code": "",
    "latitude": "55.3248",
    "longitude": "29.5189"
  },
  {
    "country_code": "BY",
    "zipcode": "211279",
    "place": "Башни",
    "state": "Vitebsk",
    "state_code": "",
    "province": "Choumilino",
    "province_code": "",
    "community": "",
    "community_code": "",
    "latitude": "55.2218",
    "longitude": "29.6712"
  },
  {
    "country_code": "BY",
    "zipcode": "211280",
    "place": "Никитиха",
    "state": "Vitebsk",
    "state_code": "",
    "province": "Choumilino",
    "province_code": "",
    "community": "",
    "community_code": "",
    "latitude": "55.3161",
    "longitude": "29.4391"
  },
  {
    "country_code": "BY",
    "zipcode": "211282",
    "place": "Суравни",
    "state": "Vitebsk",
    "state_code": "",
    "province": "Choumilino",
    "province_code": "",
    "community": "",
    "community_code": "",
    "latitude": "55.5358",
    "longitude": "29.5848"
  },
  {
    "country_code": "BY",
    "zipcode": "211284",
    "place": "Якубовщина",
    "state": "Vitebsk",
    "state_code": "",
    "province": "Miory",
    "province_code": "",
    "community": "",
    "community_code": "",
    "latitude": "55.6412",
    "longitude": "27.7868"
  },
  {
    "country_code": "BY",
    "zipcode": "211285",
    "place": "Слобода",
    "state": "Vitebsk",
    "state_code": "",
    "province": "Miory",
    "province_code": "",
    "community": "",
    "community_code": "",
    "latitude": "55.4619",
    "longitude": "28.8824"
  },
  {
    "country_code": "BY",
    "zipcode": "211286",
    "place": "Язно",
    "state": "Vitebsk",
    "state_code": "",
    "province": "Miory",
    "province_code": "",
    "community": "",
    "community_code": "",
    "latitude": "55.4255",
    "longitude": "28.157"
  },
  {
    "country_code": "BY",
    "zipcode": "211290",
    "place": "Горяны",
    "state": "Vitebsk",
    "state_code": "",
    "province": "Polotsk",
    "province_code": "",
    "community": "",
    "community_code": "",
    "latitude": "55.4209",
    "longitude": "29.0313"
  },
  {
    "country_code": "BY",
    "zipcode": "211292",
    "place": "Быковщина",
    "state": "Vitebsk",
    "state_code": "",
    "province": "Polotsk",
    "province_code": "",
    "community": "",
    "community_code": "",
    "latitude": "55.436",
    "longitude": "28.405"
  },
  {
    "country_code": "BY",
    "zipcode": "211293",
    "place": "Близница",
    "state": "Vitebsk",
    "state_code": "",
    "province": "Polotsk",
    "province_code": "",
    "community": "",
    "community_code": "",
    "latitude": "55.3117",
    "longitude": "28.606"
  },
  {
    "country_code": "BY",
    "zipcode": "211294",
    "place": "Богатырское",
    "state": "Vitebsk",
    "state_code": "",
    "province": "Polotsk",
    "province_code": "",
    "community": "",
    "community_code": "",
    "latitude": "55.3895",
    "longitude": "28.6808"
  },
  {
    "country_code": "BY",
    "zipcode": "211300",
    "place": "Витьба",
    "state": "Vitebsk",
    "state_code": "",
    "province": "Vitebsk",
    "province_code": "",
    "community": "",
    "community_code": "",
    "latitude": "55.2486",
    "longitude": "30.3242"
  },
  {
    "country_code": "BY",
    "zipcode": "211301",
    "place": "Новка",
    "state": "Vitebsk",
    "state_code": "",
    "province": "Vitebsk",
    "province_code": "",
    "community": "",
    "community_code": "",
    "latitude": "55.1352",
    "longitude": "30.1529"
  },
  {
    "country_code": "BY",
    "zipcode": "211302",
    "place": "Васильки",
    "state": "Vitebsk",
    "state_code": "",
    "province": "Vitebsk",
    "province_code": "",
    "community": "",
    "community_code": "",
    "latitude": "55.137",
    "longitude": "29.9744"
  },
  {
    "country_code": "BY",
    "zipcode": "211303",
    "place": "Комары",
    "state": "Vitebsk",
    "state_code": "",
    "province": "Vitebsk",
    "province_code": "",
    "community": "",
    "community_code": "",
    "latitude": "55.1545",
    "longitude": "30.0441"
  },
  {
    "country_code": "BY",
    "zipcode": "211304",
    "place": "Кировская",
    "state": "Vitebsk",
    "state_code": "",
    "province": "Vitebsk",
    "province_code": "",
    "community": "",
    "community_code": "",
    "latitude": "55.2403",
    "longitude": "30.1105"
  },
  {
    "country_code": "BY",
    "zipcode": "211306",
    "place": "Пестуница",
    "state": "Vitebsk",
    "state_code": "",
    "province": "Vitebsk",
    "province_code": "",
    "community": "",
    "community_code": "",
    "latitude": "55.2734",
    "longitude": "29.9826"
  },
  {
    "country_code": "BY",
    "zipcode": "211307",
    "place": "Зароново",
    "state": "Vitebsk",
    "state_code": "",
    "province": "Vitebsk",
    "province_code": "",
    "community": "",
    "community_code": "",
    "latitude": "55.3034",
    "longitude": "29.8871"
  },
  {
    "country_code": "BY",
    "zipcode": "211308",
    "place": "Полудетки",
    "state": "Vitebsk",
    "state_code": "",
    "province": "Vitebsk",
    "province_code": "",
    "community": "",
    "community_code": "",
    "latitude": "55.3184",
    "longitude": "30.4375"
  },
  {
    "country_code": "BY",
    "zipcode": "211309",
    "place": "Должа",
    "state": "Vitebsk",
    "state_code": "",
    "province": "Vitebsk",
    "province_code": "",
    "community": "",
    "community_code": "",
    "latitude": "55.352",
    "longitude": "30.0812"
  },
  {
    "country_code": "BY",
    "zipcode": "211310",
    "place": "Мазолово",
    "state": "Vitebsk",
    "state_code": "",
    "province": "Vitebsk",
    "province_code": "",
    "community": "",
    "community_code": "",
    "latitude": "55.2857",
    "longitude": "30.1469"
  },
  {
    "country_code": "BY",
    "zipcode": "211311",
    "place": "Лужесно",
    "state": "Vitebsk",
    "state_code": "",
    "province": "Vitebsk",
    "province_code": "",
    "community": "",
    "community_code": "",
    "latitude": "55.2548",
    "longitude": "30.1415"
  },
  {
    "country_code": "BY",
    "zipcode": "211312",
    "place": "Руба 2",
    "state": "Vitebsk",
    "state_code": "",
    "province": "Vitebsk",
    "province_code": "",
    "community": "",
    "community_code": "",
    "latitude": "55.2912",
    "longitude": "30.1935"
  },
  {
    "country_code": "BY",
    "zipcode": "211313",
    "place": "Михалково",
    "state": "Vitebsk",
    "state_code": "",
    "province": "Vitebsk",
    "province_code": "",
    "community": "",
    "community_code": "",
    "latitude": "55.3713",
    "longitude": "30.372"
  },
  {
    "country_code": "BY",
    "zipcode": "211314",
    "place": "Курино",
    "state": "Vitebsk",
    "state_code": "",
    "province": "Vitebsk",
    "province_code": "",
    "community": "",
    "community_code": "",
    "latitude": "55.3678",
    "longitude": "30.4279"
  },
  {
    "country_code": "BY",
    "zipcode": "211315",
    "place": "Большие Летцы",
    "state": "Vitebsk",
    "state_code": "",
    "province": "Vitebsk",
    "province_code": "",
    "community": "",
    "community_code": "",
    "latitude": "55.1959",
    "longitude": "29.9696"
  },
  {
    "country_code": "BY",
    "zipcode": "211317",
    "place": "Хайсы",
    "state": "Vitebsk",
    "state_code": "",
    "province": "Vitebsk",
    "province_code": "",
    "community": "",
    "community_code": "",
    "latitude": "55.2718",
    "longitude": "30.1031"
  },
  {
    "country_code": "BY",
    "zipcode": "211318",
    "place": "Сущево",
    "state": "Vitebsk",
    "state_code": "",
    "province": "Vitebsk",
    "province_code": "",
    "community": "",
    "community_code": "",
    "latitude": "55.2912",
    "longitude": "30.1935"
  },
  {
    "country_code": "BY",
    "zipcode": "211319",
    "place": "Октябрьская",
    "state": "Vitebsk",
    "state_code": "",
    "province": "Vitebsk",
    "province_code": "",
    "community": "",
    "community_code": "",
    "latitude": "55.2912",
    "longitude": "30.1935"
  },
  {
    "country_code": "BY",
    "zipcode": "211320",
    "place": "Ольгово",
    "state": "Vitebsk",
    "state_code": "",
    "province": "Vitebsk",
    "province_code": "",
    "community": "",
    "community_code": "",
    "latitude": "55.2284",
    "longitude": "30.2134"
  },
  {
    "country_code": "BY",
    "zipcode": "211321",
    "place": "Руба 1",
    "state": "Vitebsk",
    "state_code": "",
    "province": "Vitebsk",
    "province_code": "",
    "community": "",
    "community_code": "",
    "latitude": "55.2658",
    "longitude": "30.4726"
  },
  {
    "country_code": "BY",
    "zipcode": "211322",
    "place": "Бабиничи",
    "state": "Vitebsk",
    "state_code": "",
    "province": "Vitebsk",
    "province_code": "",
    "community": "",
    "community_code": "",
    "latitude": "55.2609",
    "longitude": "30.3547"
  },
  {
    "country_code": "BY",
    "zipcode": "211323",
    "place": "Жебентяи",
    "state": "Vitebsk",
    "state_code": "",
    "province": "Vitebsk",
    "province_code": "",
    "community": "",
    "community_code": "",
    "latitude": "55.2658",
    "longitude": "30.4726"
  },
  {
    "country_code": "BY",
    "zipcode": "211324",
    "place": "Войтово",
    "state": "Vitebsk",
    "state_code": "",
    "province": "Vitebsk",
    "province_code": "",
    "community": "",
    "community_code": "",
    "latitude": "55.218",
    "longitude": "30.5136"
  },
  {
    "country_code": "BY",
    "zipcode": "211325",
    "place": "Присушино",
    "state": "Vitebsk",
    "state_code": "",
    "province": "Vitebsk",
    "province_code": "",
    "community": "",
    "community_code": "",
    "latitude": "55.3655",
    "longitude": "30.5194"
  },
  {
    "country_code": "BY",
    "zipcode": "211326",
    "place": "Вымно",
    "state": "Vitebsk",
    "state_code": "",
    "province": "Vitebsk",
    "province_code": "",
    "community": "",
    "community_code": "",
    "latitude": "55.258",
    "longitude": "30.606"
  },
  {
    "country_code": "BY",
    "zipcode": "211328",
    "place": "Слобода",
    "state": "Vitebsk",
    "state_code": "",
    "province": "Vitebsk",
    "province_code": "",
    "community": "",
    "community_code": "",
    "latitude": "55.2639",
    "longitude": "30.6285"
  },
  {
    "country_code": "BY",
    "zipcode": "211329",
    "place": "Рябово",
    "state": "Vitebsk",
    "state_code": "",
    "province": "Vitebsk",
    "province_code": "",
    "community": "",
    "community_code": "",
    "latitude": "55.2658",
    "longitude": "30.4726"
  },
  {
    "country_code": "BY",
    "zipcode": "211330",
    "place": "Сураж",
    "state": "Vitebsk",
    "state_code": "",
    "province": "Vitebsk",
    "province_code": "",
    "community": "",
    "community_code": "",
    "latitude": "55.4092",
    "longitude": "30.7246"
  },
  {
    "country_code": "BY",
    "zipcode": "211331",
    "place": "Задубровье",
    "state": "Vitebsk",
    "state_code": "",
    "province": "Vitebsk",
    "province_code": "",
    "community": "",
    "community_code": "",
    "latitude": "55.3513",
    "longitude": "30.6567"
  },
  {
    "country_code": "BY",
    "zipcode": "211332",
    "place": "Яновичи",
    "state": "Vitebsk",
    "state_code": "",
    "province": "Vitebsk",
    "province_code": "",
    "community": "",
    "community_code": "",
    "latitude": "55.2962",
    "longitude": "30.6997"
  },
  {
    "country_code": "BY",
    "zipcode": "211333",
    "place": "Островские",
    "state": "Vitebsk",
    "state_code": "",
    "province": "Vitebsk",
    "province_code": "",
    "community": "",
    "community_code": "",
    "latitude": "55.4249",
    "longitude": "30.7535"
  },
  {
    "country_code": "BY",
    "zipcode": "211335",
    "place": "Новоселки",
    "state": "Vitebsk",
    "state_code": "",
    "province": "Vitebsk",
    "province_code": "",
    "community": "",
    "community_code": "",
    "latitude": "55.5596",
    "longitude": "30.8413"
  },
  {
    "country_code": "BY",
    "zipcode": "211336",
    "place": "Заполье",
    "state": "Vitebsk",
    "state_code": "",
    "province": "Vitebsk",
    "province_code": "",
    "community": "",
    "community_code": "",
    "latitude": "55.5111",
    "longitude": "30.7793"
  },
  {
    "country_code": "BY",
    "zipcode": "211337",
    "place": "Тарасенки",
    "state": "Vitebsk",
    "state_code": "",
    "province": "Vitebsk",
    "province_code": "",
    "community": "",
    "community_code": "",
    "latitude": "55.4393",
    "longitude": "30.7119"
  },
  {
    "country_code": "BY",
    "zipcode": "211338",
    "place": "Шапурово",
    "state": "Vitebsk",
    "state_code": "",
    "province": "Vitebsk",
    "province_code": "",
    "community": "",
    "community_code": "",
    "latitude": "55.385",
    "longitude": "30.756"
  },
  {
    "country_code": "BY",
    "zipcode": "211339",
    "place": "Стайки",
    "state": "Vitebsk",
    "state_code": "",
    "province": "Vitebsk",
    "province_code": "",
    "community": "",
    "community_code": "",
    "latitude": "55.4474",
    "longitude": "30.8584"
  },
  {
    "country_code": "BY",
    "zipcode": "211341",
    "place": "Вороны",
    "state": "Vitebsk",
    "state_code": "",
    "province": "Vitebsk",
    "province_code": "",
    "community": "",
    "community_code": "",
    "latitude": "55.1498",
    "longitude": "30.3958"
  },
  {
    "country_code": "BY",
    "zipcode": "211342",
    "place": "Еремино",
    "state": "Vitebsk",
    "state_code": "",
    "province": "Vitebsk",
    "province_code": "",
    "community": "",
    "community_code": "",
    "latitude": "55.1282",
    "longitude": "30.4655"
  },
  {
    "country_code": "BY",
    "zipcode": "211343",
    "place": "Тулово",
    "state": "Vitebsk",
    "state_code": "",
    "province": "Vitebsk",
    "province_code": "",
    "community": "",
    "community_code": "",
    "latitude": "55.2045",
    "longitude": "30.2965"
  },
  {
    "country_code": "BY",
    "zipcode": "211345",
    "place": "Дыманово",
    "state": "Vitebsk",
    "state_code": "",
    "province": "Vitebsk",
    "province_code": "",
    "community": "",
    "community_code": "",
    "latitude": "55.0897",
    "longitude": "30.2957"
  },
  {
    "country_code": "BY",
    "zipcode": "211346",
    "place": "Большие Копти",
    "state": "Vitebsk",
    "state_code": "",
    "province": "Vitebsk",
    "province_code": "",
    "community": "",
    "community_code": "",
    "latitude": "55.0977",
    "longitude": "30.2697"
  },
  {
    "country_code": "BY",
    "zipcode": "211347",
    "place": "Шапечино",
    "state": "Vitebsk",
    "state_code": "",
    "province": "Vitebsk",
    "province_code": "",
    "community": "",
    "community_code": "",
    "latitude": "54.9905",
    "longitude": "30.3108"
  },
  {
    "country_code": "BY",
    "zipcode": "211348",
    "place": "Осиновка",
    "state": "Vitebsk",
    "state_code": "",
    "province": "Vitebsk",
    "province_code": "",
    "community": "",
    "community_code": "",
    "latitude": "55.0946",
    "longitude": "30.0683"
  },
  {
    "country_code": "BY",
    "zipcode": "211349",
    "place": "Скрыдлево",
    "state": "Vitebsk",
    "state_code": "",
    "province": "Vitebsk",
    "province_code": "",
    "community": "",
    "community_code": "",
    "latitude": "55.0269",
    "longitude": "30.0553"
  },
  {
    "country_code": "BY",
    "zipcode": "211350",
    "place": "Бешенковичи",
    "state": "Vitebsk",
    "state_code": "",
    "province": "Bechenkovitchi",
    "province_code": "",
    "community": "",
    "community_code": "",
    "latitude": "55.0444",
    "longitude": "29.4617"
  },
  {
    "country_code": "BY",
    "zipcode": "211351",
    "place": "Рубеж",
    "state": "Vitebsk",
    "state_code": "",
    "province": "Bechenkovitchi",
    "province_code": "",
    "community": "",
    "community_code": "",
    "latitude": "54.9884",
    "longitude": "29.6096"
  },
  {
    "country_code": "BY",
    "zipcode": "211353",
    "place": "Пальцы",
    "state": "Vitebsk",
    "state_code": "",
    "province": "Bechenkovitchi",
    "province_code": "",
    "community": "",
    "community_code": "",
    "latitude": "54.9933",
    "longitude": "29.4963"
  },
  {
    "country_code": "BY",
    "zipcode": "211354",
    "place": "Верховье",
    "state": "Vitebsk",
    "state_code": "",
    "province": "Bechenkovitchi",
    "province_code": "",
    "community": "",
    "community_code": "",
    "latitude": "54.9659",
    "longitude": "29.3933"
  },
  {
    "country_code": "BY",
    "zipcode": "211356",
    "place": "Будилово",
    "state": "Vitebsk",
    "state_code": "",
    "province": "Bechenkovitchi",
    "province_code": "",
    "community": "",
    "community_code": "",
    "latitude": "55.1104",
    "longitude": "29.7232"
  },
  {
    "country_code": "BY",
    "zipcode": "211357",
    "place": "Верхнее Кривино",
    "state": "Vitebsk",
    "state_code": "",
    "province": "Bechenkovitchi",
    "province_code": "",
    "community": "",
    "community_code": "",
    "latitude": "54.9933",
    "longitude": "29.4963"
  },
  {
    "country_code": "BY",
    "zipcode": "211358",
    "place": "Луг",
    "state": "Vitebsk",
    "state_code": "",
    "province": "Bechenkovitchi",
    "province_code": "",
    "community": "",
    "community_code": "",
    "latitude": "54.924",
    "longitude": "29.3464"
  },
  {
    "country_code": "BY",
    "zipcode": "211359",
    "place": "Дапаны",
    "state": "Vitebsk",
    "state_code": "",
    "province": "Bechenkovitchi",
    "province_code": "",
    "community": "",
    "community_code": "",
    "latitude": "54.9267",
    "longitude": "29.4434"
  },
  {
    "country_code": "BY",
    "zipcode": "211360",
    "place": "Ржавка",
    "state": "Vitebsk",
    "state_code": "",
    "province": "Bechenkovitchi",
    "province_code": "",
    "community": "",
    "community_code": "",
    "latitude": "55.0721",
    "longitude": "29.5831"
  },
  {
    "country_code": "BY",
    "zipcode": "211362",
    "place": "Синицы",
    "state": "Vitebsk",
    "state_code": "",
    "province": "Bechenkovitchi",
    "province_code": "",
    "community": "",
    "community_code": "",
    "latitude": "55.0696",
    "longitude": "29.779"
  },
  {
    "country_code": "BY",
    "zipcode": "211363",
    "place": "Плиса",
    "state": "Vitebsk",
    "state_code": "",
    "province": "Bechenkovitchi",
    "province_code": "",
    "community": "",
    "community_code": "",
    "latitude": "55.0676",
    "longitude": "29.9169"
  },
  {
    "country_code": "BY",
    "zipcode": "211364",
    "place": "Островно",
    "state": "Vitebsk",
    "state_code": "",
    "province": "Bechenkovitchi",
    "province_code": "",
    "community": "",
    "community_code": "",
    "latitude": "55.137",
    "longitude": "29.8596"
  },
  {
    "country_code": "BY",
    "zipcode": "211368",
    "place": "Забелье",
    "state": "Vitebsk",
    "state_code": "",
    "province": "Bechenkovitchi",
    "province_code": "",
    "community": "",
    "community_code": "",
    "latitude": "55.0073",
    "longitude": "29.1132"
  },
  {
    "country_code": "BY",
    "zipcode": "211370",
    "place": "Свеча",
    "state": "Vitebsk",
    "state_code": "",
    "province": "Bechenkovitchi",
    "province_code": "",
    "community": "",
    "community_code": "",
    "latitude": "55.0316",
    "longitude": "29.2803"
  },
  {
    "country_code": "BY",
    "zipcode": "211371",
    "place": "Бочейково",
    "state": "Vitebsk",
    "state_code": "",
    "province": "Bechenkovitchi",
    "province_code": "",
    "community": "",
    "community_code": "",
    "latitude": "55.0185",
    "longitude": "29.1425"
  },
  {
    "country_code": "BY",
    "zipcode": "211372",
    "place": "Двор - Низголово",
    "state": "Vitebsk",
    "state_code": "",
    "province": "Bechenkovitchi",
    "province_code": "",
    "community": "",
    "community_code": "",
    "latitude": "55.0567",
    "longitude": "29.1477"
  },
  {
    "country_code": "BY",
    "zipcode": "211373",
    "place": "Сокорово",
    "state": "Vitebsk",
    "state_code": "",
    "province": "Bechenkovitchi",
    "province_code": "",
    "community": "",
    "community_code": "",
    "latitude": "55.1",
    "longitude": "29.1194"
  },
  {
    "country_code": "BY",
    "zipcode": "211375",
    "place": "Улла",
    "state": "Vitebsk",
    "state_code": "",
    "province": "Bechenkovitchi",
    "province_code": "",
    "community": "",
    "community_code": "",
    "latitude": "55.2252",
    "longitude": "29.252"
  },
  {
    "country_code": "BY",
    "zipcode": "211376",
    "place": "Дрозды",
    "state": "Vitebsk",
    "state_code": "",
    "province": "Bechenkovitchi",
    "province_code": "",
    "community": "",
    "community_code": "",
    "latitude": "55.0675",
    "longitude": "29.4115"
  },
  {
    "country_code": "BY",
    "zipcode": "211377",
    "place": "Стрижево",
    "state": "Vitebsk",
    "state_code": "",
    "province": "Bechenkovitchi",
    "province_code": "",
    "community": "",
    "community_code": "",
    "latitude": "55.082",
    "longitude": "29.2733"
  },
  {
    "country_code": "BY",
    "zipcode": "211378",
    "place": "Чурилово",
    "state": "Vitebsk",
    "state_code": "",
    "province": "Bechenkovitchi",
    "province_code": "",
    "community": "",
    "community_code": "",
    "latitude": "55.071",
    "longitude": "29.1931"
  },
  {
    "country_code": "BY",
    "zipcode": "211379",
    "place": "Камоски",
    "state": "Vitebsk",
    "state_code": "",
    "province": "Bechenkovitchi",
    "province_code": "",
    "community": "",
    "community_code": "",
    "latitude": "55.0816",
    "longitude": "29.2275"
  },
  {
    "country_code": "BY",
    "zipcode": "211400",
    "place": "Полоцк",
    "state": "Vitebsk",
    "state_code": "",
    "province": "Polotsk",
    "province_code": "",
    "community": "",
    "community_code": "",
    "latitude": "55.4879",
    "longitude": "28.7856"
  },
  {
    "country_code": "BY",
    "zipcode": "211417",
    "place": "Заозерье",
    "state": "Vitebsk",
    "state_code": "",
    "province": "Polotsk",
    "province_code": "",
    "community": "",
    "community_code": "",
    "latitude": "55.5178",
    "longitude": "28.862"
  },
  {
    "country_code": "BY",
    "zipcode": "211418",
    "place": "Захарничи",
    "state": "Vitebsk",
    "state_code": "",
    "province": "Polotsk",
    "province_code": "",
    "community": "",
    "community_code": "",
    "latitude": "55.5502",
    "longitude": "28.868"
  },
  {
    "country_code": "BY",
    "zipcode": "211419",
    "place": "Солоники",
    "state": "Vitebsk",
    "state_code": "",
    "province": "Polotsk",
    "province_code": "",
    "community": "",
    "community_code": "",
    "latitude": "55.4854",
    "longitude": "28.8561"
  },
  {
    "country_code": "BY",
    "zipcode": "211420",
    "place": "Карпеки",
    "state": "Vitebsk",
    "state_code": "",
    "province": "Polotsk",
    "province_code": "",
    "community": "",
    "community_code": "",
    "latitude": "55.4525",
    "longitude": "28.9731"
  },
  {
    "country_code": "BY",
    "zipcode": "211421",
    "place": "Матюши",
    "state": "Vitebsk",
    "state_code": "",
    "province": "Polotsk",
    "province_code": "",
    "community": "",
    "community_code": "",
    "latitude": "55.682",
    "longitude": "28.5473"
  },
  {
    "country_code": "BY",
    "zipcode": "211423",
    "place": "Зеленка",
    "state": "Vitebsk",
    "state_code": "",
    "province": "Polotsk",
    "province_code": "",
    "community": "",
    "community_code": "",
    "latitude": "55.6486",
    "longitude": "28.8383"
  },
  {
    "country_code": "BY",
    "zipcode": "211424",
    "place": "Азино",
    "state": "Vitebsk",
    "state_code": "",
    "province": "Polotsk",
    "province_code": "",
    "community": "",
    "community_code": "",
    "latitude": "55.6299",
    "longitude": "28.643"
  },
  {
    "country_code": "BY",
    "zipcode": "211426",
    "place": "Грамощье",
    "state": "Vitebsk",
    "state_code": "",
    "province": "Polotsk",
    "province_code": "",
    "community": "",
    "community_code": "",
    "latitude": "55.5974",
    "longitude": "28.7512"
  },
  {
    "country_code": "BY",
    "zipcode": "211428",
    "place": "Кушлики",
    "state": "Vitebsk",
    "state_code": "",
    "province": "Polotsk",
    "province_code": "",
    "community": "",
    "community_code": "",
    "latitude": "55.5599",
    "longitude": "28.3981"
  },
  {
    "country_code": "BY",
    "zipcode": "211429",
    "place": "Полота",
    "state": "Vitebsk",
    "state_code": "",
    "province": "Polotsk",
    "province_code": "",
    "community": "",
    "community_code": "",
    "latitude": "55.6116",
    "longitude": "29.1072"
  },
  {
    "country_code": "BY",
    "zipcode": "211430",
    "place": "Ветрино 1",
    "state": "Vitebsk",
    "state_code": "",
    "province": "Polotsk",
    "province_code": "",
    "community": "",
    "community_code": "",
    "latitude": "55.3762",
    "longitude": "28.4359"
  },
  {
    "country_code": "BY",
    "zipcode": "211431",
    "place": "Нача",
    "state": "Vitebsk",
    "state_code": "",
    "province": "Polotsk",
    "province_code": "",
    "community": "",
    "community_code": "",
    "latitude": "55.3941",
    "longitude": "28.3493"
  },
  {
    "country_code": "BY",
    "zipcode": "211432",
    "place": "Лесово",
    "state": "Vitebsk",
    "state_code": "",
    "province": "Polotsk",
    "province_code": "",
    "community": "",
    "community_code": "",
    "latitude": "55.3358",
    "longitude": "28.3799"
  },
  {
    "country_code": "BY",
    "zipcode": "211433",
    "place": "Бобыничи",
    "state": "Vitebsk",
    "state_code": "",
    "province": "Polotsk",
    "province_code": "",
    "community": "",
    "community_code": "",
    "latitude": "55.2772",
    "longitude": "28.4103"
  },
  {
    "country_code": "BY",
    "zipcode": "211434",
    "place": "Ветрино",
    "state": "Vitebsk",
    "state_code": "",
    "province": "Polotsk",
    "province_code": "",
    "community": "",
    "community_code": "",
    "latitude": "55.4112",
    "longitude": "28.4673"
  },
  {
    "country_code": "BY",
    "zipcode": "211435",
    "place": "Рудня",
    "state": "Vitebsk",
    "state_code": "",
    "province": "Polotsk",
    "province_code": "",
    "community": "",
    "community_code": "",
    "latitude": "55.4484",
    "longitude": "28.5847"
  },
  {
    "country_code": "BY",
    "zipcode": "211436",
    "place": "Ухвище",
    "state": "Vitebsk",
    "state_code": "",
    "province": "Polotsk",
    "province_code": "",
    "community": "",
    "community_code": "",
    "latitude": "55.2499",
    "longitude": "28.4808"
  },
  {
    "country_code": "BY",
    "zipcode": "211437",
    "place": "Жерносеки",
    "state": "Vitebsk",
    "state_code": "",
    "province": "Polotsk",
    "province_code": "",
    "community": "",
    "community_code": "",
    "latitude": "55.4238",
    "longitude": "28.4784"
  },
  {
    "country_code": "BY",
    "zipcode": "211438",
    "place": "Островщина",
    "state": "Vitebsk",
    "state_code": "",
    "province": "Polotsk",
    "province_code": "",
    "community": "",
    "community_code": "",
    "latitude": "55.3762",
    "longitude": "28.4359"
  },
  {
    "country_code": "BY",
    "zipcode": "211439",
    "place": "Шпаковщина",
    "state": "Vitebsk",
    "state_code": "",
    "province": "Polotsk",
    "province_code": "",
    "community": "",
    "community_code": "",
    "latitude": "55.469",
    "longitude": "28.3362"
  },
  {
    "country_code": "BY",
    "zipcode": "211440",
    "place": "Новополоцк",
    "state": "Vitebsk",
    "state_code": "",
    "province": "Vitebsk",
    "province_code": "",
    "community": "",
    "community_code": "",
    "latitude": "55.5318",
    "longitude": "28.5987"
  },
  {
    "country_code": "BY",
    "zipcode": "211450",
    "place": "Освея",
    "state": "Vitebsk",
    "state_code": "",
    "province": "Verkhnedvinsk",
    "province_code": "",
    "community": "",
    "community_code": "",
    "latitude": "56.0147",
    "longitude": "28.1105"
  },
  {
    "country_code": "BY",
    "zipcode": "211451",
    "place": "Сеньково",
    "state": "Vitebsk",
    "state_code": "",
    "province": "Verkhnedvinsk",
    "province_code": "",
    "community": "",
    "community_code": "",
    "latitude": "55.352",
    "longitude": "29.8166"
  },
  {
    "country_code": "BY",
    "zipcode": "211453",
    "place": "Игналино",
    "state": "Vitebsk",
    "state_code": "",
    "province": "Verkhnedvinsk",
    "province_code": "",
    "community": "",
    "community_code": "",
    "latitude": "56.0753",
    "longitude": "28.2395"
  },
  {
    "country_code": "BY",
    "zipcode": "211454",
    "place": "Чапаевский",
    "state": "Vitebsk",
    "state_code": "",
    "province": "Verkhnedvinsk",
    "province_code": "",
    "community": "",
    "community_code": "",
    "latitude": "55.814",
    "longitude": "28.7222"
  },
  {
    "country_code": "BY",
    "zipcode": "211460",
    "place": "Россоны",
    "state": "Vitebsk",
    "state_code": "",
    "province": "Rossony",
    "province_code": "",
    "community": "",
    "community_code": "",
    "latitude": "55.9058",
    "longitude": "28.8135"
  },
  {
    "country_code": "BY",
    "zipcode": "211461",
    "place": "Селявщина",
    "state": "Vitebsk",
    "state_code": "",
    "province": "Rossony",
    "province_code": "",
    "community": "",
    "community_code": "",
    "latitude": "55.8186",
    "longitude": "28.7972"
  },
  {
    "country_code": "BY",
    "zipcode": "211462",
    "place": "Янковичи",
    "state": "Vitebsk",
    "state_code": "",
    "province": "Rossony",
    "province_code": "",
    "community": "",
    "community_code": "",
    "latitude": "55.7711",
    "longitude": "28.7873"
  },
  {
    "country_code": "BY",
    "zipcode": "211463",
    "place": "Клястицы",
    "state": "Vitebsk",
    "state_code": "",
    "province": "Rossony",
    "province_code": "",
    "community": "",
    "community_code": "",
    "latitude": "55.889",
    "longitude": "28.607"
  },
  {
    "country_code": "BY",
    "zipcode": "211464",
    "place": "Соколище",
    "state": "Vitebsk",
    "state_code": "",
    "province": "Rossony",
    "province_code": "",
    "community": "",
    "community_code": "",
    "latitude": "55.7737",
    "longitude": "28.6039"
  },
  {
    "country_code": "BY",
    "zipcode": "211465",
    "place": "Ковали",
    "state": "Vitebsk",
    "state_code": "",
    "province": "Rossony",
    "province_code": "",
    "community": "",
    "community_code": "",
    "latitude": "55.8402",
    "longitude": "28.5026"
  },
  {
    "country_code": "BY",
    "zipcode": "211467",
    "place": "Юховичи",
    "state": "Vitebsk",
    "state_code": "",
    "province": "Rossony",
    "province_code": "",
    "community": "",
    "community_code": "",
    "latitude": "56.0119",
    "longitude": "28.6467"
  },
  {
    "country_code": "BY",
    "zipcode": "211469",
    "place": "Морочково",
    "state": "Vitebsk",
    "state_code": "",
    "province": "Rossony",
    "province_code": "",
    "community": "",
    "community_code": "",
    "latitude": "55.8693",
    "longitude": "28.3363"
  },
  {
    "country_code": "BY",
    "zipcode": "211470",
    "place": "Бирюзово",
    "state": "Vitebsk",
    "state_code": "",
    "province": "Rossony",
    "province_code": "",
    "community": "",
    "community_code": "",
    "latitude": "55.8821",
    "longitude": "28.8492"
  },
  {
    "country_code": "BY",
    "zipcode": "211472",
    "place": "Дворище",
    "state": "Vitebsk",
    "state_code": "",
    "province": "Rossony",
    "province_code": "",
    "community": "",
    "community_code": "",
    "latitude": "55.9407",
    "longitude": "28.9034"
  },
  {
    "country_code": "BY",
    "zipcode": "211474",
    "place": "Краснополье",
    "state": "Vitebsk",
    "state_code": "",
    "province": "Rossony",
    "province_code": "",
    "community": "",
    "community_code": "",
    "latitude": "55.8135",
    "longitude": "29.2653"
  },
  {
    "country_code": "BY",
    "zipcode": "211475",
    "place": "Заборье",
    "state": "Vitebsk",
    "state_code": "",
    "province": "Rossony",
    "province_code": "",
    "community": "",
    "community_code": "",
    "latitude": "55.8673",
    "longitude": "28.6075"
  },
  {
    "country_code": "BY",
    "zipcode": "211476",
    "place": "Голубово",
    "state": "Vitebsk",
    "state_code": "",
    "province": "Rossony",
    "province_code": "",
    "community": "",
    "community_code": "",
    "latitude": "55.9351",
    "longitude": "29.2024"
  },
  {
    "country_code": "BY",
    "zipcode": "211478",
    "place": "Горбачево",
    "state": "Vitebsk",
    "state_code": "",
    "province": "Rossony",
    "province_code": "",
    "community": "",
    "community_code": "",
    "latitude": "55.9584",
    "longitude": "29.0513"
  },
  {
    "country_code": "BY",
    "zipcode": "211480",
    "place": "Ушачи",
    "state": "Vitebsk",
    "state_code": "",
    "province": "Ouchatchi",
    "province_code": "",
    "community": "",
    "community_code": "",
    "latitude": "55.179",
    "longitude": "28.6158"
  },
  {
    "country_code": "BY",
    "zipcode": "211481",
    "place": "Лесные Озера",
    "state": "Vitebsk",
    "state_code": "",
    "province": "Ouchatchi",
    "province_code": "",
    "community": "",
    "community_code": "",
    "latitude": "55.1307",
    "longitude": "28.4734"
  },
  {
    "country_code": "BY",
    "zipcode": "211482",
    "place": "Жары",
    "state": "Vitebsk",
    "state_code": "",
    "province": "Ouchatchi",
    "province_code": "",
    "community": "",
    "community_code": "",
    "latitude": "55.078",
    "longitude": "28.6608"
  },
  {
    "country_code": "BY",
    "zipcode": "211483",
    "place": "Ильюшино",
    "state": "Vitebsk",
    "state_code": "",
    "province": "Ouchatchi",
    "province_code": "",
    "community": "",
    "community_code": "",
    "latitude": "55.1307",
    "longitude": "28.4734"
  },
  {
    "country_code": "BY",
    "zipcode": "211484",
    "place": "Большие Дольцы",
    "state": "Vitebsk",
    "state_code": "",
    "province": "Ouchatchi",
    "province_code": "",
    "community": "",
    "community_code": "",
    "latitude": "55.1307",
    "longitude": "28.4734"
  },
  {
    "country_code": "BY",
    "zipcode": "211485",
    "place": "Малые Дольцы",
    "state": "Vitebsk",
    "state_code": "",
    "province": "Ouchatchi",
    "province_code": "",
    "community": "",
    "community_code": "",
    "latitude": "54.9867",
    "longitude": "28.386"
  },
  {
    "country_code": "BY",
    "zipcode": "211486",
    "place": "Косари",
    "state": "Vitebsk",
    "state_code": "",
    "province": "Ouchatchi",
    "province_code": "",
    "community": "",
    "community_code": "",
    "latitude": "55.0241",
    "longitude": "28.3124"
  },
  {
    "country_code": "BY",
    "zipcode": "211487",
    "place": "Кубличи",
    "state": "Vitebsk",
    "state_code": "",
    "province": "Ouchatchi",
    "province_code": "",
    "community": "",
    "community_code": "",
    "latitude": "55.1604",
    "longitude": "28.3417"
  },
  {
    "country_code": "BY",
    "zipcode": "211488",
    "place": "Селище",
    "state": "Vitebsk",
    "state_code": "",
    "province": "Ouchatchi",
    "province_code": "",
    "community": "",
    "community_code": "",
    "latitude": "55.1989",
    "longitude": "28.4307"
  },
  {
    "country_code": "BY",
    "zipcode": "211489",
    "place": "Двор - Плино",
    "state": "Vitebsk",
    "state_code": "",
    "province": "Ouchatchi",
    "province_code": "",
    "community": "",
    "community_code": "",
    "latitude": "55.2094",
    "longitude": "28.5198"
  },
  {
    "country_code": "BY",
    "zipcode": "211489",
    "place": "Двор-Плино",
    "state": "Vitebsk",
    "state_code": "",
    "province": "Ouchatchi",
    "province_code": "",
    "community": "",
    "community_code": "",
    "latitude": "55.2094",
    "longitude": "28.5198"
  },
  {
    "country_code": "BY",
    "zipcode": "211490",
    "place": "Лутово",
    "state": "Vitebsk",
    "state_code": "",
    "province": "Ouchatchi",
    "province_code": "",
    "community": "",
    "community_code": "",
    "latitude": "55.21",
    "longitude": "28.6404"
  },
  {
    "country_code": "BY",
    "zipcode": "211491",
    "place": "Сорочино",
    "state": "Vitebsk",
    "state_code": "",
    "province": "Ouchatchi",
    "province_code": "",
    "community": "",
    "community_code": "",
    "latitude": "55.2036",
    "longitude": "28.7529"
  },
  {
    "country_code": "BY",
    "zipcode": "211492",
    "place": "Старое Село",
    "state": "Vitebsk",
    "state_code": "",
    "province": "Ouchatchi",
    "province_code": "",
    "community": "",
    "community_code": "",
    "latitude": "55.1792",
    "longitude": "28.5003"
  },
  {
    "country_code": "BY",
    "zipcode": "211493",
    "place": "Веркуды",
    "state": "Vitebsk",
    "state_code": "",
    "province": "Ouchatchi",
    "province_code": "",
    "community": "",
    "community_code": "",
    "latitude": "55.2058",
    "longitude": "28.9175"
  },
  {
    "country_code": "BY",
    "zipcode": "211495",
    "place": "Дудровка",
    "state": "Vitebsk",
    "state_code": "",
    "province": "Ouchatchi",
    "province_code": "",
    "community": "",
    "community_code": "",
    "latitude": "55.1922",
    "longitude": "28.7504"
  },
  {
    "country_code": "BY",
    "zipcode": "211496",
    "place": "Красное",
    "state": "Vitebsk",
    "state_code": "",
    "province": "Ouchatchi",
    "province_code": "",
    "community": "",
    "community_code": "",
    "latitude": "55.2179",
    "longitude": "28.9903"
  },
  {
    "country_code": "BY",
    "zipcode": "211497",
    "place": "Глыбочка",
    "state": "Vitebsk",
    "state_code": "",
    "province": "Ouchatchi",
    "province_code": "",
    "community": "",
    "community_code": "",
    "latitude": "55.2318",
    "longitude": "28.6475"
  },
  {
    "country_code": "BY",
    "zipcode": "211499",
    "place": "Мосор",
    "state": "Vitebsk",
    "state_code": "",
    "province": "Ouchatchi",
    "province_code": "",
    "community": "",
    "community_code": "",
    "latitude": "55.097",
    "longitude": "28.8041"
  },
  {
    "country_code": "BY",
    "zipcode": "211502",
    "place": "Боровуха",
    "state": "Vitebsk",
    "state_code": "",
    "province": "Novopolotsk",
    "province_code": "",
    "community": "",
    "community_code": "",
    "latitude": "55.2881",
    "longitude": "30.0348"
  },
  {
    "country_code": "BY",
    "zipcode": "211510",
    "place": "Богушевск",
    "state": "Vitebsk",
    "state_code": "",
    "province": "Senno",
    "province_code": "",
    "community": "",
    "community_code": "",
    "latitude": "54.8435",
    "longitude": "30.2081"
  },
  {
    "country_code": "BY",
    "zipcode": "211511",
    "place": "Песочанка",
    "state": "Vitebsk",
    "state_code": "",
    "province": "Senno",
    "province_code": "",
    "community": "",
    "community_code": "",
    "latitude": "54.8932",
    "longitude": "30.2454"
  },
  {
    "country_code": "BY",
    "zipcode": "211512",
    "place": "Заборовье",
    "state": "Vitebsk",
    "state_code": "",
    "province": "Senno",
    "province_code": "",
    "community": "",
    "community_code": "",
    "latitude": "54.7845",
    "longitude": "30.1198"
  },
  {
    "country_code": "BY",
    "zipcode": "211513",
    "place": "Яново",
    "state": "Vitebsk",
    "state_code": "",
    "province": "Senno",
    "province_code": "",
    "community": "",
    "community_code": "",
    "latitude": "54.5737",
    "longitude": "29.7348"
  },
  {
    "country_code": "BY",
    "zipcode": "211514",
    "place": "Лесниково",
    "state": "Vitebsk",
    "state_code": "",
    "province": "Senno",
    "province_code": "",
    "community": "",
    "community_code": "",
    "latitude": "54.7309",
    "longitude": "29.9667"
  },
  {
    "country_code": "BY",
    "zipcode": "211515",
    "place": "Коковчино",
    "state": "Vitebsk",
    "state_code": "",
    "province": "Senno",
    "province_code": "",
    "community": "",
    "community_code": "",
    "latitude": "54.6886",
    "longitude": "30.0861"
  },
  {
    "country_code": "BY",
    "zipcode": "211516",
    "place": "Ледневичи",
    "state": "Vitebsk",
    "state_code": "",
    "province": "Senno",
    "province_code": "",
    "community": "",
    "community_code": "",
    "latitude": "54.7151",
    "longitude": "30.1556"
  },
  {
    "country_code": "BY",
    "zipcode": "211523",
    "place": "Слобода",
    "state": "Vitebsk",
    "state_code": "",
    "province": "Ouchatchi",
    "province_code": "",
    "community": "",
    "community_code": "",
    "latitude": "55.1155",
    "longitude": "28.6491"
  },
  {
    "country_code": "BY",
    "zipcode": "211525",
    "place": "Ореховно",
    "state": "Vitebsk",
    "state_code": "",
    "province": "Ouchatchi",
    "province_code": "",
    "community": "",
    "community_code": "",
    "latitude": "55.2036",
    "longitude": "28.685"
  },
  {
    "country_code": "BY",
    "zipcode": "211540",
    "place": "Городок",
    "state": "Vitebsk",
    "state_code": "",
    "province": "Gorodok",
    "province_code": "",
    "community": "",
    "community_code": "",
    "latitude": "55.1617",
    "longitude": "28.6444"
  },
  {
    "country_code": "BY",
    "zipcode": "211541",
    "place": "Москаленята",
    "state": "Vitebsk",
    "state_code": "",
    "province": "Gorodok",
    "province_code": "",
    "community": "",
    "community_code": "",
    "latitude": "55.4121",
    "longitude": "29.3427"
  },
  {
    "country_code": "BY",
    "zipcode": "211542",
    "place": "Долгополье",
    "state": "Vitebsk",
    "state_code": "",
    "province": "Gorodok",
    "province_code": "",
    "community": "",
    "community_code": "",
    "latitude": "55.4121",
    "longitude": "29.3427"
  },
  {
    "country_code": "BY",
    "zipcode": "211543",
    "place": "Пролетарск",
    "state": "Vitebsk",
    "state_code": "",
    "province": "Gorodok",
    "province_code": "",
    "community": "",
    "community_code": "",
    "latitude": "55.5916",
    "longitude": "29.6514"
  },
  {
    "country_code": "BY",
    "zipcode": "211547",
    "place": "Полешино",
    "state": "Vitebsk",
    "state_code": "",
    "province": "Gorodok",
    "province_code": "",
    "community": "",
    "community_code": "",
    "latitude": "55.483",
    "longitude": "29.7323"
  },
  {
    "country_code": "BY",
    "zipcode": "211549",
    "place": "Прудники",
    "state": "Vitebsk",
    "state_code": "",
    "province": "Gorodok",
    "province_code": "",
    "community": "",
    "community_code": "",
    "latitude": "55.4121",
    "longitude": "29.3427"
  },
  {
    "country_code": "BY",
    "zipcode": "211550",
    "place": "Пальминка",
    "state": "Vitebsk",
    "state_code": "",
    "province": "Gorodok",
    "province_code": "",
    "community": "",
    "community_code": "",
    "latitude": "55.448",
    "longitude": "30.1377"
  },
  {
    "country_code": "BY",
    "zipcode": "211551",
    "place": "Кабище",
    "state": "Vitebsk",
    "state_code": "",
    "province": "Gorodok",
    "province_code": "",
    "community": "",
    "community_code": "",
    "latitude": "55.4278",
    "longitude": "30.2183"
  },