<?xml version="1.0" encoding="UTF-8"?>
<zipcodes>
  <object>
    <country_code>GF</country_code>
    <zipcode>97300</zipcode>
    <place>Cayenne</place>
    <state>Guyane</state>
    <state_code>GF</state_code>
    <province>Guyane</province>
    <province_code>973</province_code>
    <community>Arrondissement de Cayenne</community>
    <community_code>9731</community_code>
    <latitude>4.9333</latitude>
    <longitude>-52.3333</longitude>
  </object>
  <object>
    <country_code>GF</country_code>
    <zipcode>97305 CEDEX</zipcode>
    <place>Cayenne</place>
    <state>Guyane</state>
    <state_code>GF</state_code>
    <province>Guyane</province>
    <province_code>973</province_code>
    <community>Arrondissement de Cayenne</community>
    <community_code>9731</community_code>
    <latitude>4.9333</latitude>
    <longitude>-52.3333</longitude>
  </object>
  <object>
    <country_code>GF</country_code>
    <zipcode>97306 CEDEX</zipcode>
    <place>Cayenne</place>
    <state>Guyane</state>
    <state_code>GF</state_code>
    <province>Guyane</province>
    <province_code>973</province_code>
    <community>Arrondissement de Cayenne</community>
    <community_code>9731</community_code>
    <latitude>4.9333</latitude>
    <longitude>-52.3333</longitude>
  </object>
  <object>
    <country_code>GF</country_code>
    <zipcode>97307 CEDEX</zipcode>
    <place>Cayenne</place>
    <state>Guyane</state>
    <state_code>GF</state_code>
    <province>Guyane</province>
    <province_code>973</province_code>
    <community>Arrondissement de Cayenne</community>
    <community_code>9731</community_code>
    <latitude>4.9333</latitude>
    <longitude>-52.3333</longitude>
  </object>
  <object>
    <country_code>GF</country_code>
    <zipcode>97308 CEDEX</zipcode>
    <place>Cayenne</place>
    <state>Guyane</state>
    <state_code>GF</state_code>
    <province>Guyane</province>
    <province_code>973</province_code>
    <community>Arrondissement de Cayenne</community>
    <community_code>9731</community_code>
    <latitude>4.9333</latitude>
    <longitude>-52.3333</longitude>
  </object>
  <object>
    <country_code>GF</country_code>
    <zipcode>97309 CEDEX</zipcode>
    <place>Cayenne</place>
    <state>Guyane</state>
    <state_code>GF</state_code>
    <province>Guyane</province>
    <province_code>973</province_code>
    <community>Arrondissement de Cayenne</community>
    <community_code>9731</community_code>
    <latitude>4.9333</latitude>
    <longitude>-52.3333</longitude>
  </object>
  <object>
    <country_code>GF</country_code>
    <zipcode>97310</zipcode>
    <place>Kourou</place>
    <state>Guyane</state>
    <state_code>GF</state_code>
    <province>Guyane</province>
    <province_code>973</province_code>
    <community>Arrondissement de Cayenne</community>
    <community_code>9731</community_code>
    <latitude>5.1628</latitude>
    <longitude>-52.6427</longitude>
  </object>
  <object>
    <country_code>GF</country_code>
    <zipcode>97311</zipcode>
    <place>Roura</place>
    <state>Guyane</state>
    <state_code>GF</state_code>
    <province>Guyane</province>
    <province_code>973</province_code>
    <community>Arrondissement de Cayenne</community>
    <community_code>9731</community_code>
    <latitude>4.7252</latitude>
    <longitude>-52.3262</longitude>
  </object>
  <object>
    <country_code>GF</country_code>
    <zipcode>97312</zipcode>
    <place>Saint-Élie</place>
    <state>Guyane</state>
    <state_code>GF</state_code>
    <province>Guyane</province>
    <province_code>973</province_code>
    <community>Arrondissement de Cayenne</community>
    <community_code>9731</community_code>
    <latitude>4.8243</latitude>
    <longitude>-53.2882</longitude>
  </object>
  <object>
    <country_code>GF</country_code>
    <zipcode>97313</zipcode>
    <place>Saint-Georges</place>
    <state>Guyane</state>
    <state_code>GF</state_code>
    <province>Guyane</province>
    <province_code>973</province_code>
    <community>Arrondissement de Cayenne</community>
    <community_code>9731</community_code>
    <latitude>3.9</latitude>
    <longitude>-51.8</longitude>
  </object>
  <object>
    <country_code>GF</country_code>
    <zipcode>97314</zipcode>
    <place>Saül</place>
    <state>Guyane</state>
    <state_code>GF</state_code>
    <province>Guyane</province>
    <province_code>973</province_code>
    <community>Arrondissement de Saint-Laurent-du-Maroni</community>
    <community_code>9732</community_code>
    <latitude>3.6231</latitude>
    <longitude>-53.2092</longitude>
  </object>
  <object>
    <country_code>GF</country_code>
    <zipcode>97315</zipcode>
    <place>Sinnamary</place>
    <state>Guyane</state>
    <state_code>GF</state_code>
    <province>Guyane</province>
    <province_code>973</province_code>
    <community>Arrondissement de Cayenne</community>
    <community_code>9731</community_code>
    <latitude>5.3768</latitude>
    <longitude>-52.9568</longitude>
  </object>
  <object>
    <country_code>GF</country_code>
    <zipcode>97316</zipcode>
    <place>Papaïchton</place>
    <state>Guyane</state>
    <state_code>GF</state_code>
    <province>Guyane</province>
    <province_code>973</province_code>
    <community>Arrondissement de Saint-Laurent-du-Maroni</community>
    <community_code>9732</community_code>
    <latitude>3.8058</latitude>
    <longitude>-54.1446</longitude>
  </object>
  <object>
    <country_code>GF</country_code>
    <zipcode>97317</zipcode>
    <place>Apatou</place>
    <state>Guyane</state>
    <state_code>GF</state_code>
    <province>Guyane</province>
    <province_code>973</province_code>
    <community>Arrondissement de Saint-Laurent-du-Maroni</community>
    <community_code>9732</community_code>
    <latitude>5.1553</latitude>
    <longitude>-54.3431</longitude>
  </object>
  <object>
    <country_code>GF</country_code>
    <zipcode>97318</zipcode>
    <place>Mana</place>
    <state>Guyane</state>
    <state_code>GF</state_code>
    <province>Guyane</province>
    <province_code>973</province_code>
    <community>Arrondissement de Saint-Laurent-du-Maroni</community>
    <community_code>9732</community_code>
    <latitude>5.6677</latitude>
    <longitude>-53.7783</longitude>
  </object>
  <object>
    <country_code>GF</country_code>
    <zipcode>97319</zipcode>
    <place>Awala-Yalimapo</place>
    <state>Guyane</state>
    <state_code>GF</state_code>
    <province>Guyane</province>
    <province_code>973</province_code>
    <community>Arrondissement de Saint-Laurent-du-Maroni</community>
    <community_code>9732</community_code>
    <latitude>5.7364</latitude>
    <longitude>-53.9087</longitude>
  </object>
  <object>
    <country_code>GF</country_code>
    <zipcode>97320</zipcode>
    <place>Saint-Laurent-du-Maroni</place>
    <state>Guyane</state>
    <state_code>GF</state_code>
    <province>Guyane</province>
    <province_code>973</province_code>
    <community>Arrondissement de Saint-Laurent-du-Maroni</community>
    <community_code>9732</community_code>
    <latitude>5.501</latitude>
    <longitude>-54.0294</longitude>
  </object>
  <object>
    <country_code>GF</country_code>
    <zipcode>97321 CEDEX</zipcode>
    <place>Cayenne</place>
    <state>Guyane</state>
    <state_code>GF</state_code>
    <province>Guyane</province>
    <province_code>973</province_code>
    <community>Arrondissement de Cayenne</community>
    <community_code>9731</community_code>
    <latitude>4.9333</latitude>
    <longitude>-52.3333</longitude>
  </object>
  <object>
    <country_code>GF</country_code>
    <zipcode>97322 CEDEX</zipcode>
    <place>Cayenne</place>
    <state>Guyane</state>
    <state_code>GF</state_code>
    <province>Guyane</province>
    <province_code>973</province_code>
    <community>Arrondissement de Cayenne</community>
    <community_code>9731</community_code>
    <latitude>4.9333</latitude>
    <longitude>-52.3333</longitude>
  </object>
  <object>
    <country_code>GF</country_code>
    <zipcode>97323 CEDEX</zipcode>
    <place>Cayenne</place>
    <state>Guyane</state>
    <state_code>GF</state_code>
    <province>Guyane</province>
    <province_code>973</province_code>
    <community>Arrondissement de Cayenne</community>
    <community_code>9731</community_code>
    <latitude>4.9333</latitude>
    <longitude>-52.3333</longitude>
  </object>
  <object>
    <country_code>GF</country_code>
    <zipcode>97324 CEDEX</zipcode>
    <place>Cayenne</place>
    <state>Guyane</state>
    <state_code>GF</state_code>
    <province>Guyane</province>
    <province_code>973</province_code>
    <community>Arrondissement de Cayenne</community>
    <community_code>9731</community_code>
    <latitude>4.9333</latitude>
    <longitude>-52.3333</longitude>
  </object>
  <object>
    <country_code>GF</country_code>
    <zipcode>97325 CEDEX</zipcode>
    <place>Cayenne</place>
    <state>Guyane</state>
    <state_code>GF</state_code>
    <province>Guyane</province>
    <province_code>973</province_code>
    <community>Arrondissement de Cayenne</community>
    <community_code>9731</community_code>
    <latitude>4.9333</latitude>
    <longitude>-52.3333</longitude>
  </object>
  <object>
    <country_code>GF</country_code>
    <zipcode>97326 CEDEX</zipcode>
    <place>Cayenne</place>
    <state>Guyane</state>
    <state_code>GF</state_code>
    <province>Guyane</province>
    <province_code>973</province_code>
    <community>Arrondissement de Cayenne</community>
    <community_code>9731</community_code>
    <latitude>4.9333</latitude>
    <longitude>-52.3333</longitude>
  </object>
  <object>
    <country_code>GF</country_code>
    <zipcode>97327 CEDEX</zipcode>
    <place>Cayenne</place>
    <state>Guyane</state>
    <state_code>GF</state_code>
    <province>Guyane</province>
    <province_code>973</province_code>
    <community>Arrondissement de Cayenne</community>
    <community_code>9731</community_code>
    <latitude>4.9333</latitude>
    <longitude>-52.3333</longitude>
  </object>
  <object>
    <country_code>GF</country_code>
    <zipcode>97328 CEDEX</zipcode>
    <place>Cayenne</place>
    <state>Guyane</state>
    <state_code>GF</state_code>
    <province>Guyane</province>
    <province_code>973</province_code>
    <community>Arrondissement de Cayenne</community>
    <community_code>9731</community_code>
    <latitude>4.9333</latitude>
    <longitude>-52.3333</longitude>
  </object>
  <object>
    <country_code>GF</country_code>
    <zipcode>97329 CEDEX</zipcode>
    <place>Cayenne</place>
    <state>Guyane</state>
    <state_code>GF</state_code>
    <province>Guyane</province>
    <province_code>973</province_code>
    <community>Arrondissement de Cayenne</community>
    <community_code>9731</community_code>
    <latitude>4.9333</latitude>
    <longitude>-52.3333</longitude>
  </object>
  <object>
    <country_code>GF</country_code>
    <zipcode>97330</zipcode>
    <place>Camopi</place>
    <state>Guyane</state>
    <state_code>GF</state_code>
    <province>Guyane</province>
    <province_code>973</province_code>
    <community>Arrondissement de Cayenne</community>
    <community_code>9731</community_code>
    <latitude>3.1689</latitude>
    <longitude>-52.3353</longitude>
  </object>
  <object>
    <country_code>GF</country_code>
    <zipcode>97331 CEDEX</zipcode>
    <place>Cayenne</place>
    <state>Guyane</state>
    <state_code>GF</state_code>
    <province>Guyane</province>
    <province_code>973</province_code>
    <community>Arrondissement de Cayenne</community>
    <community_code>9731</community_code>
    <latitude>4.9333</latitude>
    <longitude>-52.3333</longitude>
  </object>
  <object>
    <country_code>GF</country_code>
    <zipcode>97332 CEDEX</zipcode>
    <place>Cayenne</place>
    <state>Guyane</state>
    <state_code>GF</state_code>
    <province>Guyane</province>
    <province_code>973</province_code>
    <community>Arrondissement de Cayenne</community>
    <community_code>9731</community_code>
    <latitude>4.9333</latitude>
    <longitude>-52.3333</longitude>
  </object>
  <object>
    <country_code>GF</country_code>
    <zipcode>97333 CEDEX</zipcode>
    <place>Cayenne</place>
    <state>Guyane</state>
    <state_code>GF</state_code>
    <province>Guyane</province>
    <province_code>973</province_code>
    <community>Arrondissement de Cayenne</community>
    <community_code>9731</community_code>
    <latitude>4.9333</latitude>
    <longitude>-52.3333</longitude>
  </object>
  <object>
    <country_code>GF</country_code>
    <zipcode>97334 CEDEX</zipcode>
    <place>Cayenne</place>
    <state>Guyane</state>
    <state_code>GF</state_code>
    <province>Guyane</province>
    <province_code>973</province_code>
    <community>Arrondissement de Cayenne</community>
    <community_code>9731</community_code>
    <latitude>4.9333</latitude>
    <longitude>-52.3333</longitude>
  </object>
  <object>
    <country_code>GF</country_code>
    <zipcode>97335 CEDEX</zipcode>
    <place>Cayenne</place>
    <state>Guyane</state>
    <state_code>GF</state_code>
    <province>Guyane</province>
    <province_code>973</province_code>
    <community>Arrondissement de Cayenne</community>
    <community_code>9731</community_code>
    <latitude>4.9333</latitude>
    <longitude>-52.3333</longitude>
  </object>
  <object>
    <country_code>GF</country_code>
    <zipcode>97336 CEDEX</zipcode>
    <place>Cayenne</place>
    <state>Guyane</state>
    <state_code>GF</state_code>
    <province>Guyane</province>
    <province_code>973</province_code>
    <community>Arrondissement de Cayenne</community>
    <community_code>9731</community_code>
    <latitude>4.9333</latitude>
    <longitude>-52.3333</longitude>
  </object>
  <object>
    <country_code>GF</country_code>
    <zipcode>97337 CEDEX</zipcode>
    <place>Cayenne</place>
    <state>Guyane</state>
    <state_code>GF</state_code>
    <province>Guyane</province>
    <province_code>973</province_code>
    <community>Arrondissement de Cayenne</community>
    <community_code>9731</community_code>
    <latitude>4.9333</latitude>
    <longitude>-52.3333</longitude>
  </object>
  <object>
    <country_code>GF</country_code>
    <zipcode>97338 CEDEX</zipcode>
    <place>Cayenne</place>
    <state>Guyane</state>
    <state_code>GF</state_code>
    <province>Guyane</province>
    <province_code>973</province_code>
    <community>Arrondissement de Cayenne</community>
    <community_code>9731</community_code>
    <latitude>4.9333</latitude>
    <longitude>-52.3333</longitude>
  </object>
  <object>
    <country_code>GF</country_code>
    <zipcode>97339 CEDEX</zipcode>
    <place>Cayenne</place>
    <state>Guyane</state>
    <state_code>GF</state_code>
    <province>Guyane</province>
    <province_code>973</province_code>
    <community>Arrondissement de Cayenne</community>
    <community_code>9731</community_code>
    <latitude>4.9333</latitude>
    <longitude>-52.3333</longitude>
  </object>
  <object>
    <country_code>GF</country_code>
    <zipcode>97340</zipcode>
    <place>Grand-Santi</place>
    <state>Guyane</state>
    <state_code>GF</state_code>
    <province>Guyane</province>
    <province_code>973</province_code>
    <community>Arrondissement de Saint-Laurent-du-Maroni</community>
    <community_code>9732</community_code>
    <latitude>4.2729</latitude>
    <longitude>-54.3815</longitude>
  </object>
  <object>
    <country_code>GF</country_code>
    <zipcode>97341 CEDEX</zipcode>
    <place>Cayenne</place>
    <state>Guyane</state>
    <state_code>GF</state_code>
    <province>Guyane</province>
    <province_code>973</province_code>
    <community>Arrondissement de Cayenne</community>
    <community_code>9731</community_code>
    <latitude>4.9333</latitude>
    <longitude>-52.3333</longitude>
  </object>
  <object>
    <country_code>GF</country_code>
    <zipcode>97342 CEDEX</zipcode>
    <place>Cayenne</place>
    <state>Guyane</state>
    <state_code>GF</state_code>
    <province>Guyane</province>
    <province_code>973</province_code>
    <community>Arrondissement de Cayenne</community>
    <community_code>9731</community_code>
    <latitude>4.9333</latitude>
    <longitude>-52.3333</longitude>
  </object>
  <object>
    <country_code>GF</country_code>
    <zipcode>97343 CEDEX</zipcode>
    <place>Cayenne</place>
    <state>Guyane</state>
    <state_code>GF</state_code>
    <province>Guyane</province>
    <province_code>973</province_code>
    <community>Arrondissement de Cayenne</community>
    <community_code>9731</community_code>
    <latitude>4.9333</latitude>
    <longitude>-52.3333</longitude>
  </object>
  <object>
    <country_code>GF</country_code>
    <zipcode>97344 CEDEX</zipcode>
    <place>Cayenne</place>
    <state>Guyane</state>
    <state_code>GF</state_code>
    <province>Guyane</province>
    <province_code>973</province_code>
    <community>Arrondissement de Cayenne</community>
    <community_code>9731</community_code>
    <latitude>4.9333</latitude>
    <longitude>-52.3333</longitude>
  </object>
  <object>
    <country_code>GF</country_code>
    <zipcode>97345 CEDEX</zipcode>
    <place>Cayenne</place>
    <state>Guyane</state>
    <state_code>GF</state_code>
    <province>Guyane</province>
    <province_code>973</province_code>
    <community>Arrondissement de Cayenne</community>
    <community_code>9731</community_code>
    <latitude>4.9333</latitude>
    <longitude>-52.3333</longitude>
  </object>
  <object>
    <country_code>GF</country_code>
    <zipcode>97346 CEDEX</zipcode>
    <place>Cayenne</place>
    <state>Guyane</state>
    <state_code>GF</state_code>
    <province>Guyane</province>
    <province_code>973</province_code>
    <community>Arrondissement de Cayenne</community>
    <community_code>9731</community_code>
    <latitude>4.9333</latitude>
    <longitude>-52.3333</longitude>
  </object>
  <object>
    <country_code>GF</country_code>
    <zipcode>97347 CEDEX</zipcode>
    <place>Cayenne</place>
    <state>Guyane</state>
    <state_code>GF</state_code>
    <province>Guyane</province>
    <province_code>973</province_code>
    <community>Arrondissement de Cayenne</community>
    <community_code>9731</community_code>
    <latitude>4.9333</latitude>
    <longitude>-52.3333</longitude>
  </object>
  <object>
    <country_code>GF</country_code>
    <zipcode>97350</zipcode>
    <place>Iracoubo</place>
    <state>Guyane</state>
    <state_code>GF</state_code>
    <province>Guyane</province>
    <province_code>973</province_code>
    <community>Arrondissement de Cayenne</community>
    <community_code>9731</community_code>
    <latitude>5.4787</latitude>
    <longitude>-53.2052</longitude>
  </object>
  <object>
    <country_code>GF</country_code>
    <zipcode>97351</zipcode>
    <place>Matoury</place>
    <state>Guyane</state>
    <state_code>GF</state_code>
    <province>Guyane</province>
    <province_code>973</province_code>
    <community>Arrondissement de Cayenne</community>
    <community_code>9731</community_code>
    <latitude>4.8487</latitude>
    <longitude>-52.3257</longitude>
  </object>
  <object>
    <country_code>GF</country_code>
    <zipcode>97352</zipcode>
    <place>Roura</place>
    <state>Guyane</state>
    <state_code>GF</state_code>
    <province>Guyane</province>
    <province_code>973</province_code>
    <community>Arrondissement de Cayenne</community>
    <community_code>9731</community_code>
    <latitude>4.7252</latitude>
    <longitude>-52.3262</longitude>
  </object>
  <object>
    <country_code>GF</country_code>
    <zipcode>97353</zipcode>
    <place>Régina</place>
    <state>Guyane</state>
    <state_code>GF</state_code>
    <province>Guyane</province>
    <province_code>973</province_code>
    <community>Arrondissement de Cayenne</community>
    <community_code>9731</community_code>
    <latitude>4.313</latitude>
    <longitude>-52.1308</longitude>
  </object>
  <object>
    <country_code>GF</country_code>
    <zipcode>97354</zipcode>
    <place>Rémire-Montjoly</place>
    <state>Guyane</state>
    <state_code>GF</state_code>
    <province>Guyane</province>
    <province_code>973</province_code>
    <community>Arrondissement de Cayenne</community>
    <community_code>9731</community_code>
    <latitude>4.9167</latitude>
    <longitude>-52.2667</longitude>
  </object>
  <object>
    <country_code>GF</country_code>
    <zipcode>97355</zipcode>
    <place>Macouria</place>
    <state>Guyane</state>
    <state_code>GF</state_code>
    <province>Guyane</province>
    <province_code>973</province_code>
    <community>Arrondissement de Cayenne</community>
    <community_code>9731</community_code>
    <latitude>5.0136</latitude>
    <longitude>-52.4739</longitude>
  </object>
  <object>
    <country_code>GF</country_code>
    <zipcode>97356</zipcode>
    <place>Montsinéry-Tonnegrande</place>
    <state>Guyane</state>
    <state_code>GF</state_code>
    <province>Guyane</province>
    <province_code>973</province_code>
    <community>Arrondissement de Cayenne</community>
    <community_code>9731</community_code>
    <latitude>4.9</latitude>
    <longitude>-52.5</longitude>
  </object>
  <object>
    <country_code>GF</country_code>
    <zipcode>97357 CEDEX</zipcode>
    <place>Matoury</place>
    <state>Guyane</state>
    <state_code>GF</state_code>
    <province>Guyane</province>
    <province_code>973</province_code>
    <community>Arrondissement de Cayenne</community>
    <community_code>9731</community_code>
    <latitude>4.8487</latitude>
    <longitude>-52.3257</longitude>
  </object>
  <object>
    <country_code>GF</country_code>
    <zipcode>97360</zipcode>
    <place>Mana</place>
    <state>Guyane</state>
    <state_code>GF</state_code>
    <province>Guyane</province>
    <province_code>973</province_code>
    <community>Arrondissement de Saint-Laurent-du-Maroni</community>
    <community_code>9732</community_code>
    <latitude>5.6677</latitude>
    <longitude>-53.7783</longitude>
  </object>
  <object>
    <country_code>GF</country_code>
    <zipcode>97370</zipcode>
    <place>Maripasoula</place>
    <state>Guyane</state>
    <state_code>GF</state_code>
    <province>Guyane</province>
    <province_code>973</province_code>
    <community>Arrondissement de Saint-Laurent-du-Maroni</community>
    <community_code>9732</community_code>
    <latitude>3.6416</latitude>
    <longitude>-54.0317</longitude>
  </object>
  <object>
    <country_code>GF</country_code>
    <zipcode>97371 CEDEX</zipcode>
    <place>Kourou</place>
    <state>Guyane</state>
    <state_code>GF</state_code>
    <province>Guyane</province>
    <province_code>973</province_code>
    <community>Arrondissement de Cayenne</community>
    <community_code>9731</community_code>
    <latitude>5.1628</latitude>
    <longitude>-52.6427</longitude>
  </object>
  <object>
    <country_code>GF</country_code>
    <zipcode>97372 CEDEX</zipcode>
    <place>Kourou</place>
    <state>Guyane</state>
    <state_code>GF</state_code>
    <province>Guyane</province>
    <province_code>973</province_code>
    <community>Arrondissement de Cayenne</community>
    <community_code>9731</community_code>
    <latitude>5.1628</latitude>
    <longitude>-52.6427</longitude>
  </object>
  <object>
    <country_code>GF</country_code>
    <zipcode>97373 CEDEX</zipcode>
    <place>Kourou</place>
    <state>Guyane</state>
    <state_code>GF</state_code>
    <province>Guyane</province>
    <province_code>973</province_code>
    <community>Arrondissement de Cayenne</community>
    <community_code>9731</community_code>
    <latitude>5.1628</latitude>
    <longitude>-52.6427</longitude>
  </object>
  <object>
    <country_code>GF</country_code>
    <zipcode>97374 CEDEX</zipcode>
    <place>Kourou</place>
    <state>Guyane</state>
    <state_code>GF</state_code>
    <province>Guyane</province>
    <province_code>973</province_code>
    <community>Arrondissement de Cayenne</community>
    <community_code>9731</community_code>
    <latitude>5.1628</latitude>
    <longitude>-52.6427</longitude>
  </object>
  <object>
    <country_code>GF</country_code>
    <zipcode>97375 CEDEX</zipcode>
    <place>Kourou</place>
    <state>Guyane</state>
    <state_code>GF</state_code>
    <province>Guyane</province>
    <province_code>973</province_code>
    <community>Arrondissement de Cayenne</community>
    <community_code>9731</community_code>
    <latitude>5.1628</latitude>
    <longitude>-52.6427</longitude>
  </object>
  <object>
    <country_code>GF</country_code>
    <zipcode>97376 CEDEX</zipcode>
    <place>Kourou</place>
    <state>Guyane</state>
    <state_code>GF</state_code>
    <province>Guyane</province>
    <province_code>973</province_code>
    <community>Arrondissement de Cayenne</community>
    <community_code>9731</community_code>
    <latitude>5.1628</latitude>
    <longitude>-52.6427</longitude>
  </object>
  <object>
    <country_code>GF</country_code>
    <zipcode>97377 CEDEX</zipcode>
    <place>Kourou</place>
    <state>Guyane</state>
    <state_code>GF</state_code>
    <province>Guyane</province>
    <province_code>973</province_code>
    <community>Arrondissement de Cayenne</community>
    <community_code>9731</community_code>
    <latitude>5.1628</latitude>
    <longitude>-52.6427</longitude>
  </object>
  <object>
    <country_code>GF</country_code>
    <zipcode>97378 CEDEX</zipcode>
    <place>Kourou</place>
    <state>Guyane</state>
    <state_code>GF</state_code>
    <province>Guyane</province>
    <province_code>973</province_code>
    <community>Arrondissement de Cayenne</community>
    <community_code>9731</community_code>
    <latitude>5.1628</latitude>
    <longitude>-52.6427</longitude>
  </object>
  <object>
    <country_code>GF</country_code>
    <zipcode>97379 CEDEX</zipcode>
    <place>Kourou</place>
    <state>Guyane</state>
    <state_code>GF</state_code>
    <province>Guyane</province>
    <province_code>973</province_code>
    <community>Arrondissement de Cayenne</community>
    <community_code>9731</community_code>
    <latitude>5.1628</latitude>
    <longitude>-52.6427</longitude>
  </object>
  <object>
    <country_code>GF</country_code>
    <zipcode>97380</zipcode>
    <place>Ouanary</place>
    <state>Guyane</state>
    <state_code>GF</state_code>
    <province>Guyane</province>
    <province_code>973</province_code>
    <community>Arrondissement de Cayenne</community>
    <community_code>9731</community_code>
    <latitude>4.2087</latitude>
    <longitude>-51.6741</longitude>
  </object>
  <object>
    <country_code>GF</country_code>
    <zipcode>97381 CEDEX</zipcode>
    <place>Kourou</place>
    <state>Guyane</state>
    <state_code>GF</state_code>
    <province>Guyane</province>
    <province_code>973</province_code>
    <community>Arrondissement de Cayenne</community>
    <community_code>9731</community_code>
    <latitude>5.1628</latitude>
    <longitude>-52.6427</longitude>
  </object>
  <object>
    <country_code>GF</country_code>
    <zipcode>97382 CEDEX</zipcode>
    <place>Kourou</place>
    <state>Guyane</state>
    <state_code>GF</state_code>
    <province>Guyane</province>
    <province_code>973</province_code>
    <community>Arrondissement de Cayenne</community>
    <community_code>9731</community_code>
    <latitude>5.1628</latitude>
    <longitude>-52.6427</longitude>
  </object>
  <object>
    <country_code>GF</country_code>
    <zipcode>97383 CEDEX</zipcode>
    <place>Kourou</place>
    <state>Guyane</state>
    <state_code>GF</state_code>
    <province>Guyane</province>
    <province_code>973</province_code>
    <community>Arrondissement de Cayenne</community>
    <community_code>9731</community_code>
    <latitude>5.1628</latitude>
    <longitude>-52.6427</longitude>
  </object>
  <object>
    <country_code>GF</country_code>
    <zipcode>97384 CEDEX</zipcode>
    <place>Kourou</place>
    <state>Guyane</state>
    <state_code>GF</state_code>
    <province>Guyane</province>
    <province_code>973</province_code>
    <community>Arrondissement de Cayenne</community>
    <community_code>9731</community_code>
    <latitude>5.1628</latitude>
    <longitude>-52.6427</longitude>
  </object>
  <object>
    <country_code>GF</country_code>
    <zipcode>97387 CEDEX</zipcode>
    <place>Kourou</place>
    <state>Guyane</state>
    <state_code>GF</state_code>
    <province>Guyane</province>
    <province_code>973</province_code>
    <community>Arrondissement de Cayenne</community>
    <community_code>9731</community_code>
    <latitude>5.1628</latitude>
    <longitude>-52.6427</longitude>
  </object>
  <object>
    <country_code>GF</country_code>
    <zipcode>97388 CEDEX</zipcode>
    <place>Kourou</place>
    <state>Guyane</state>
    <state_code>GF</state_code>
    <province>Guyane</province>
    <province_code>973</province_code>
    <community>Arrondissement de Cayenne</community>
    <community_code>9731</community_code>
    <latitude>5.1628</latitude>
    <longitude>-52.6427</longitude>
  </object>
  <object>
    <country_code>GF</country_code>
    <zipcode>97389 CEDEX</zipcode>
    <place>Kourou</place>
    <state>Guyane</state>
    <state_code>GF</state_code>
    <province>Guyane</province>
    <province_code>973</province_code>
    <community>Arrondissement de Cayenne</community>
    <community_code>9731</community_code>
    <latitude>5.1628</latitude>
    <longitude>-52.6427</longitude>
  </object>
  <object>
    <country_code>GF</country_code>
    <zipcode>97390</zipcode>
    <place>Régina</place>
    <state>Guyane</state>
    <state_code>GF</state_code>
    <province>Guyane</province>
    <province_code>973</province_code>
    <community>Arrondissement de Cayenne</community>
    <community_code>9731</community_code>
    <latitude>4.313</latitude>
    <longitude>-52.1308</longitude>
  </object>
  <object>
    <country_code>GF</country_code>
    <zipcode>97391 CEDEX 2</zipcode>
    <place>Cayenne</place>
    <state>Guyane</state>
    <state_code>GF</state_code>
    <province>Guyane</province>
    <province_code>973</province_code>
    <community>Arrondissement de Cayenne</community>
    <community_code>9731</community_code>
    <latitude>4.9333</latitude>
    <longitude>-52.3333</longitude>
  </object>
  <object>
    <country_code>GF</country_code>
    <zipcode>97392 CEDEX 2</zipcode>
    <place>Cayenne</place>
    <state>Guyane</state>
    <state_code>GF</state_code>
    <province>Guyane</province>
    <province_code>973</province_code>
    <community>Arrondissement de Cayenne</community>
    <community_code>9731</community_code>
    <latitude>4.9333</latitude>
    <longitude>-52.3333</longitude>
  </object>
  <object>
    <country_code>GF</country_code>
    <zipcode>97393 CEDEX</zipcode>
    <place>Saint-Laurent-du-Maroni</place>
    <state>Guyane</state>
    <state_code>GF</state_code>
    <province>Guyane</province>
    <province_code>973</province_code>
    <community>Arrondissement de Saint-Laurent-du-Maroni</community>
    <community_code>9732</community_code>
    <latitude>5.501</latitude>
    <longitude>-54.0294</longitude>
  </object>
  <object>
    <country_code>GF</country_code>
    <zipcode>97394 CEDEX</zipcode>
    <place>Rémire-Montjoly</place>
    <state>Guyane</state>
    <state_code>GF</state_code>
    <province>Guyane</province>
    <province_code>973</province_code>
    <community>Arrondissement de Cayenne</community>
    <community_code>9731</community_code>
    <latitude>4.9167</latitude>
    <longitude>-52.2667</longitude>
  </object>
  <object>
    <country_code>GF</country_code>
    <zipcode>97399 CEDEX</zipcode>
    <place>Cayenne</place>
    <state>Guyane</state>
    <state_code>GF</state_code>
    <province>Guyane</province>
    <province_code>973</province_code>
    <community>Arrondissement de Cayenne</community>
    <community_code>9731</community_code>
    <latitude>4.9333</latitude>
    <longitude>-52.3333</longitude>
  </object>
</zipcodes>
<to_s/>
