[
  {
    "country_code": "CL",
    "zipcode": "2340000",
    "place": "Valparaíso",
    "state": "Región de Valparaíso",
    "state_code": "01",
    "province": "Provincia de Valparaíso",
    "province_code": "51",
    "community": "Valparaíso",
    "community_code": "05101",
    "latitude": "-33.1298",
    "longitude": "-71.5735"
  },
  {
    "country_code": "CL",
    "zipcode": "2480000",
    "place": "Casablanca",
    "state": "Región de Valparaíso",
    "state_code": "01",
    "province": "Provincia de Valparaíso",
    "province_code": "51",
    "community": "Casablanca",
    "community_code": "05102",
    "latitude": "-33.3158",
    "longitude": "-71.4353"
  },
  {
    "country_code": "CL",
    "zipcode": "2490000",
    "place": "Quintero",
    "state": "Región de Valparaíso",
    "state_code": "01",
    "province": "Provincia de Valparaíso",
    "province_code": "51",
    "community": "Quintero",
    "community_code": "05107",
    "latitude": "-32.843",
    "longitude": "-71.4738"
  },
  {
    "country_code": "CL",
    "zipcode": "2500000",
    "place": "Puchuncaví",
    "state": "Región de Valparaíso",
    "state_code": "01",
    "province": "Provincia de Valparaíso",
    "province_code": "51",
    "community": "Puchuncaví",
    "community_code": "05105",
    "latitude": "-32.7176",
    "longitude": "-71.4111"
  },
  {
    "country_code": "CL",
    "zipcode": "2510000",
    "place": "Concón",
    "state": "Región de Valparaíso",
    "state_code": "01",
    "province": "Provincia de Valparaíso",
    "province_code": "51",
    "community": "Concón",
    "community_code": "05103",
    "latitude": "-32.9534",
    "longitude": "-71.4678"
  },
  {
    "country_code": "CL",
    "zipcode": "2520000",
    "place": "Viña Del Mar",
    "state": "Región de Valparaíso",
    "state_code": "01",
    "province": "Provincia de Valparaíso",
    "province_code": "51",
    "community": "Viña Del Mar",
    "community_code": "05109",
    "latitude": "-33.0288",
    "longitude": "-71.5159"
  },
  {
    "country_code": "CL",
    "zipcode": "2600000",
    "place": "Juan Fernández",
    "state": "Región de Valparaíso",
    "state_code": "01",
    "province": "Provincia de Valparaíso",
    "province_code": "51",
    "community": "Juan Fernández",
    "community_code": "05104",
    "latitude": "-33.6387",
    "longitude": "-78.8583"
  },
  {
    "country_code": "CL",
    "zipcode": "2770000",
    "place": "Isla De Pascua",
    "state": "Región de Valparaíso",
    "state_code": "01",
    "province": "Provincia de Isla de Pascua",
    "province_code": "52",
    "community": "Isla De Pascua",
    "community_code": "05201",
    "latitude": "-27.1288",
    "longitude": "-109.36"
  },
  {
    "country_code": "CL",
    "zipcode": "2100000",
    "place": "Los Andes",
    "state": "Región de Valparaíso",
    "state_code": "01",
    "province": "Provincia de Los Andes",
    "province_code": "53",
    "community": "Los Andes",
    "community_code": "05301",
    "latitude": "-32.9503",
    "longitude": "-70.2398"
  },
  {
    "country_code": "CL",
    "zipcode": "2120000",
    "place": "San Esteban",
    "state": "Región de Valparaíso",
    "state_code": "01",
    "province": "Provincia de Los Andes",
    "province_code": "53",
    "community": "San Esteban",
    "community_code": "05304",
    "latitude": "-32.6859",
    "longitude": "-70.3484"
  },
  {
    "country_code": "CL",
    "zipcode": "2130000",
    "place": "Calle Larga",
    "state": "Región de Valparaíso",
    "state_code": "01",
    "province": "Provincia de Los Andes",
    "province_code": "53",
    "community": "Calle Larga",
    "community_code": "05302",
    "latitude": "-32.9504",
    "longitude": "-70.545"
  },
  {
    "country_code": "CL",
    "zipcode": "2140000",
    "place": "Rinconada",
    "state": "Región de Valparaíso",
    "state_code": "01",
    "province": "Provincia de Los Andes",
    "province_code": "53",
    "community": "Rinconada",
    "community_code": "05303",
    "latitude": "-32.876",
    "longitude": "-70.7068"
  },
  {
    "country_code": "CL",
    "zipcode": "2030000",
    "place": "La Ligua",
    "state": "Región de Valparaíso",
    "state_code": "01",
    "province": "Petorca Province",
    "province_code": "54",
    "community": "La Ligua",
    "community_code": "05401",
    "latitude": "-32.3537",
    "longitude": "-71.2721"
  },
  {
    "country_code": "CL",
    "zipcode": "2040000",
    "place": "Petorca",
    "state": "Región de Valparaíso",
    "state_code": "01",
    "province": "Petorca Province",
    "province_code": "54",
    "community": "Petorca",
    "community_code": "05404",
    "latitude": "-32.1903",
    "longitude": "-70.8704"
  },
  {
    "country_code": "CL",
    "zipcode": "2050000",
    "place": "Cabildo",
    "state": "Región de Valparaíso",
    "state_code": "01",
    "province": "Petorca Province",
    "province_code": "54",
    "community": "Cabildo",
    "community_code": "05402",
    "latitude": "-32.4174",
    "longitude": "-70.8243"
  },
  {
    "country_code": "CL",
    "zipcode": "2060000",
    "place": "Zapallar",
    "state": "Región de Valparaíso",
    "state_code": "01",
    "province": "Petorca Province",
    "province_code": "54",
    "community": "Zapallar",
    "community_code": "05405",
    "latitude": "-32.5549",
    "longitude": "-71.4547"
  },
  {
    "country_code": "CL",
    "zipcode": "2070000",
    "place": "Papudo",
    "state": "Región de Valparaíso",
    "state_code": "01",
    "province": "Petorca Province",
    "province_code": "54",
    "community": "Papudo",
    "community_code": "05403",
    "latitude": "-32.5075",
    "longitude": "-71.4431"
  },
  {
    "country_code": "CL",
    "zipcode": "2260000",
    "place": "Quillota",
    "state": "Región de Valparaíso",
    "state_code": "01",
    "province": "Provincia de Quillota",
    "province_code": "55",
    "community": "Quillota",
    "community_code": "05501",
    "latitude": "-32.9046",
    "longitude": "-71.273"
  },
  {
    "country_code": "CL",
    "zipcode": "2280000",
    "place": "La Cruz",
    "state": "Región de Valparaíso",
    "state_code": "01",
    "province": "Provincia de Quillota",
    "province_code": "55",
    "community": "La Cruz",
    "community_code": "05504",
    "latitude": "-32.8251",
    "longitude": "-71.2413"
  },
  {
    "country_code": "CL",
    "zipcode": "2290000",
    "place": "Calera",
    "state": "Región de Valparaíso",
    "state_code": "01",
    "province": "Provincia de Quillota",
    "province_code": "55",
    "community": "Calera",
    "community_code": "05502",
    "latitude": "-32.8077",
    "longitude": "-71.1881"
  },
  {
    "country_code": "CL",
    "zipcode": "2300000",
    "place": "Nogales",
    "state": "Región de Valparaíso",
    "state_code": "01",
    "province": "Provincia de Quillota",
    "province_code": "55",
    "community": "Nogales",
    "community_code": "05506",
    "latitude": "-32.6915",
    "longitude": "-71.1768"
  },
  {
    "country_code": "CL",
    "zipcode": "2310000",
    "place": "Hijuelas",
    "state": "Región de Valparaíso",
    "state_code": "01",
    "province": "Provincia de Quillota",
    "province_code": "55",
    "community": "Hijuelas",
    "community_code": "05503",
    "latitude": "-32.8693",
    "longitude": "-71.0816"
  },
  {
    "country_code": "CL",
    "zipcode": "2660000",
    "place": "San Antonio",
    "state": "Región de Valparaíso",
    "state_code": "01",
    "province": "San Antonio Province",
    "province_code": "56",
    "community": "San Antonio",
    "community_code": "05601",
    "latitude": "-33.571",
    "longitude": "-71.6096"
  },
  {
    "country_code": "CL",
    "zipcode": "2680000",
    "place": "Cartagena",
    "state": "Región de Valparaíso",
    "state_code": "01",
    "province": "San Antonio Province",
    "province_code": "56",
    "community": "Cartagena",
    "community_code": "05603",
    "latitude": "-33.5338",
    "longitude": "-71.4424"
  },
  {
    "country_code": "CL",
    "zipcode": "2690000",
    "place": "El Tabo",
    "state": "Región de Valparaíso",
    "state_code": "01",
    "province": "San Antonio Province",
    "province_code": "56",
    "community": "El Tabo",
    "community_code": "05605",
    "latitude": "-33.4586",
    "longitude": "-71.6619"
  },
  {
    "country_code": "CL",
    "zipcode": "2700000",
    "place": "El Quisco",
    "state": "Región de Valparaíso",
    "state_code": "01",
    "province": "San Antonio Province",
    "province_code": "56",
    "community": "El Quisco",
    "community_code": "05604",
    "latitude": "-33.4161",
    "longitude": "-71.6512"
  },
  {
    "country_code": "CL",
    "zipcode": "2710000",
    "place": "Algarrobo",
    "state": "Región de Valparaíso",
    "state_code": "01",
    "province": "San Antonio Province",
    "province_code": "56",
    "community": "Algarrobo",
    "community_code": "05602",
    "latitude": "-33.33",
    "longitude": "-71.6005"
  },
  {
    "country_code": "CL",
    "zipcode": "2720000",
    "place": "Santo Domingo",
    "state": "Región de Valparaíso",
    "state_code": "01",
    "province": "San Antonio Province",
    "province_code": "56",
    "community": "Santo Domingo",
    "community_code": "05606",
    "latitude": "-33.8093",
    "longitude": "-71.6766"
  },
  {
    "country_code": "CL",
    "zipcode": "2170000",
    "place": "San Felipe",
    "state": "Región de Valparaíso",
    "state_code": "01",
    "province": "Provincia de San Felipe de Aconcagua",
    "province_code": "57",
    "community": "San Felipe",
    "community_code": "05701",
    "latitude": "-32.7364",
    "longitude": "-70.7537"
  },
  {
    "country_code": "CL",
    "zipcode": "2190000",
    "place": "Putaendo",
    "state": "Región de Valparaíso",
    "state_code": "01",
    "province": "Provincia de San Felipe de Aconcagua",
    "province_code": "57",
    "community": "Putaendo",
    "community_code": "05705",
    "latitude": "-32.4808",
    "longitude": "-70.5214"
  },
  {
    "country_code": "CL",
    "zipcode": "2200000",
    "place": "Santa María",
    "state": "Región de Valparaíso",
    "state_code": "01",
    "province": "Provincia de San Felipe de Aconcagua",
    "province_code": "57",
    "community": "Santa María",
    "community_code": "05706",
    "latitude": "-32.6855",
    "longitude": "-70.6103"
  },
  {
    "country_code": "CL",
    "zipcode": "2210000",
    "place": "Panquehue",
    "state": "Región de Valparaíso",
    "state_code": "01",
    "province": "Provincia de San Felipe de Aconcagua",
    "province_code": "57",
    "community": "Panquehue",
    "community_code": "05704",
    "latitude": "-32.7938",
    "longitude": "-70.829"
  },
  {
    "country_code": "CL",
    "zipcode": "2220000",
    "place": "Llaillay",
    "state": "Región de Valparaíso",
    "state_code": "01",
    "province": "Provincia de San Felipe de Aconcagua",
    "province_code": "57",
    "community": "Llaillay",
    "community_code": "05703",
    "latitude": "-32.8879",
    "longitude": "-70.9024"
  },
  {
    "country_code": "CL",
    "zipcode": "2230000",
    "place": "Catemu",
    "state": "Región de Valparaíso",
    "state_code": "01",
    "province": "Provincia de San Felipe de Aconcagua",
    "province_code": "57",
    "community": "Catemu",
    "community_code": "05702",
    "latitude": "-32.7073",
    "longitude": "-70.9452"
  },
  {
    "country_code": "CL",
    "zipcode": "2240000",
    "place": "Limache",
    "state": "Región de Valparaíso",
    "state_code": "01",
    "province": "Provincia de Marga Marga",
    "province_code": "58",
    "community": "Limache",
    "community_code": "05802",
    "latitude": "-33.0309",
    "longitude": "-71.2793"
  },
  {
    "country_code": "CL",
    "zipcode": "2330000",
    "place": "Olmué",
    "state": "Región de Valparaíso",
    "state_code": "01",
    "province": "Provincia de Marga Marga",
    "province_code": "58",
    "community": "Olmué",
    "community_code": "05803",
    "latitude": "-33.0358",
    "longitude": "-71.1107"
  },
  {
    "country_code": "CL",
    "zipcode": "2430000",
    "place": "Quilpue",
    "state": "Región de Valparaíso",
    "state_code": "01",
    "province": "Provincia de Marga Marga",
    "province_code": "58",
    "community": "Quilpue",
    "community_code": "05801",
    "latitude": "-33.1473",
    "longitude": "-71.2543"
  },
  {
    "country_code": "CL",
    "zipcode": "6500000",
    "place": "Villa Alemana",
    "state": "Región de Valparaíso",
    "state_code": "01",
    "province": "Provincia de Marga Marga",
    "province_code": "58",
    "community": "Villa Alemana",
    "community_code": "05804",
    "latitude": "-33.0679",
    "longitude": "-71.3305"
  },
  {
    "country_code": "CL",
    "zipcode": "5950000",
    "place": "Coyhaique",
    "state": "Región Aysén",
    "state_code": "02",
    "province": "Provincia de Coyhaique",
    "province_code": "111",
    "community": "Coyhaique",
    "community_code": "11101",
    "latitude": "-45.5539",
    "longitude": "-71.9913"
  },
  {
    "country_code": "CL",
    "zipcode": "5960000",
    "place": "Lago Verde",
    "state": "Región Aysén",
    "state_code": "02",
    "province": "Provincia de Coyhaique",
    "province_code": "111",
    "community": "Lago Verde",
    "community_code": "11102",
    "latitude": "-44.4923",
    "longitude": "-71.8323"
  },
  {
    "country_code": "CL",
    "zipcode": "6000000",
    "place": "Aysén",
    "state": "Región Aysén",
    "state_code": "02",
    "province": "Provincia de Aisén",
    "province_code": "112",
    "community": "Aysén",
    "community_code": "11201",
    "latitude": "-45.9887",
    "longitude": "-73.7735"
  },
  {
    "country_code": "CL",
    "zipcode": "6010000",
    "place": "Cisnes",
    "state": "Región Aysén",
    "state_code": "02",
    "province": "Provincia de Aisén",
    "province_code": "112",
    "community": "Cisnes",
    "community_code": "11202",
    "latitude": "-44.4577",
    "longitude": "-73.1374"
  },
  {
    "country_code": "CL",
    "zipcode": "6020000",
    "place": "Guaitecas",
    "state": "Región Aysén",
    "state_code": "02",
    "province": "Provincia de Aisén",
    "province_code": "112",
    "community": "Guaitecas",
    "community_code": "11203",
    "latitude": "-43.8665",
    "longitude": "-74.0516"
  },
  {
    "country_code": "CL",
    "zipcode": "6100000",
    "place": "Cochrane",
    "state": "Región Aysén",
    "state_code": "02",
    "province": "Provincia Capitán Prat",
    "province_code": "113",
    "community": "Cochrane",
    "community_code": "11301",
    "latitude": "-47.3601",
    "longitude": "-72.7418"
  },
  {
    "country_code": "CL",
    "zipcode": "6110000",
    "place": "O’Higgins",
    "state": "Región Aysén",
    "state_code": "02",
    "province": "Provincia Capitán Prat",
    "province_code": "113",
    "community": "O’Higgins",
    "community_code": "11302",
    "latitude": "-48.4862",
    "longitude": "-72.9106"
  },
  {
    "country_code": "CL",
    "zipcode": "6120000",
    "place": "Tortel",
    "state": "Región Aysén",
    "state_code": "02",
    "province": "Provincia Capitán Prat",
    "province_code": "113",
    "community": "Tortel",
    "community_code": "11303",
    "latitude": "-48.0271",
    "longitude": "-74.1592"
  },
  {
    "country_code": "CL",
    "zipcode": "6050000",
    "place": "Chile Chico",
    "state": "Región Aysén",
    "state_code": "02",
    "province": "Provincia General Carrera",
    "province_code": "114",
    "community": "Chile Chico",
    "community_code": "11401",
    "latitude": "-46.7668",
    "longitude": "-72.5847"
  },
  {
    "country_code": "CL",
    "zipcode": "6060000",
    "place": "Río Ibanez",
    "state": "Región Aysén",
    "state_code": "02",
    "province": "Provincia General Carrera",
    "province_code": "114",
    "community": "Río Ibanez",
    "community_code": "11402",
    "latitude": "-46.2993",
    "longitude": "-72.4866"
  },
  {
    "country_code": "CL",
    "zipcode": "1240000",
    "place": "Antofagasta",
    "state": "Región de Antofagasta",
    "state_code": "03",
    "province": "Provincia de Antofagasta",
    "province_code": "21",
    "community": "Antofagasta",
    "community_code": "02101",
    "latitude": "-24.2739",
    "longitude": "-69.4097"
  },
  {
    "country_code": "CL",
    "zipcode": "1300000",
    "place": "Taltal",
    "state": "Región de Antofagasta",
    "state_code": "03",
    "province": "Provincia de Antofagasta",
    "province_code": "21",
    "community": "Taltal",
    "community_code": "02104",
    "latitude": "-25.3136",
    "longitude": "-69.8657"
  },
  {
    "country_code": "CL",
    "zipcode": "1310000",
    "place": "Mejillones",
    "state": "Región de Antofagasta",
    "state_code": "03",
    "province": "Provincia de Antofagasta",
    "province_code": "21",
    "community": "Mejillones",
    "community_code": "02102",
    "latitude": "-22.936",
    "longitude": "-70.1986"
  },
  {
    "country_code": "CL",
    "zipcode": "1320000",
    "place": "Sierra Gorda",
    "state": "Región de Antofagasta",
    "state_code": "03",
    "province": "Provincia de Antofagasta",
    "province_code": "21",
    "community": "Sierra Gorda",
    "community_code": "02103",
    "latitude": "-23.2542",
    "longitude": "-69.3072"
  },
  {
    "country_code": "CL",
    "zipcode": "1390000",
    "place": "Calama",
    "state": "Región de Antofagasta",
    "state_code": "03",
    "province": "Provincia de El Loa",
    "province_code": "22",
    "community": "Calama",
    "community_code": "02201",
    "latitude": "-22.1639",
    "longitude": "-68.6295"
  },
  {
    "country_code": "CL",
    "zipcode": "1410000",
    "place": "San Pedro De Atacama",
    "state": "Región de Antofagasta",
    "state_code": "03",
    "province": "Provincia de El Loa",
    "province_code": "22",
    "community": "San Pedro De Atacama",
    "community_code": "02203",
    "latitude": "-23.4011",
    "longitude": "-67.9111"
  },
  {
    "country_code": "CL",
    "zipcode": "1420000",
    "place": "Ollague",
    "state": "Región de Antofagasta",
    "state_code": "03",
    "province": "Provincia de El Loa",
    "province_code": "22",
    "community": "Ollague",
    "community_code": "02202",
    "latitude": "-21.4566",
    "longitude": "-68.3134"
  },
  {
    "country_code": "CL",
    "zipcode": "1340000",
    "place": "Tocopilla",
    "state": "Región de Antofagasta",
    "state_code": "03",
    "province": "Provincia de Tocopilla",
    "province_code": "23",
    "community": "Tocopilla",
    "community_code": "02301",
    "latitude": "-22.002",
    "longitude": "-70.0146"
  },
  {
    "country_code": "CL",
    "zipcode": "1360000",
    "place": "María Elena",
    "state": "Región de Antofagasta",
    "state_code": "03",
    "province": "Provincia de Tocopilla",
    "province_code": "23",
    "community": "María Elena",
    "community_code": "02302",
    "latitude": "-22.0904",
    "longitude": "-69.4613"
  },
  {
    "country_code": "CL",
    "zipcode": "4780000",
    "place": "Temuco",
    "state": "Región de la Araucanía",
    "state_code": "04",
    "province": "Provincia de Cautín",
    "province_code": "91",
    "community": "Temuco",
    "community_code": "09101",
    "latitude": "-38.6731",
    "longitude": "-72.6633"
  },
  {
    "country_code": "CL",
    "zipcode": "4850000",
    "place": "Padre Las Casas",
    "state": "Región de la Araucanía",
    "state_code": "04",
    "province": "Provincia de Cautín",
    "province_code": "91",
    "community": "Padre Las Casas",
    "community_code": "09112",
    "latitude": "-38.792",
    "longitude": "-72.5792"
  },
  {
    "country_code": "CL",
    "zipcode": "4860000",
    "place": "Lautaro",
    "state": "Región de la Araucanía",
    "state_code": "04",
    "province": "Provincia de Cautín",
    "province_code": "91",
    "community": "Lautaro",
    "community_code": "09108",
    "latitude": "-38.5432",
    "longitude": "-72.2894"
  },
  {
    "country_code": "CL",
    "zipcode": "4870000",
    "place": "Perquenco",
    "state": "Región de la Araucanía",
    "state_code": "04",
    "province": "Provincia de Cautín",
    "province_code": "91",
    "community": "Perquenco",
    "community_code": "09113",
    "latitude": "-38.4283",
    "longitude": "-72.4365"
  },
  {
    "country_code": "CL",
    "zipcode": "4880000",
    "place": "Vilcún",
    "state": "Región de la Araucanía",
    "state_code": "04",
    "province": "Provincia de Cautín",
    "province_code": "91",
    "community": "Vilcún",
    "community_code": "09119",
    "latitude": "-38.7047",
    "longitude": "-72.1136"
  },
  {
    "country_code": "CL",
    "zipcode": "4890000",
    "place": "Cunco",
    "state": "Región de la Araucanía",
    "state_code": "04",
    "province": "Provincia de Cautín",
    "province_code": "91",
    "community": "Cunco",
    "community_code": "09103",
    "latitude": "-38.977",
    "longitude": "-71.9917"
  },
  {
    "country_code": "CL",
    "zipcode": "4900000",
    "place": "Melipeuco",
    "state": "Región de la Araucanía",
    "state_code": "04",
    "province": "Provincia de Cautín",
    "province_code": "91",
    "community": "Melipeuco",
    "community_code": "09110",
    "latitude": "-38.8248",
    "longitude": "-71.611"
  },
  {
    "country_code": "CL",
    "zipcode": "4910000",
    "place": "Curarrehue",
    "state": "Región de la Araucanía",
    "state_code": "04",
    "province": "Provincia de Cautín",
    "province_code": "91",
    "community": "Curarrehue",
    "community_code": "09104",
    "latitude": "-39.3358",
    "longitude": "-71.5393"
  },
  {
    "country_code": "CL",
    "zipcode": "4920000",
    "place": "Pucón",
    "state": "Región de la Araucanía",
    "state_code": "04",
    "province": "Provincia de Cautín",
    "province_code": "91",
    "community": "Pucón",
    "community_code": "09115",
    "latitude": "-39.2702",
    "longitude": "-71.7905"
  },
  {
    "country_code": "CL",
    "zipcode": "4930000",
    "place": "Villarrica",
    "state": "Región de la Araucanía",
    "state_code": "04",
    "province": "Provincia de Cautín",
    "province_code": "91",
    "community": "Villarrica",
    "community_code": "09120",
    "latitude": "-39.3009",
    "longitude": "-72.1822"
  },
  {
    "country_code": "CL",
    "zipcode": "4940000",
    "place": "Freire",
    "state": "Región de la Araucanía",
    "state_code": "04",
    "province": "Provincia de Cautín",
    "province_code": "91",
    "community": "Freire",
    "community_code": "09105",
    "latitude": "-38.9496",
    "longitude": "-72.5758"
  },
  {
    "country_code": "CL",
    "zipcode": "4950000",
    "place": "Pitrufquén",
    "state": "Región de la Araucanía",
    "state_code": "04",
    "province": "Provincia de Cautín",
    "province_code": "91",
    "community": "Pitrufquén",
    "community_code": "09114",
    "latitude": "-39.105",
    "longitude": "-72.9019"
  },
  {
    "country_code": "CL",
    "zipcode": "4960000",
    "place": "Gorbea",
    "state": "Región de la Araucanía",
    "state_code": "04",
    "province": "Provincia de Cautín",
    "province_code": "91",
    "community": "Gorbea",
    "community_code": "09107",
    "latitude": "-39.1717",
    "longitude": "-72.6692"
  },
  {
    "country_code": "CL",
    "zipcode": "4970000",
    "place": "Loncoche",
    "state": "Región de la Araucanía",
    "state_code": "04",
    "province": "Provincia de Cautín",
    "province_code": "91",
    "community": "Loncoche",
    "community_code": "09109",
    "latitude": "-39.3561",
    "longitude": "-72.5825"
  },
  {
    "country_code": "CL",
    "zipcode": "4980000",
    "place": "Toltén",
    "state": "Región de la Araucanía",
    "state_code": "04",
    "province": "Provincia de Cautín",
    "province_code": "91",
    "community": "Toltén",
    "community_code": "09118",
    "latitude": "-39.2121",
    "longitude": "-73.0784"
  },
  {
    "country_code": "CL",
    "zipcode": "4990000",
    "place": "Teodoro Schmidt",
    "state": "Región de la Araucanía",
    "state_code": "04",
    "province": "Provincia de Cautín",
    "province_code": "91",
    "community": "Teodoro Schmidt",
    "community_code": "09117",
    "latitude": "-38.9848",
    "longitude": "-73.1147"
  },
  {
    "country_code": "CL",
    "zipcode": "5000000",
    "place": "Saavedra",
    "state": "Región de la Araucanía",
    "state_code": "04",
    "province": "Provincia de Cautín",
    "province_code": "91",
    "community": "Saavedra",
    "community_code": "09116",
    "latitude": "-38.8325",
    "longitude": "-73.2955"
  },
  {
    "country_code": "CL",
    "zipcode": "5010000",
    "place": "Carahue",
    "state": "Región de la Araucanía",
    "state_code": "04",
    "province": "Provincia de Cautín",
    "province_code": "91",
    "community": "Carahue",
    "community_code": "09102",
    "latitude": "-38.6109",
    "longitude": "-73.2698"
  },
  {
    "country_code": "CL",
    "zipcode": "5020000",
    "place": "Nueva Imperial",
    "state": "Región de la Araucanía",
    "state_code": "04",
    "province": "Provincia de Cautín",
    "province_code": "91",
    "community": "Nueva Imperial",
    "community_code": "09111",
    "latitude": "-38.7509",
    "longitude": "-72.9725"
  },
  {
    "country_code": "CL",
    "zipcode": "5030000",
    "place": "Galvarino",
    "state": "Región de la Araucanía",
    "state_code": "04",
    "province": "Provincia de Cautín",
    "province_code": "91",
    "community": "Galvarino",
    "community_code": "09106",
    "latitude": "-38.4479",
    "longitude": "-72.7912"
  },
  {
    "country_code": "CL",
    "zipcode": "5040000",
    "place": "Chol Chol",
    "state": "Región de la Araucanía",
    "state_code": "04",
    "province": "Provincia de Cautín",
    "province_code": "91",
    "community": "Chol Chol",
    "community_code": "09121",
    "latitude": "-38.5832",
    "longitude": "-72.9019"
  },
  {
    "country_code": "CL",
    "zipcode": "4650000",
    "place": "Angol",
    "state": "Región de la Araucanía",
    "state_code": "04",
    "province": "Provincia de Malleco",
    "province_code": "92",
    "community": "Angol",
    "community_code": "09201",
    "latitude": "-37.769",
    "longitude": "-72.7954"
  },
  {
    "country_code": "CL",
    "zipcode": "4670000",
    "place": "Renaico",
    "state": "Región de la Araucanía",
    "state_code": "04",
    "province": "Provincia de Malleco",
    "province_code": "92",
    "community": "Renaico",
    "community_code": "09209",
    "latitude": "-37.7178",
    "longitude": "-72.5757"
  },
  {
    "country_code": "CL",
    "zipcode": "4680000",
    "place": "Collipulli",
    "state": "Región de la Araucanía",
    "state_code": "04",
    "province": "Provincia de Malleco",
    "province_code": "92",
    "community": "Collipulli",
    "community_code": "09202",
    "latitude": "-38.0318",
    "longitude": "-72.1152"
  },
  {
    "country_code": "CL",
    "zipcode": "4690000",
    "place": "Lonquimay",
    "state": "Región de la Araucanía",
    "state_code": "04",
    "province": "Provincia de Malleco",
    "province_code": "92",
    "community": "Lonquimay",
    "community_code": "09205",
    "latitude": "-38.4747",
    "longitude": "-71.2392"
  },
  {
    "country_code": "CL",
    "zipcode": "4700000",
    "place": "Curacautín",
    "state": "Región de la Araucanía",
    "state_code": "04",
    "province": "Provincia de Malleco",
    "province_code": "92",
    "community": "Curacautín",
    "community_code": "09203",
    "latitude": "-38.4326",
    "longitude": "-71.7711"
  },
  {
    "country_code": "CL",
    "zipcode": "4710000",
    "place": "Ercilla",
    "state": "Región de la Araucanía",
    "state_code": "04",
    "province": "Provincia de Malleco",
    "province_code": "92",
    "community": "Ercilla",
    "community_code": "09204",
    "latitude": "-38.0828",
    "longitude": "-72.3535"
  },
  {
    "country_code": "CL",
    "zipcode": "4720000",
    "place": "Victoria",
    "state": "Región de la Araucanía",
    "state_code": "04",
    "province": "Provincia de Malleco",
    "province_code": "92",
    "community": "Victoria",
    "community_code": "09211",
    "latitude": "-38.2805",
    "longitude": "-72.234"
  },
  {
    "country_code": "CL",
    "zipcode": "4730000",
    "place": "Traiguén",
    "state": "Región de la Araucanía",
    "state_code": "04",
    "province": "Provincia de Malleco",
    "province_code": "92",
    "community": "Traiguén",
    "community_code": "09210",
    "latitude": "-38.2471",
    "longitude": "-72.6551"
  },
  {
    "country_code": "CL",
    "zipcode": "4740000",
    "place": "Lumaco",
    "state": "Región de la Araucanía",
    "state_code": "04",
    "province": "Provincia de Malleco",
    "province_code": "92",
    "community": "Lumaco",
    "community_code": "09207",
    "latitude": "-38.2871",
    "longitude": "-73.0459"
  },
  {
    "country_code": "CL",
    "zipcode": "4750000",
    "place": "Purén",
    "state": "Región de la Araucanía",
    "state_code": "04",
    "province": "Provincia de Malleco",
    "province_code": "92",
    "community": "Purén",
    "community_code": "09208",
    "latitude": "-38.0121",
    "longitude": "-73.0504"
  },
  {
    "country_code": "CL",
    "zipcode": "4760000",
    "place": "Los Sauces",
    "state": "Región de la Araucanía",
    "state_code": "04",
    "province": "Provincia de Malleco",
    "province_code": "92",
    "community": "Los Sauces",
    "community_code": "09206",
    "latitude": "-37.9831",
    "longitude": "-72.7968"
  },
  {
    "country_code": "CL",
    "zipcode": "1530000",
    "place": "Copiapó",
    "state": "Región de Atacama",
    "state_code": "05",
    "province": "Provincia de Copiapó",
    "province_code": "31",
    "community": "Copiapó",
    "community_code": "03101",
    "latitude": "-27.3202",
    "longitude": "-69.8277"
  },
  {
    "country_code": "CL",
    "zipcode": "1570000",
    "place": "Caldera",
    "state": "Región de Atacama",
    "state_code": "05",
    "province": "Provincia de Copiapó",
    "province_code": "31",
    "community": "Caldera",
    "community_code": "03102",
    "latitude": "-27.1423",
    "longitude": "-70.6837"
  },
  {
    "country_code": "CL",
    "zipcode": "1580000",
    "place": "Tierra Amarilla",
    "state": "Región de Atacama",
    "state_code": "05",
    "province": "Provincia de Copiapó",
    "province_code": "31",
    "community": "Tierra Amarilla",
    "community_code": "03103",
    "latitude": "-27.8657",
    "longitude": "-69.672"
  },
  {
    "country_code": "CL",
    "zipcode": "1490000",
    "place": "Chañaral",
    "state": "Región de Atacama",
    "state_code": "05",
    "province": "Provincia de Chañaral",
    "province_code": "32",
    "community": "Chañaral",
    "community_code": "03201",
    "latitude": "-26.3737",
    "longitude": "-70.3383"
  },
  {
    "country_code": "CL",
    "zipcode": "1500000",
    "place": "Diego De Almagro",
    "state": "Región de Atacama",
    "state_code": "05",
    "province": "Provincia de Chañaral",
    "province_code": "32",
    "community": "Diego De Almagro",
    "community_code": "03202",
    "latitude": "-26.2373",
    "longitude": "-69.1873"
  },
  {
    "country_code": "CL",
    "zipcode": "1610000",
    "place": "Vallenar",
    "state": "Región de Atacama",
    "state_code": "05",
    "province": "Provincia de Huasco",
    "province_code": "33",
    "community": "Vallenar",
    "community_code": "03301",
    "latitude": "-28.5948",
    "longitude": "-70.6025"
  },
  {
    "country_code": "CL",
    "zipcode": "1630000",
    "place": "Freirina",
    "state": "Región de Atacama",
    "state_code": "05",
    "province": "Provincia de Huasco",
    "province_code": "33",
    "community": "Freirina",
    "community_code": "03303",
    "latitude": "-28.8442",
    "longitude": "-71.1954"
  },
  {
    "country_code": "CL",
    "zipcode": "1640000",
    "place": "Huasco",
    "state": "Región de Atacama",
    "state_code": "05",
    "province": "Provincia de Huasco",
    "province_code": "33",
    "community": "Huasco",
    "community_code": "03304",
    "latitude": "-28.2584",
    "longitude": "-71.0178"
  },
  {
    "country_code": "CL",
    "zipcode": "1650000",
    "place": "Alto Del Carmen",
    "state": "Región de Atacama",
    "state_code": "05",
    "province": "Provincia de Huasco",
    "province_code": "33",
    "community": "Alto Del Carmen",
    "community_code": "03302",
    "latitude": "-28.9936",
    "longitude": "-70.153"
  },
  {
    "country_code": "CL",
    "zipcode": "4030000",
    "place": "Concepción",
    "state": "Región del Biobío",
    "state_code": "06",
    "province": "Provincia de Concepción",
    "province_code": "81",
    "community": "Concepción",
    "community_code": "08101",
    "latitude": "-36.82",
    "longitude": "-73.0445"
  },
  {
    "country_code": "CL",
    "zipcode": "4100000",
    "place": "Chiguayante",
    "state": "Región del Biobío",
    "state_code": "06",
    "province": "Provincia de Concepción",
    "province_code": "81",
    "community": "Chiguayante",
    "community_code": "08103",
    "latitude": "-36.9008",
    "longitude": "-73.005"
  },
  {
    "country_code": "CL",
    "zipcode": "4130000",
    "place": "San Pedro De La Paz",
    "state": "Región del Biobío",
    "state_code": "06",
    "province": "Provincia de Concepción",
    "province_code": "81",
    "community": "San Pedro De La Paz",
    "community_code": "08108",
    "latitude": "-36.8408",
    "longitude": "-73.1031"
  },
  {
    "country_code": "CL",
    "zipcode": "4150000",
    "place": "Penco",
    "state": "Región del Biobío",
    "state_code": "06",
    "province": "Provincia de Concepción",
    "province_code": "81",
    "community": "Penco",
    "community_code": "08107",
    "latitude": "-36.7484",
    "longitude": "-72.9437"
  },
  {
    "country_code": "CL",
    "zipcode": "4160000",
    "place": "Tomé",
    "state": "Región del Biobío",
    "state_code": "06",
    "province": "Provincia de Concepción",
    "province_code": "81",
    "community": "Tomé",
    "community_code": "08111",
    "latitude": "-36.6171",
    "longitude": "-72.858"
  },
  {
    "country_code": "CL",
    "zipcode": "4170000",
    "place": "Florida",
    "state": "Región del Biobío",
    "state_code": "06",
    "province": "Provincia de Concepción",
    "province_code": "81",
    "community": "Florida",
    "community_code": "08104",
    "latitude": "-36.8224",
    "longitude": "-72.7177"
  },
  {
    "country_code": "CL",
    "zipcode": "4180000",
    "place": "Hualqui",
    "state": "Región del Biobío",
    "state_code": "06",
    "province": "Provincia de Concepción",
    "province_code": "81",
    "community": "Hualqui",
    "community_code": "08105",
    "latitude": "-37.0447",
    "longitude": "-72.8704"
  },
  {
    "country_code": "CL",
    "zipcode": "4190000",
    "place": "Coronel",
    "state": "Región del Biobío",
    "state_code": "06",
    "province": "Provincia de Concepción",
    "province_code": "81",
    "community": "Coronel",
    "community_code": "08102",
    "latitude": "-37.007",
    "longitude": "-73.1252"
  },
  {
    "country_code": "CL",
    "zipcode": "4210000",
    "place": "Lota",
    "state": "Región del Biobío",
    "state_code": "06",
    "province": "Provincia de Concepción",
    "province_code": "81",
    "community": "Lota",
    "community_code": "08106",
    "latitude": "-37.1195",
    "longitude": "-73.1049"
  },
  {
    "country_code": "CL",
    "zipcode": "4230000",
    "place": "Santa Juana",
    "state": "Región del Biobío",
    "state_code": "06",
    "province": "Provincia de Concepción",
    "province_code": "81",
    "community": "Santa Juana",
    "community_code": "08109",
    "latitude": "-37.2764",
    "longitude": "-72.9598"
  },
  {
    "country_code": "CL",
    "zipcode": "4260000",
    "place": "Talcahuano",
    "state": "Región del Biobío",
    "state_code": "06",
    "province": "Provincia de Concepción",
    "province_code": "81",
    "community": "Talcahuano",
    "community_code": "08110",
    "latitude": "-36.7434",
    "longitude": "-73.0982"
  },
  {
    "country_code": "CL",
    "zipcode": "4600000",
    "place": "Hualpén",
    "state": "Región del Biobío",
    "state_code": "06",
    "province": "Provincia de Concepción",
    "province_code": "81",
    "community": "Hualpén",
    "community_code": "08112",
    "latitude": "-36.7869",
    "longitude": "-73.1052"
  },
  {
    "country_code": "CL",
    "zipcode": "4350000",
    "place": "Lebu",
    "state": "Región del Biobío",
    "state_code": "06",
    "province": "Provincia de Arauco",
    "province_code": "82",
    "community": "Lebu",
    "community_code": "08201",
    "latitude": "-37.6778",
    "longitude": "-73.5906"
  },
  {
    "country_code": "CL",
    "zipcode": "4360000",
    "place": "Arauco",
    "state": "Región del Biobío",
    "state_code": "06",
    "province": "Provincia de Arauco",
    "province_code": "82",
    "community": "Arauco",
    "community_code": "08202",
    "latitude": "-37.2886",
    "longitude": "-73.3994"
  },
  {
    "country_code": "CL",
    "zipcode": "4370000",
    "place": "Curanilahue",
    "state": "Región del Biobío",
    "state_code": "06",
    "province": "Provincia de Arauco",
    "province_code": "82",
    "community": "Curanilahue",
    "community_code": "08205",
    "latitude": "-37.483",
    "longitude": "-73.2351"
  },
  {
    "country_code": "CL",
    "zipcode": "4380000",
    "place": "Los Alamos",
    "state": "Región del Biobío",
    "state_code": "06",
    "province": "Provincia de Arauco",
    "province_code": "82",
    "community": "Los Alamos",
    "community_code": "08206",
    "latitude": "-37.6736",
    "longitude": "-73.3569"
  },
  {
    "country_code": "CL",
    "zipcode": "4390000",
    "place": "Canete",
    "state": "Región del Biobío",
    "state_code": "06",
    "province": "Provincia de Arauco",
    "province_code": "82",
    "community": "Canete",
    "community_code": "08203",
    "latitude": "-37.8741",
    "longitude": "-73.3177"
  },
  {
    "country_code": "CL",
    "zipcode": "4400000",
    "place": "Contulmo",
    "state": "Región del Biobío",
    "state_code": "06",
    "province": "Provincia de Arauco",
    "province_code": "82",
    "community": "Contulmo",
    "community_code": "08204",
    "latitude": "-38.0527",
    "longitude": "-73.2124"
  },
  {
    "country_code": "CL",
    "zipcode": "4410000",
    "place": "Tirua",
    "state": "Región del Biobío",
    "state_code": "06",
    "province": "Provincia de Arauco",
    "province_code": "82",
    "community": "Tirua",
    "community_code": "08207",
    "latitude": "-38.2975",
    "longitude": "-73.3957"
  },
  {
    "country_code": "CL",
    "zipcode": "4440000",
    "place": "Los Angeles",
    "state": "Región del Biobío",
    "state_code": "06",
    "province": "Provincia de Biobío",
    "province_code": "83",
    "community": "Los Angeles",
    "community_code": "08301",
    "latitude": "-37.4079",
    "longitude": "-72.3277"
  },
  {
    "country_code": "CL",
    "zipcode": "4470000",
    "place": "Cabrero",
    "state": "Región del Biobío",
    "state_code": "06",
    "province": "Provincia de Biobío",
    "province_code": "83",
    "community": "Cabrero",
    "community_code": "08303",
    "latitude": "-37.0621",
    "longitude": "-72.3814"
  },
  {
    "country_code": "CL",
    "zipcode": "4480000",
    "place": "Tucapel",
    "state": "Región del Biobío",
    "state_code": "06",
    "province": "Provincia de Biobío",
    "province_code": "83",
    "community": "Tucapel",
    "community_code": "08312",
    "latitude": "-37.2253",
    "longitude": "-71.7455"
  },
  {
    "country_code": "CL",
    "zipcode": "4490000",
    "place": "Antuco",
    "state": "Región del Biobío",
    "state_code": "06",
    "province": "Provincia de Biobío",
    "province_code": "83",
    "community": "Antuco",
    "community_code": "08302",
    "latitude": "-37.3277",
    "longitude": "-71.3666"
  },
  {
    "country_code": "CL",
    "zipcode": "4500000",
    "place": "Quilleco",
    "state": "Región del Biobío",
    "state_code": "06",
    "province": "Provincia de Biobío",
    "province_code": "83",
    "community": "Quilleco",
    "community_code": "08309",
    "latitude": "-37.4368",
    "longitude": "-71.8614"
  },
  {
    "country_code": "CL",
    "zipcode": "4510000",
    "place": "Santa Bárbara",
    "state": "Región del Biobío",
    "state_code": "06",
    "province": "Provincia de Biobío",
    "province_code": "83",
    "community": "Santa Bárbara",
    "community_code": "08311",
    "latitude": "-37.623",
    "longitude": "-71.7492"
  },
  {
    "country_code": "CL",
    "zipcode": "4520000",
    "place": "Quilaco",
    "state": "Región del Biobío",
    "state_code": "06",
    "province": "Provincia de Biobío",
    "province_code": "83",
    "community": "Quilaco",
    "community_code": "08308",
    "latitude": "-37.982",
    "longitude": "-71.5973"
  },
  {
    "country_code": "CL",
    "zipcode": "4530000",
    "place": "Mulchén",
    "state": "Región del Biobío",
    "state_code": "06",
    "province": "Provincia de Biobío",
    "province_code": "83",
    "community": "Mulchén",
    "community_code": "08305",
    "latitude": "-37.8384",
    "longitude": "-72.0972"
  },
  {
    "country_code": "CL",
    "zipcode": "4540000",
    "place": "Negrete",
    "state": "Región del Biobío",
    "state_code": "06",
    "province": "Provincia de Biobío",
    "province_code": "83",
    "community": "Negrete",
    "community_code": "08307",
    "latitude": "-37.6083",
    "longitude": "-72.5766"
  },
  {
    "country_code": "CL",
    "zipcode": "4550000",
    "place": "Nacimiento",
    "state": "Región del Biobío",
    "state_code": "06",
    "province": "Provincia de Biobío",
    "province_code": "83",
    "community": "Nacimiento",
    "community_code": "08306",
    "latitude": "-37.4856",
    "longitude": "-72.8236"
  },
  {
    "country_code": "CL",
    "zipcode": "4560000",
    "place": "Laja",
    "state": "Región del Biobío",
    "state_code": "06",
    "province": "Provincia de Biobío",
    "province_code": "83",
    "community": "Laja",
    "community_code": "08304",
    "latitude": "-37.3125",
    "longitude": "-72.5825"
  },
  {
    "country_code": "CL",
    "zipcode": "4570000",
    "place": "San Rosendo",
    "state": "Región del Biobío",
    "state_code": "06",
    "province": "Provincia de Biobío",
    "province_code": "83",
    "community": "San Rosendo",
    "community_code": "08310",
    "latitude": "-37.213",
    "longitude": "-72.7211"
  },
  {
    "country_code": "CL",
    "zipcode": "4580000",
    "place": "Yumbel",
    "state": "Región del Biobío",
    "state_code": "06",
    "province": "Provincia de Biobío",
    "province_code": "83",
    "community": "Yumbel",
    "community_code": "08313",
    "latitude": "-37.0884",
    "longitude": "-72.616"
  },
  {
    "country_code": "CL",
    "zipcode": "4590000",
    "place": "Alto Biobío",
    "state": "Región del Biobío",
    "state_code": "06",
    "province": "Provincia de Biobío",
    "province_code": "83",
    "community": "Alto Biobío",
    "community_code": "08314",
    "latitude": "-37.8654",
    "longitude": "-71.3474"
  },
  {
    "country_code": "CL",
    "zipcode": "3780000",
    "place": "Chillán",
    "state": "Región del Biobío",
    "state_code": "06",
    "province": "Provincia de Ñuble",
    "province_code": "84",
    "community": "Chillán",
    "community_code": "08401",
    "latitude": "-36.6288",
    "longitude": "-72.0496"
  },
  {
    "country_code": "CL",
    "zipcode": "3820000",
    "place": "Chillán Viejo",
    "state": "Región del Biobío",
    "state_code": "06",
    "province": "Provincia de Ñuble",
    "province_code": "84",
    "community": "Chillán Viejo",
    "community_code": "08406",
    "latitude": "-36.6803",
    "longitude": "-72.199"
  },
  {
    "country_code": "CL",
    "zipcode": "3840000",
    "place": "San Carlos",
    "state": "Región del Biobío",
    "state_code": "06",
    "province": "Provincia de Ñuble",
    "province_code": "84",
    "community": "San Carlos",
    "community_code": "08416",
    "latitude": "-36.3856",
    "longitude": "-72.0186"
  },
  {
    "country_code": "CL",
    "zipcode": "3850000",
    "place": "Niquén",
    "state": "Región del Biobío",
    "state_code": "06",
    "province": "Provincia de Ñuble",
    "province_code": "84",
    "community": "Niquén",
    "community_code": "08409",
    "latitude": "-36.3024",
    "longitude": "-71.8974"
  },
  {
    "country_code": "CL",
    "zipcode": "3860000",
    "place": "San Fabián",
    "state": "Región del Biobío",
    "state_code": "06",
    "province": "Provincia de Ñuble",
    "province_code": "84",
    "community": "San Fabián",
    "community_code": "08417",
    "latitude": "-36.5799",
    "longitude": "-71.2874"
  },
  {
    "country_code": "CL",
    "zipcode": "3870000",
    "place": "Coihueco",
    "state": "Región del Biobío",
    "state_code": "06",
    "province": "Provincia de Ñuble",
    "province_code": "84",
    "community": "Coihueco",
    "community_code": "08405",
    "latitude": "-36.7021",
    "longitude": "-71.5811"
  },
  {
    "country_code": "CL",
    "zipcode": "3880000",
    "place": "Pinto",
    "state": "Región del Biobío",
    "state_code": "06",
    "province": "Provincia de Ñuble",
    "province_code": "84",
    "community": "Pinto",
    "community_code": "08411",
    "latitude": "-36.9214",
    "longitude": "-71.4994"
  },
  {
    "country_code": "CL",
    "zipcode": "3890000",
    "place": "San Ignacio",
    "state": "Región del Biobío",
    "state_code": "06",
    "province": "Provincia de Ñuble",
    "province_code": "84",
    "community": "San Ignacio",
    "community_code": "08418",
    "latitude": "-36.8225",
    "longitude": "-72.0298"
  },
  {
    "country_code": "CL",
    "zipcode": "3900000",
    "place": "El Carmen",
    "state": "Región del Biobío",
    "state_code": "06",
    "province": "Provincia de Ñuble",
    "province_code": "84",
    "community": "El Carmen",
    "community_code": "08407",
    "latitude": "-36.9251",
    "longitude": "-71.8469"
  },
  {
    "country_code": "CL",
    "zipcode": "3910000",
    "place": "Pemuco",
    "state": "Región del Biobío",
    "state_code": "06",
    "province": "Provincia de Ñuble",
    "province_code": "84",
    "community": "Pemuco",
    "community_code": "08410",
    "latitude": "-36.9829",
    "longitude": "-72.0675"
  },
  {
    "country_code": "CL",
    "zipcode": "3920000",
    "place": "Yungay",
    "state": "Región del Biobío",
    "state_code": "06",
    "province": "Provincia de Ñuble",
    "province_code": "84",
    "community": "Yungay",
    "community_code": "08421",
    "latitude": "-37.1044",
    "longitude": "-71.9308"
  },
  {
    "country_code": "CL",
    "zipcode": "3930000",
    "place": "Bulnes",
    "state": "Región del Biobío",
    "state_code": "06",
    "province": "Provincia de Ñuble",
    "province_code": "84",
    "community": "Bulnes",
    "community_code": "08402",
    "latitude": "-36.7905",
    "longitude": "-72.2901"
  },
  {
    "country_code": "CL",
    "zipcode": "3940000",
    "place": "Quillón",
    "state": "Región del Biobío",
    "state_code": "06",
    "province": "Provincia de Ñuble",
    "province_code": "84",
    "community": "Quillón",
    "community_code": "08413",
    "latitude": "-36.8186",
    "longitude": "-72.5017"
  },
  {
    "country_code": "CL",
    "zipcode": "3950000",
    "place": "Ranquil",
    "state": "Región del Biobío",
    "state_code": "06",
    "province": "Provincia de Ñuble",
    "province_code": "84",
    "community": "Ranquil",
    "community_code": "08415",
    "latitude": "-36.6406",
    "longitude": "-72.5878"
  },
  {
    "country_code": "CL",
    "zipcode": "3960000",
    "place": "Portezuelo",
    "state": "Región del Biobío",
    "state_code": "06",
    "province": "Provincia de Ñuble",
    "province_code": "84",
    "community": "Portezuelo",
    "community_code": "08412",
    "latitude": "-36.5464",
    "longitude": "-72.4665"
  },
  {
    "country_code": "CL",
    "zipcode": "3970000",
    "place": "Coelemu",
    "state": "Región del Biobío",
    "state_code": "06",
    "province": "Provincia de Ñuble",
    "province_code": "84",
    "community": "Coelemu",
    "community_code": "08404",
    "latitude": "-36.5051",
    "longitude": "-72.7503"
  },
  {
    "country_code": "CL",
    "zipcode": "3980000",
    "place": "Treguaco",
    "state": "Región del Biobío",
    "state_code": "06",
    "province": "Provincia de Ñuble",
    "province_code": "84",
    "community": "Treguaco",
    "community_code": "08420",
    "latitude": "-36.4281",
    "longitude": "-72.6595"
  },
  {
    "country_code": "CL",
    "zipcode": "3990000",
    "place": "Cobquecura",
    "state": "Región del Biobío",
    "state_code": "06",
    "province": "Provincia de Ñuble",
    "province_code": "84",
    "community": "Cobquecura",
    "community_code": "08403",
    "latitude": "-36.1811",
    "longitude": "-72.721"
  },
  {
    "country_code": "CL",
    "zipcode": "4000000",
    "place": "Quirihue",
    "state": "Región del Biobío",
    "state_code": "06",
    "province": "Provincia de Ñuble",
    "province_code": "84",
    "community": "Quirihue",
    "community_code": "08414",
    "latitude": "-36.2819",
    "longitude": "-72.5441"
  },
  {
    "country_code": "CL",
    "zipcode": "4010000",
    "place": "Ninhue",
    "state": "Región del Biobío",
    "state_code": "06",
    "province": "Provincia de Ñuble",
    "province_code": "84",
    "community": "Ninhue",
    "community_code": "08408",
    "latitude": "-36.3568",
    "longitude": "-72.4097"
  },
  {
    "country_code": "CL",
    "zipcode": "4020000",
    "place": "San Nicolás",
    "state": "Región del Biobío",
    "state_code": "06",
    "province": "Provincia de Ñuble",
    "province_code": "84",
    "community": "San Nicolás",
    "community_code": "08419",
    "latitude": "-36.4798",
    "longitude": "-72.2282"
  },
  {
    "country_code": "CL",
    "zipcode": "1700000",
    "place": "La Serena",
    "state": "Región de Coquimbo",
    "state_code": "07",
    "province": "Provincia de Elqui",
    "province_code": "41",
    "community": "La Serena",
    "community_code": "04101",
    "latitude": "-29.7892",
    "longitude": "-71.0612"
  },
  {
    "country_code": "CL",
    "zipcode": "1740000",
    "place": "La Higuera",
    "state": "Región de Coquimbo",
    "state_code": "07",
    "province": "Provincia de Elqui",
    "province_code": "41",
    "community": "La Higuera",
    "community_code": "04104",
    "latitude": "-29.3749",
    "longitude": "-70.9014"
  },
  {
    "country_code": "CL",
    "zipcode": "1750000",
    "place": "Andacollo",
    "state": "Región de Coquimbo",
    "state_code": "07",
    "province": "Provincia de Elqui",
    "province_code": "41",
    "community": "Andacollo",
    "community_code": "04103",
    "latitude": "-30.2606",
    "longitude": "-71.1005"
  },
  {
    "country_code": "CL",
    "zipcode": "1760000",
    "place": "Vicuña",
    "state": "Región de Coquimbo",
    "state_code": "07",
    "province": "Provincia de Elqui",
    "province_code": "41",
    "community": "Vicuña",
    "community_code": "04106",
    "latitude": "-29.892",
    "longitude": "-70.3827"
  },
  {
    "country_code": "CL",
    "zipcode": "1770000",
    "place": "Paiguano",
    "state": "Región de Coquimbo",
    "state_code": "07",
    "province": "Provincia de Elqui",
    "province_code": "41",
    "community": "Paiguano",
    "community_code": "04105",
    "latitude": "-30.2384",
    "longitude": "-70.3707"
  },
  {
    "country_code": "CL",
    "zipcode": "1780000",
    "place": "Coquimbo",
    "state": "Región de Coquimbo",
    "state_code": "07",
    "province": "Provincia de Elqui",
    "province_code": "41",
    "community": "Coquimbo",
    "community_code": "04102",
    "latitude": "-30.2288",
    "longitude": "-71.3598"
  },
  {
    "country_code": "CL",
    "zipcode": "1930000",
    "place": "Illapel",
    "state": "Región de Coquimbo",
    "state_code": "07",
    "province": "Provincia de Choapa",
    "province_code": "42",
    "community": "Illapel",
    "community_code": "04201",
    "latitude": "-31.5493",
    "longitude": "-70.9706"
  },
  {
    "country_code": "CL",
    "zipcode": "1940000",
    "place": "Los Vilos",
    "state": "Región de Coquimbo",
    "state_code": "07",
    "province": "Provincia de Choapa",
    "province_code": "42",
    "community": "Los Vilos",
    "community_code": "04203",
    "latitude": "-31.9778",
    "longitude": "-71.3041"
  },
  {
    "country_code": "CL",
    "zipcode": "1950000",
    "place": "Salamanca",
    "state": "Región de Coquimbo",
    "state_code": "07",
    "province": "Provincia de Choapa",
    "province_code": "42",
    "community": "Salamanca",
    "community_code": "04204",
    "latitude": "-31.8931",
    "longitude": "-70.6608"
  },
  {
    "country_code": "CL",
    "zipcode": "1960000",
    "place": "Canela",
    "state": "Región de Coquimbo",
    "state_code": "07",
    "province": "Provincia de Choapa",
    "province_code": "42",
    "community": "Canela",
    "community_code": "04202",
    "latitude": "-31.4019",
    "longitude": "-71.3944"
  },
  {
    "country_code": "CL",
    "zipcode": "1840000",
    "place": "Ovalle",
    "state": "Región de Coquimbo",
    "state_code": "07",
    "province": "Provincia de Limarí",
    "province_code": "43",
    "community": "Ovalle",
    "community_code": "04301",
    "latitude": "-30.674",
    "longitude": "-71.4062"
  },
  {
    "country_code": "CL",
    "zipcode": "1870000",
    "place": "Río Hurtado",
    "state": "Región de Coquimbo",
    "state_code": "07",
    "province": "Provincia de Limarí",
    "province_code": "43",
    "community": "Río Hurtado",
    "community_code": "04305",
    "latitude": "-30.2667",
    "longitude": "-70.6667"
  },
  {
    "country_code": "CL",
    "zipcode": "1880000",
    "place": "Monte Patria",
    "state": "Región de Coquimbo",
    "state_code": "07",
    "province": "Provincia de Limarí",
    "province_code": "43",
    "community": "Monte Patria",
    "community_code": "04303",
    "latitude": "-30.8352",
    "longitude": "-70.6509"
  },
  {
    "country_code": "CL",
    "zipcode": "1890000",
    "place": "Combarbalá",
    "state": "Región de Coquimbo",
    "state_code": "07",
    "province": "Provincia de Limarí",
    "province_code": "43",
    "community": "Combarbalá",
    "community_code": "04302",
    "latitude": "-31.1469",
    "longitude": "-70.9657"
  },
  {
    "country_code": "CL",
    "zipcode": "1900000",
    "place": "Punitaqui",
    "state": "Región de Coquimbo",
    "state_code": "07",
    "province": "Provincia de Limarí",
    "province_code": "43",
    "community": "Punitaqui",
    "community_code": "04304",
    "latitude": "-30.9464",
    "longitude": "-71.3331"
  },
  {
    "country_code": "CL",
    "zipcode": "2820000",
    "place": "Rancagua",
    "state": "Región del Libertador General Bernardo O’Higgins",
    "state_code": "08",
    "province": "Provincia de Cachapoal",
    "province_code": "61",
    "community": "Rancagua",
    "community_code": "06101",
    "latitude": "-34.1261",
    "longitude": "-70.8166"
  },
  {
    "country_code": "CL",
    "zipcode": "2880000",
    "place": "Graneros",
    "state": "Región del Libertador General Bernardo O’Higgins",
    "state_code": "08",
    "province": "Provincia de Cachapoal",
    "province_code": "61",
    "community": "Graneros",
    "community_code": "06106",
    "latitude": "-34.0657",
    "longitude": "-70.747"
  },
  {
    "country_code": "CL",
    "zipcode": "2890000",
    "place": "Mostazal",
    "state": "Región del Libertador General Bernardo O’Higgins",
    "state_code": "08",
    "province": "Provincia de Cachapoal",
    "province_code": "61",
    "community": "Mostazal",
    "community_code": "06110",
    "latitude": "-33.956",
    "longitude": "-70.5694"
  },
  {
    "country_code": "CL",
    "zipcode": "2900000",
    "place": "Codegua",
    "state": "Región del Libertador General Bernardo O’Higgins",
    "state_code": "08",
    "province": "Provincia de Cachapoal",
    "province_code": "61",
    "community": "Codegua",
    "community_code": "06102",
    "latitude": "-34.0574",
    "longitude": "-70.5471"
  },
  {
    "country_code": "CL",
    "zipcode": "2910000",
    "place": "Machalí",
    "state": "Región del Libertador General Bernardo O’Higgins",
    "state_code": "08",
    "province": "Provincia de Cachapoal",
    "province_code": "61",
    "community": "Machalí",
    "community_code": "06108",
    "latitude": "-34.3207",
    "longitude": "-70.3196"
  },
  {
    "country_code": "CL",
    "zipcode": "2920000",
    "place": "Olivar",
    "state": "Región del Libertador General Bernardo O’Higgins",
    "state_code": "08",
    "province": "Provincia de Cachapoal",
    "province_code": "61",
    "community": "Olivar",
    "community_code": "06111",
    "latitude": "-34.2116",
    "longitude": "-70.8201"
  },
  {
    "country_code": "CL",
    "zipcode": "2930000",
    "place": "Requinoa",
    "state": "Región del Libertador General Bernardo O’Higgins",
    "state_code": "08",
    "province": "Provincia de Cachapoal",
    "province_code": "61",
    "community": "Requinoa",
    "community_code": "06116",
    "latitude": "-34.335",
    "longitude": "-70.6591"
  },
  {
    "country_code": "CL",
    "zipcode": "2940000",
    "place": "Rengo",
    "state": "Región del Libertador General Bernardo O’Higgins",
    "state_code": "08",
    "province": "Provincia de Cachapoal",
    "province_code": "61",
    "community": "Rengo",
    "community_code": "06115",
    "latitude": "-34.4547",
    "longitude": "-70.7185"
  },
  {
    "country_code": "CL",
    "zipcode": "2950000",
    "place": "Malloa",
    "state": "Región del Libertador General Bernardo O’Higgins",
    "state_code": "08",
    "province": "Provincia de Cachapoal",
    "province_code": "61",
    "community": "Malloa",
    "community_code": "06109",
    "latitude": "-34.4762",
    "longitude": "-70.8734"
  },
  {
    "country_code": "CL",
    "zipcode": "2960000",
    "place": "Quinta De Tilcoco",
    "state": "Región del Libertador General Bernardo O’Higgins",
    "state_code": "08",
    "province": "Provincia de Cachapoal",
    "province_code": "61",
    "community": "Quinta De Tilcoco",
    "community_code": "06114",
    "latitude": "-34.3592",
    "longitude": "-70.9982"
  },
  {
    "country_code": "CL",
    "zipcode": "2970000",
    "place": "San Vicente",
    "state": "Región del Libertador General Bernardo O’Higgins",
    "state_code": "08",
    "province": "Provincia de Cachapoal",
    "province_code": "61",
    "community": "San Vicente",
    "community_code": "06117",
    "latitude": "-34.4778",
    "longitude": "-71.1233"
  },
  {
    "country_code": "CL",
    "zipcode": "2980000",
    "place": "Pichidegua",
    "state": "Región del Libertador General Bernardo O’Higgins",
    "state_code": "08",
    "province": "Provincia de Cachapoal",
    "province_code": "61",
    "community": "Pichidegua",
    "community_code": "06113",
    "latitude": "-34.3712",
    "longitude": "-71.3394"
  },
  {
    "country_code": "CL",
    "zipcode": "2990000",
    "place": "Peumo",
    "state": "Región del Libertador General Bernardo O’Higgins",
    "state_code": "08",
    "province": "Provincia de Cachapoal",
    "province_code": "61",
    "community": "Peumo",
    "community_code": "06112",
    "latitude": "-34.3294",
    "longitude": "-71.2219"
  },
  {
    "country_code": "CL",
    "zipcode": "3000000",
    "place": "Coltauco",
    "state": "Región del Libertador General Bernardo O’Higgins",
    "state_code": "08",
    "province": "Provincia de Cachapoal",
    "province_code": "61",
    "community": "Coltauco",
    "community_code": "06104",
    "latitude": "-34.26",
    "longitude": "-71.0779"
  },
  {
    "country_code": "CL",
    "zipcode": "3010000",
    "place": "Coinco",
    "state": "Región del Libertador General Bernardo O’Higgins",
    "state_code": "08",
    "province": "Provincia de Cachapoal",
    "province_code": "61",
    "community": "Coinco",
    "community_code": "06103",
    "latitude": "-34.2822",
    "longitude": "-70.9711"
  },
  {
    "country_code": "CL",
    "zipcode": "3020000",
    "place": "Doñihue",
    "state": "Región del Libertador General Bernardo O’Higgins",
    "state_code": "08",
    "province": "Provincia de Cachapoal",
    "province_code": "61",
    "community": "Doñihue",
    "community_code": "06105",
    "latitude": "-34.197",
    "longitude": "-70.9236"
  },
  {
    "country_code": "CL",
    "zipcode": "3030000",
    "place": "Las Cabras",
    "state": "Región del Libertador General Bernardo O’Higgins",
    "state_code": "08",
    "province": "Provincia de Cachapoal",
    "province_code": "61",
    "community": "Las Cabras",
    "community_code": "06107",
    "latitude": "-34.165",
    "longitude": "-71.3327"
  },
  {
    "country_code": "CL",
    "zipcode": "3220000",
    "place": "Pichilemu",
    "state": "Región del Libertador General Bernardo O’Higgins",
    "state_code": "08",
    "province": "Provincia de Cardenal Caro",
    "province_code": "62",
    "community": "Pichilemu",
    "community_code": "06201",
    "latitude": "-34.3841",
    "longitude": "-71.9106"
  },
  {
    "country_code": "CL",
    "zipcode": "3230000",
    "place": "Navidad",
    "state": "Región del Libertador General Bernardo O’Higgins",
    "state_code": "08",
    "province": "Provincia de Cardenal Caro",
    "province_code": "62",
    "community": "Navidad",
    "community_code": "06205",
    "latitude": "-34.0123",
    "longitude": "-71.8203"
  },
  {
    "country_code": "CL",
    "zipcode": "3240000",
    "place": "Litueche",
    "state": "Región del Libertador General Bernardo O’Higgins",
    "state_code": "08",
    "province": "Provincia de Cardenal Caro",
    "province_code": "62",
    "community": "Litueche",
    "community_code": "06203",
    "latitude": "-34.1074",
    "longitude": "-71.7336"
  },
  {
    "country_code": "CL",
    "zipcode": "3250000",
    "place": "La Estrella",
    "state": "Región del Libertador General Bernardo O’Higgins",
    "state_code": "08",
    "province": "Provincia de Cardenal Caro",
    "province_code": "62",
    "community": "La Estrella",
    "community_code": "06202",
    "latitude": "-34.2233",
    "longitude": "-71.6026"
  },
  {
    "country_code": "CL",
    "zipcode": "3260000",
    "place": "Marchihue",
    "state": "Región del Libertador General Bernardo O’Higgins",
    "state_code": "08",
    "province": "Provincia de Cardenal Caro",
    "province_code": "62",
    "community": "Marchihue",
    "community_code": "06204",
    "latitude": "-34.3727",
    "longitude": "-71.6716"
  },
  {
    "country_code": "CL",
    "zipcode": "3270000",
    "place": "Paredones",
    "state": "Región del Libertador General Bernardo O’Higgins",
    "state_code": "08",
    "province": "Provincia de Cardenal Caro",
    "province_code": "62",
    "community": "Paredones",
    "community_code": "06206",
    "latitude": "-34.6733",
    "longitude": "-71.9112"
  },
  {
    "country_code": "CL",
    "zipcode": "3070000",
    "place": "San Fernando",
    "state": "Región del Libertador General Bernardo O’Higgins",
    "state_code": "08",
    "province": "Provincia de Colchagua",
    "province_code": "63",
    "community": "San Fernando",
    "community_code": "06301",
    "latitude": "-34.7433",
    "longitude": "-70.6033"
  },
  {
    "country_code": "CL",
    "zipcode": "3090000",
    "place": "Chimbarongo",
    "state": "Región del Libertador General Bernardo O’Higgins",
    "state_code": "08",
    "province": "Provincia de Colchagua",
    "province_code": "63",
    "community": "Chimbarongo",
    "community_code": "06303",
    "latitude": "-34.7517",
    "longitude": "-70.9811"
  },
  {
    "country_code": "CL",
    "zipcode": "3100000",
    "place": "Placilla",
    "state": "Región del Libertador General Bernardo O’Higgins",
    "state_code": "08",
    "province": "Provincia de Colchagua",
    "province_code": "63",
    "community": "Placilla",
    "community_code": "06308",
    "latitude": "-34.6192",
    "longitude": "-71.0862"
  },
  {
    "country_code": "CL",
    "zipcode": "3110000",
    "place": "Nancagua",
    "state": "Región del Libertador General Bernardo O’Higgins",
    "state_code": "08",
    "province": "Provincia de Colchagua",
    "province_code": "63",
    "community": "Nancagua",
    "community_code": "06305",
    "latitude": "-34.6678",
    "longitude": "-71.1919"
  },
  {
    "country_code": "CL",
    "zipcode": "3120000",
    "place": "Chépica",
    "state": "Región del Libertador General Bernardo O’Higgins",
    "state_code": "08",
    "province": "Provincia de Colchagua",
    "province_code": "63",
    "community": "Chépica",
    "community_code": "06302",
    "latitude": "-34.7913",
    "longitude": "-71.3593"
  },
  {
    "country_code": "CL",
    "zipcode": "3130000",
    "place": "Santa Cruz",
    "state": "Región del Libertador General Bernardo O’Higgins",
    "state_code": "08",
    "province": "Provincia de Colchagua",
    "province_code": "63",
    "community": "Santa Cruz",
    "community_code": "06310",
    "latitude": "-34.6432",
    "longitude": "-71.4025"
  },
  {
    "country_code": "CL",
    "zipcode": "3140000",
    "place": "Lolol",
    "state": "Región del Libertador General Bernardo O’Higgins",
    "state_code": "08",
    "province": "Provincia de Colchagua",
    "province_code": "63",
    "community": "Lolol",
    "community_code": "06304",
    "latitude": "-34.7684",
    "longitude": "-71.6484"
  },
  {
    "country_code": "CL",
    "zipcode": "3150000",
    "place": "Pumanque",
    "state": "Región del Libertador General Bernardo O’Higgins",
    "state_code": "08",
    "province": "Provincia de Colchagua",
    "province_code": "63",
    "community": "Pumanque",
    "community_code": "06309",
    "latitude": "-34.5962",
    "longitude": "-71.6915"
  },
  {
    "country_code": "CL",
    "zipcode": "3160000",
    "place": "Palmilla",
    "state": "Región del Libertador General Bernardo O’Higgins",
    "state_code": "08",
    "province": "Provincia de Colchagua",
    "province_code": "63",
    "community": "Palmilla",
    "community_code": "06306",
    "latitude": "-34.5282",
    "longitude": "-71.3529"
  },
  {
    "country_code": "CL",
    "zipcode": "3170000",
    "place": "Peralillo",
    "state": "Región del Libertador General Bernardo O’Higgins",
    "state_code": "08",
    "province": "Provincia de Colchagua",
    "province_code": "63",
    "community": "Peralillo",
    "community_code": "06307",
    "latitude": "-34.4662",
    "longitude": "-71.4967"
  },
  {
    "country_code": "CL",
    "zipcode": "6200000",
    "place": "Punta Arenas",
    "state": "Región de Magallanes y Antártica Chilena",
    "state_code": "10",
    "province": "Provincia de Magallanes",
    "province_code": "121",
    "community": "Punta Arenas",
    "community_code": "12101",
    "latitude": "-53.6415",
    "longitude": "-72.0385"
  },
  {
    "country_code": "CL",
    "zipcode": "6240000",
    "place": "Río Verde",
    "state": "Región de Magallanes y Antártica Chilena",
    "state_code": "10",
    "province": "Provincia de Magallanes",
    "province_code": "121",
    "community": "Río Verde",
    "community_code": "12103",
    "latitude": "-52.8467",
    "longitude": "-72.4633"
  },
  {
    "country_code": "CL",
    "zipcode": "6250000",
    "place": "Laguna Blanca",
    "state": "Región de Magallanes y Antártica Chilena",
    "state_code": "10",
    "province": "Provincia de Magallanes",
    "province_code": "121",
    "community": "Laguna Blanca",
    "community_code": "12102",
    "latitude": "-52.3294",
    "longitude": "-71.2398"
  },
  {
    "country_code": "CL",
    "zipcode": "6260000",
    "place": "San Gregorio",
    "state": "Región de Magallanes y Antártica Chilena",
    "state_code": "10",
    "province": "Provincia de Magallanes",
    "province_code": "121",
    "community": "San Gregorio",
    "community_code": "12104",
    "latitude": "-52.3223",
    "longitude": "-70.2272"
  },
  {
    "country_code": "CL",
    "zipcode": "6350000",
    "place": "Cabo De Hornos",
    "state": "Región de Magallanes y Antártica Chilena",
    "state_code": "10",
    "province": "Provincia Antártica Chilena",
    "province_code": "122",
    "community": "Cabo De Hornos",
    "community_code": "12201",
    "latitude": "-55.0225",
    "longitude": "-69.2283"
  },
  {
    "country_code": "CL",
    "zipcode": "6360000",
    "place": "Antártica",
    "state": "Región de Magallanes y Antártica Chilena",
    "state_code": "10",
    "province": "Provincia Antártica Chilena",
    "province_code": "122",
    "community": "Antártica",
    "community_code": "12202",
    "latitude": "-75.0009",
    "longitude": "-71.5931"
  },
  {
    "country_code": "CL",
    "zipcode": "6300000",
    "place": "Porvenir",
    "state": "Región de Magallanes y Antártica Chilena",
    "state_code": "10",
    "province": "Provincia de Tierra del Fuego",
    "province_code": "123",
    "community": "Porvenir",
    "community_code": "12301",
    "latitude": "-53.304",
    "longitude": "-69.3928"
  },
  {
    "country_code": "CL",
    "zipcode": "6310000",
    "place": "Primavera",
    "state": "Región de Magallanes y Antártica Chilena",
    "state_code": "10",
    "province": "Provincia de Tierra del Fuego",
    "province_code": "123",
    "community": "Primavera",
    "community_code": "12302",
    "latitude": "-52.8202",
    "longitude": "-69.3335"
  },
  {
    "country_code": "CL",
    "zipcode": "6320000",
    "place": "Timaukel",
    "state": "Región de Magallanes y Antártica Chilena",
    "state_code": "10",
    "province": "Provincia de Tierra del Fuego",
    "province_code": "123",
    "community": "Timaukel",
    "community_code": "12303",
    "latitude": "-54.195",
    "longitude": "-69.5323"
  },
  {
    "country_code": "CL",
    "zipcode": "6160000",
    "place": "Natales",
    "state": "Región de Magallanes y Antártica Chilena",
    "state_code": "10",
    "province": "Provincia de Última Esperanza",
    "province_code": "124",
    "community": "Natales",
    "community_code": "12401",
    "latitude": "-50.6742",
    "longitude": "-73.9259"
  },
  {
    "country_code": "CL",
    "zipcode": "6170000",
    "place": "Torres Del Paine",
    "state": "Región de Magallanes y Antártica Chilena",
    "state_code": "10",
    "province": "Provincia de Última Esperanza",
    "province_code": "124",
    "community": "Torres Del Paine",
    "community_code": "12402",
    "latitude": "-51.0503",
    "longitude": "-72.8295"
  },
  {
    "country_code": "CL",
    "zipcode": "3460000",
    "place": "Talca",
    "state": "Región del Maule",
    "state_code": "11",
    "province": "Provincia de Talca",
    "province_code": "71",
    "community": "Talca",
    "community_code": "07101",
    "latitude": "-35.428",
    "longitude": "-71.6028"
  },
  {
    "country_code": "CL",
    "zipcode": "3490000",
    "place": "San Rafael",
    "state": "Región del Maule",
    "state_code": "11",
    "province": "Provincia de Talca",
    "province_code": "71",
    "community": "San Rafael",
    "community_code": "07110",
    "latitude": "-35.3019",
    "longitude": "-71.5011"
  },
  {
    "country_code": "CL",
    "zipcode": "3500000",
    "place": "Pelarco",
    "state": "Región del Maule",
    "state_code": "11",
    "province": "Provincia de Talca",
    "province_code": "71",
    "community": "Pelarco",
    "community_code": "07106",
    "latitude": "-35.3832",
    "longitude": "-71.3506"
  },
  {
    "country_code": "CL",
    "zipcode": "3510000",
    "place": "Río Claro",
    "state": "Región del Maule",
    "state_code": "11",
    "province": "Provincia de Talca",
    "province_code": "71",
    "community": "Río Claro",
    "community_code": "07108",
    "latitude": "-35.2609",
    "longitude": "-71.2695"
  },
  {
    "country_code": "CL",
    "zipcode": "3520000",
    "place": "San Clemente",
    "state": "Región del Maule",
    "state_code": "11",
    "province": "Provincia de Talca",
    "province_code": "71",
    "community": "San Clemente",
    "community_code": "07109",
    "latitude": "-35.7121",
    "longitude": "-70.8485"
  },
  {
    "country_code": "CL",
    "zipcode": "3530000",
    "place": "Maule",
    "state": "Región del Maule",
    "state_code": "11",
    "province": "Provincia de Talca",
    "province_code": "71",
    "community": "Maule",
    "community_code": "07105",
    "latitude": "-35.5085",
    "longitude": "-71.7126"
  },
  {
    "country_code": "CL",
    "zipcode": "3540000",
    "place": "Empedrado",
    "state": "Región del Maule",
    "state_code": "11",
    "province": "Provincia de Talca",
    "province_code": "71",
    "community": "Empedrado",
    "community_code": "07104",
    "latitude": "-35.6135",
    "longitude": "-72.2843"
  },
  {
    "country_code": "CL",
    "zipcode": "3550000",
    "place": "Pencahue",
    "state": "Región del Maule",
    "state_code": "11",
    "province": "Provincia de Talca",
    "province_code": "71",
    "community": "Pencahue",
    "community_code": "07107",
    "latitude": "-35.3277",
    "longitude": "-71.8171"
  },
  {
    "country_code": "CL",
    "zipcode": "3560000",
    "place": "Constitución",
    "state": "Región del Maule",
    "state_code": "11",
    "province": "Provincia de Talca",
    "province_code": "71",
    "community": "Constitución",
    "community_code": "07102",
    "latitude": "-35.3631",
    "longitude": "-72.2762"
  },
  {
    "country_code": "CL",
    "zipcode": "3570000",
    "place": "Curepto",
    "state": "Región del Maule",
    "state_code": "11",
    "province": "Provincia de Talca",
    "province_code": "71",
    "community": "Curepto",
    "community_code": "07103",
    "latitude": "-35.1297",
    "longitude": "-71.9533"
  },
  {
    "country_code": "CL",
    "zipcode": "3690000",
    "place": "Cauquenes",
    "state": "Región del Maule",
    "state_code": "11",
    "province": "Provincia de Cauquenes",
    "province_code": "72",
    "community": "Cauquenes",
    "community_code": "07201",
    "latitude": "-35.9713",
    "longitude": "-72.28"
  },
  {
    "country_code": "CL",
    "zipcode": "3710000",
    "place": "Pelluhue",
    "state": "Región del Maule",
    "state_code": "11",
    "province": "Provincia de Cauquenes",
    "province_code": "72",
    "community": "Pelluhue",
    "community_code": "07203",
    "latitude": "-35.9115",
    "longitude": "-72.6076"
  },
  {
    "country_code": "CL",
    "zipcode": "3720000",
    "place": "Chanco",
    "state": "Región del Maule",
    "state_code": "11",
    "province": "Provincia de Cauquenes",
    "province_code": "72",
    "community": "Chanco",
    "community_code": "07202",
    "latitude": "-35.6988",
    "longitude": "-72.4849"
  },
  {
    "country_code": "CL",
    "zipcode": "3340000",
    "place": "Curicó",
    "state": "Región del Maule",
    "state_code": "11",
    "province": "Provincia de Curicó",
    "province_code": "73",
    "community": "Curicó",
    "community_code": "07301",
    "latitude": "-35.1991",
    "longitude": "-70.8957"
  },
  {
    "country_code": "CL",
    "zipcode": "3360000",
    "place": "Teno",
    "state": "Región del Maule",
    "state_code": "11",
    "province": "Provincia de Curicó",
    "province_code": "73",
    "community": "Teno",
    "community_code": "07308",
    "latitude": "-34.8879",
    "longitude": "-71.0224"
  },
  {
    "country_code": "CL",
    "zipcode": "3370000",
    "place": "Romeral",
    "state": "Región del Maule",
    "state_code": "11",
    "province": "Provincia de Curicó",
    "province_code": "73",
    "community": "Romeral",
    "community_code": "07306",
    "latitude": "-35.0683",
    "longitude": "-70.7112"
  },
  {
    "country_code": "CL",
    "zipcode": "3380000",
    "place": "Molina",
    "state": "Región del Maule",
    "state_code": "11",
    "province": "Provincia de Curicó",
    "province_code": "73",
    "community": "Molina",
    "community_code": "07304",
    "latitude": "-35.3534",
    "longitude": "-70.9095"
  },
  {
    "country_code": "CL",
    "zipcode": "3390000",
    "place": "Sagrada Familia",
    "state": "Región del Maule",
    "state_code": "11",
    "province": "Provincia de Curicó",
    "province_code": "73",
    "community": "Sagrada Familia",
    "community_code": "07307",
    "latitude": "-35.1043",
    "longitude": "-71.4959"
  },
  {
    "country_code": "CL",
    "zipcode": "3400000",
    "place": "Hualañé",
    "state": "Región del Maule",
    "state_code": "11",
    "province": "Provincia de Curicó",
    "province_code": "73",
    "community": "Hualañé",
    "community_code": "07302",
    "latitude": "-34.9525",
    "longitude": "-71.709"
  },
  {
    "country_code": "CL",
    "zipcode": "3410000",
    "place": "Licantén",
    "state": "Región del Maule",
    "state_code": "11",
    "province": "Provincia de Curicó",
    "province_code": "73",
    "community": "Licantén",
    "community_code": "07303",
    "latitude": "-34.9743",
    "longitude": "-72.0604"
  },
  {
    "country_code": "CL",
    "zipcode": "3420000",
    "place": "Vichuquén",
    "state": "Región del Maule",
    "state_code": "11",
    "province": "Provincia de Curicó",
    "province_code": "73",
    "community": "Vichuquén",
    "community_code": "07309",
    "latitude": "-34.841",
    "longitude": "-72.0228"
  },
  {
    "country_code": "CL",
    "zipcode": "3430000",
    "place": "Rauco",
    "state": "Región del Maule",
    "state_code": "11",
    "province": "Provincia de Curicó",
    "province_code": "73",
    "community": "Rauco",
    "community_code": "07305",
    "latitude": "-34.9382",
    "longitude": "-71.4264"
  },
  {
    "country_code": "CL",
    "zipcode": "3580000",
    "place": "Linares",
    "state": "Región del Maule",
    "state_code": "11",
    "province": "Provincia de Linares",
    "province_code": "74",
    "community": "Linares",
    "community_code": "07401",
    "latitude": "-35.9581",
    "longitude": "-71.3321"
  },
  {
    "country_code": "CL",
    "zipcode": "3600000",
    "place": "Yerbas Buenas",
    "state": "Región del Maule",
    "state_code": "11",
    "province": "Provincia de Linares",
    "province_code": "74",
    "community": "Yerbas Buenas",
    "community_code": "07408",
    "latitude": "-35.6892",
    "longitude": "-71.5444"
  },
  {
    "country_code": "CL",
    "zipcode": "3610000",
    "place": "Colbún",
    "state": "Región del Maule",
    "state_code": "11",
    "province": "Provincia de Linares",
    "province_code": "74",
    "community": "Colbún",
    "community_code": "07402",
    "latitude": "-36.0777",
    "longitude": "-70.9783"
  },
  {
    "country_code": "CL",
    "zipcode": "3620000",
    "place": "Longaví",
    "state": "Región del Maule",
    "state_code": "11",
    "province": "Provincia de Linares",
    "province_code": "74",
    "community": "Longaví",
    "community_code": "07403",
    "latitude": "-36.1107",
    "longitude": "-71.4412"
  },
  {
    "country_code": "CL",
    "zipcode": "3630000",
    "place": "Parral",
    "state": "Región del Maule",
    "state_code": "11",
    "province": "Provincia de Linares",
    "province_code": "74",
    "community": "Parral",
    "community_code": "07404",
    "latitude": "-36.2623",
    "longitude": "-71.645"
  },
  {
    "country_code": "CL",
    "zipcode": "3640000",
    "place": "Retiro",
    "state": "Región del Maule",
    "state_code": "11",
    "province": "Provincia de Linares",
    "province_code": "74",
    "community": "Retiro",
    "community_code": "07405",
    "latitude": "-36.0023",
    "longitude": "-71.8293"
  },
  {
    "country_code": "CL",
    "zipcode": "3650000",
    "place": "Villa Alegre",
    "state": "Región del Maule",
    "state_code": "11",
    "province": "Provincia de Linares",
    "province_code": "74",
    "community": "Villa Alegre",
    "community_code": "07407",
    "latitude": "-35.6853",
    "longitude": "-71.6829"
  },
  {
    "country_code": "CL",
    "zipcode": "3660000",
    "place": "San Javier",
    "state": "Región del Maule",
    "state_code": "11",
    "province": "Provincia de Linares",
    "province_code": "74",
    "community": "San Javier",
    "community_code": "07406",
    "latitude": "-35.629",
    "longitude": "-71.9271"
  },
  {
    "country_code": "CL",
    "zipcode": "7500000",
    "place": "Providencia",
    "state": "Región Metropolitana",
    "state_code": "12",
    "province": "Provincia de Santiago",
    "province_code": "131",
    "community": "Providencia",
    "community_code": "13123",
    "latitude": "-33.4362",
    "longitude": "-70.609"
  },
  {
    "country_code": "CL",
    "zipcode": "7550000",
    "place": "Las Condes",
    "state": "Región Metropolitana",
    "state_code": "12",
    "province": "Provincia de Santiago",
    "province_code": "131",
    "community": "Las Condes",
    "community_code": "13114",
    "latitude": "-33.4207",
    "longitude": "-70.5019"
  },
  {
    "country_code": "CL",
    "zipcode": "7630000",
    "place": "Vitacura",
    "state": "Región Metropolitana",
    "state_code": "12",
    "province": "Provincia de Santiago",
    "province_code": "131",
    "community": "Vitacura",
    "community_code": "13132",
    "latitude": "-33.3799",
    "longitude": "-70.5724"
  },
  {
    "country_code": "CL",
    "zipcode": "7690000",
    "place": "Lo Barnechea",
    "state": "Región Metropolitana",
    "state_code": "12",
    "province": "Provincia de Santiago",
    "province_code": "131",
    "community": "Lo Barnechea",
    "community_code": "13115",
    "latitude": "-33.2991",
    "longitude": "-70.3687"
  },
  {
    "country_code": "CL",
    "zipcode": "7750000",
    "place": "Ñuñoa",
    "state": "Región Metropolitana",
    "state_code": "12",
    "province": "Provincia de Santiago",
    "province_code": "131",
    "community": "Ñuñoa",
    "community_code": "13120",
    "latitude": "-33.4593",
    "longitude": "-70.6003"
  },
  {
    "country_code": "CL",
    "zipcode": "7810000",
    "place": "Macul",
    "state": "Región Metropolitana",
    "state_code": "12",
    "province": "Provincia de Santiago",
    "province_code": "131",
    "community": "Macul",
    "community_code": "13118",
    "latitude": "-33.4902",
    "longitude": "-70.6011"
  },
  {
    "country_code": "CL",
    "zipcode": "7850000",
    "place": "La Reina",
    "state": "Región Metropolitana",
    "state_code": "12",
    "province": "Provincia de Santiago",
    "province_code": "131",
    "community": "La Reina",
    "community_code": "13113",
    "latitude": "-33.4486",
    "longitude": "-70.5358"
  },
  {
    "country_code": "CL",
    "zipcode": "7910000",
    "place": "Penalolén",
    "state": "Región Metropolitana",
    "state_code": "12",
    "province": "Provincia de Santiago",
    "province_code": "131",
    "community": "Penalolén",
    "community_code": "13122",
    "latitude": "-33.4862",
    "longitude": "-70.5249"
  },
  {
    "country_code": "CL",
    "zipcode": "7970000",
    "place": "La Cisterna",
    "state": "Región Metropolitana",
    "state_code": "12",
    "province": "Provincia de Santiago",
    "province_code": "131",
    "community": "La Cisterna",
    "community_code": "13109",
    "latitude": "-33.5302",
    "longitude": "-70.6641"
  },
  {
    "country_code": "CL",
    "zipcode": "8010000",
    "place": "El Bosque",
    "state": "Región Metropolitana",
    "state_code": "12",
    "province": "Provincia de Santiago",
    "province_code": "131",
    "community": "El Bosque",
    "community_code": "13105",
    "latitude": "-33.5629",
    "longitude": "-70.6764"
  },
  {
    "country_code": "CL",
    "zipcode": "8240000",
    "place": "La Florida",
    "state": "Región Metropolitana",
    "state_code": "12",
    "province": "Provincia de Santiago",
    "province_code": "131",
    "community": "La Florida",
    "community_code": "13110",
    "latitude": "-33.5286",
    "longitude": "-70.5396"
  },
  {
    "country_code": "CL",
    "zipcode": "8320000",
    "place": "Santiago",
    "state": "Región Metropolitana",
    "state_code": "12",
    "province": "Provincia de Santiago",
    "province_code": "131",
    "community": "Santiago",
    "community_code": "13101",
    "latitude": "-33.4541",
    "longitude": "-70.656"
  },
  {
    "country_code": "CL",
    "zipcode": "8380000",
    "place": "Independencia",
    "state": "Región Metropolitana",
    "state_code": "12",
    "province": "Provincia de Santiago",
    "province_code": "131",
    "community": "Independencia",
    "community_code": "13108",
    "latitude": "-33.4151",
    "longitude": "-70.6657"
  },
  {
    "country_code": "CL",
    "zipcode": "8420000",
    "place": "Recoleta",
    "state": "Región Metropolitana",
    "state_code": "12",
    "province": "Provincia de Santiago",
    "province_code": "131",
    "community": "Recoleta",
    "community_code": "13127",
    "latitude": "-33.4088",
    "longitude": "-70.6364"
  },
  {
    "country_code": "CL",
    "zipcode": "8460000",
    "place": "Pedro Aguirre Cerda",
    "state": "Región Metropolitana",
    "state_code": "12",
    "province": "Provincia de Santiago",
    "province_code": "131",
    "community": "Pedro Aguirre Cerda",
    "community_code": "13121",
    "latitude": "-33.4919",
    "longitude": "-70.6762"
  },
  {
    "country_code": "CL",
    "zipcode": "8500000",
    "place": "Quinta Normal",
    "state": "Región Metropolitana",
    "state_code": "12",
    "province": "Provincia de Santiago",
    "province_code": "131",
    "community": "Quinta Normal",
    "community_code": "13126",
    "latitude": "-33.4284",
    "longitude": "-70.7008"
  },
  {
    "country_code": "CL",
    "zipcode": "8540000",
    "place": "Conchalí",
    "state": "Región Metropolitana",
    "state_code": "12",
    "province": "Provincia de Santiago",
    "province_code": "131",
    "community": "Conchalí",
    "community_code": "13104",
    "latitude": "-33.3837",
    "longitude": "-70.6774"
  },
  {
    "country_code": "CL",
    "zipcode": "8580000",
    "place": "Huechuraba",
    "state": "Región Metropolitana",
    "state_code": "12",
    "province": "Provincia de Santiago",
    "province_code": "131",
    "community": "Huechuraba",
    "community_code": "13107",
    "latitude": "-33.3603",
    "longitude": "-70.6375"
  },
  {
    "country_code": "CL",
    "zipcode": "8640000",
    "place": "Renca",
    "state": "Región Metropolitana",
    "state_code": "12",
    "province": "Provincia de Santiago",
    "province_code": "131",
    "community": "Renca",
    "community_code": "13128",
    "latitude": "-33.4021",
    "longitude": "-70.7279"
  },
  {
    "country_code": "CL",
    "zipcode": "8700000",
    "place": "Quilicura",
    "state": "Región Metropolitana",
    "state_code": "12",
    "province": "Provincia de Santiago",
    "province_code": "131",
    "community": "Quilicura",
    "community_code": "13125",
    "latitude": "-33.3554",
    "longitude": "-70.7361"
  },
  {
    "country_code": "CL",
    "zipcode": "8780000",
    "place": "La Granja",
    "state": "Región Metropolitana",
    "state_code": "12",
    "province": "Provincia de Santiago",
    "province_code": "131",
    "community": "La Granja",
    "community_code": "13111",
    "latitude": "-33.5354",
    "longitude": "-70.6223"
  },
  {
    "country_code": "CL",
    "zipcode": "8820000",
    "place": "La Pintana",
    "state": "Región Metropolitana",
    "state_code": "12",
    "province": "Provincia de Santiago",
    "province_code": "131",
    "community": "La Pintana",
    "community_code": "13112",
    "latitude": "-33.5843",
    "longitude": "-70.6376"
  },
  {
    "country_code": "CL",
    "zipcode": "8860000",
    "place": "San Ramón",
    "state": "Región Metropolitana",
    "state_code": "12",
    "province": "Provincia de Santiago",
    "province_code": "131",
    "community": "San Ramón",
    "community_code": "13131",
    "latitude": "-33.5314",
    "longitude": "-70.6422"
  },
  {
    "country_code": "CL",
    "zipcode": "8900000",
    "place": "San Miguel",
    "state": "Región Metropolitana",
    "state_code": "12",
    "province": "Provincia de Santiago",
    "province_code": "131",
    "community": "San Miguel",
    "community_code": "13130",
    "latitude": "-33.4991",
    "longitude": "-70.6517"
  },
  {
    "country_code": "CL",
    "zipcode": "8940000",
    "place": "San Joaquín",
    "state": "Región Metropolitana",
    "state_code": "12",
    "province": "Provincia de Santiago",
    "province_code": "131",
    "community": "San Joaquín",
    "community_code": "13129",
    "latitude": "-33.4963",
    "longitude": "-70.6288"
  },
  {
    "country_code": "CL",
    "zipcode": "8980000",
    "place": "Lo Prado",
    "state": "Región Metropolitana",
    "state_code": "12",
    "province": "Provincia de Santiago",
    "province_code": "131",
    "community": "Lo Prado",
    "community_code": "13117",
    "latitude": "-33.4473",
    "longitude": "-70.7235"
  },
  {
    "country_code": "CL",
    "zipcode": "9020000",
    "place": "Pudahuel",
    "state": "Región Metropolitana",
    "state_code": "12",
    "province": "Provincia de Santiago",
    "province_code": "131",
    "community": "Pudahuel",
    "community_code": "13124",
    "latitude": "-33.424",
    "longitude": "-70.8549"
  },
  {
    "country_code": "CL",
    "zipcode": "9080000",
    "place": "Cerro Navia",
    "state": "Región Metropolitana",
    "state_code": "12",
    "province": "Provincia de Santiago",
    "province_code": "131",
    "community": "Cerro Navia",
    "community_code": "13103",
    "latitude": "-33.4228",
    "longitude": "-70.745"
  },
  {
    "country_code": "CL",
    "zipcode": "9120000",
    "place": "Lo Espejo",
    "state": "Región Metropolitana",
    "state_code": "12",
    "province": "Provincia de Santiago",
    "province_code": "131",
    "community": "Lo Espejo",
    "community_code": "13116",
    "latitude": "-33.5209",
    "longitude": "-70.6901"
  },
  {
    "country_code": "CL",
    "zipcode": "9160000",
    "place": "Estación Central",
    "state": "Región Metropolitana",
    "state_code": "12",
    "province": "Provincia de Santiago",
    "province_code": "131",
    "community": "Estación Central",
    "community_code": "13106",
    "latitude": "-33.4645",
    "longitude": "-70.6986"
  },
  {
    "country_code": "CL",
    "zipcode": "9200000",
    "place": "Cerrillos",
    "state": "Región Metropolitana",
    "state_code": "12",
    "province": "Provincia de Santiago",
    "province_code": "131",
    "community": "Cerrillos",
    "community_code": "13102",
    "latitude": "-33.5003",
    "longitude": "-70.7174"
  },
  {
    "country_code": "CL",
    "zipcode": "9250000",
    "place": "Maipu",
    "state": "Región Metropolitana",
    "state_code": "12",
    "province": "Provincia de Santiago",
    "province_code": "131",
    "community": "Maipu",
    "community_code": "13119",
    "latitude": "-33.5066",
    "longitude": "-70.8123"
  },
  {
    "country_code": "CL",
    "zipcode": "8150000",
    "place": "Puente Alto",
    "state": "Región Metropolitana",
    "state_code": "12",
    "province": "Provincia de Cordillera",
    "province_code": "132",
    "community": "Puente Alto",
    "community_code": "13201",
    "latitude": "-33.591",
    "longitude": "-70.5575"
  },
  {
    "country_code": "CL",
    "zipcode": "9460000",
    "place": "San Jose De Maipo",
    "state": "Región Metropolitana",
    "state_code": "12",
    "province": "Provincia de Cordillera",
    "province_code": "132",
    "community": "San Jose De Maipo",
    "community_code": "13203",
    "latitude": "-33.7048",
    "longitude": "-70.0969"
  },
  {
    "country_code": "CL",
    "zipcode": "9480000",
    "place": "Pirque",
    "state": "Región Metropolitana",
    "state_code": "12",
    "province": "Provincia de Cordillera",
    "province_code": "132",
    "community": "Pirque",
    "community_code": "13202",
    "latitude": "-33.7187",
    "longitude": "-70.5066"
  },
  {
    "country_code": "CL",
    "zipcode": "9340000",
    "place": "Colina",
    "state": "Región Metropolitana",
    "state_code": "12",
    "province": "Provincia de Chacabuco",
    "province_code": "133",
    "community": "Colina",
    "community_code": "13301",
    "latitude": "-33.1342",
    "longitude": "-70.6157"
  },
  {
    "country_code": "CL",
    "zipcode": "9380000",
    "place": "Lampa",
    "state": "Región Metropolitana",
    "state_code": "12",
    "province": "Provincia de Chacabuco",
    "province_code": "133",
    "community": "Lampa",
    "community_code": "13302",
    "latitude": "-33.2778",
    "longitude": "-70.8748"
  },
  {
    "country_code": "CL",
    "zipcode": "9420000",
    "place": "Tiltil",
    "state": "Región Metropolitana",
    "state_code": "12",
    "province": "Provincia de Chacabuco",
    "province_code": "133",
    "community": "Tiltil",
    "community_code": "13303",
    "latitude": "-33.0624",
    "longitude": "-70.876"
  },
  {
    "country_code": "CL",
    "zipcode": "8050000",
    "place": "San Bernardo",
    "state": "Región Metropolitana",
    "state_code": "12",
    "province": "Provincia de Maipo",
    "province_code": "134",
    "community": "San Bernardo",
    "community_code": "13401",
    "latitude": "-33.6289",
    "longitude": "-70.7243"
  },
  {
    "country_code": "CL",
    "zipcode": "9500000",
    "place": "Buin",
    "state": "Región Metropolitana",
    "state_code": "12",
    "province": "Provincia de Maipo",
    "province_code": "134",
    "community": "Buin",
    "community_code": "13402",
    "latitude": "-33.7481",
    "longitude": "-70.7393"
  },
  {
    "country_code": "CL",
    "zipcode": "9540000",
    "place": "Paine",
    "state": "Región Metropolitana",
    "state_code": "12",
    "province": "Provincia de Maipo",
    "province_code": "134",
    "community": "Paine",
    "community_code": "13404",
    "latitude": "-33.8637",
    "longitude": "-70.7581"
  },
  {
    "country_code": "CL",
    "zipcode": "9560000",
    "place": "Calera De Tango",
    "state": "Región Metropolitana",
    "state_code": "12",
    "province": "Provincia de Maipo",
    "province_code": "134",
    "community": "Calera De Tango",
    "community_code": "13403",
    "latitude": "-33.6234",
    "longitude": "-70.7904"
  },
  {
    "country_code": "CL",
    "zipcode": "9580000",
    "place": "Melipilla",
    "state": "Región Metropolitana",
    "state_code": "12",
    "province": "Provincia de Melipilla",
    "province_code": "135",
    "community": "Melipilla",
    "community_code": "13501",
    "latitude": "-33.7439",
    "longitude": "-71.194"
  },
  {
    "country_code": "CL",
    "zipcode": "9620000",
    "place": "María Pinto",
    "state": "Región Metropolitana",
    "state_code": "12",
    "province": "Provincia de Melipilla",
    "province_code": "135",
    "community": "María Pinto",
    "community_code": "13504",
    "latitude": "-33.4981",
    "longitude": "-71.2108"
  },
  {
    "country_code": "CL",
    "zipcode": "9630000",
    "place": "Curacaví",
    "state": "Región Metropolitana",
    "state_code": "12",
    "province": "Provincia de Melipilla",
    "province_code": "135",
    "community": "Curacaví",
    "community_code": "13503",
    "latitude": "-33.3664",
    "longitude": "-71.0802"
  },
  {
    "country_code": "CL",
    "zipcode": "9650000",
    "place": "Alhue",
    "state": "Región Metropolitana",
    "state_code": "12",
    "province": "Provincia de Melipilla",
    "province_code": "135",
    "community": "Alhue",
    "community_code": "13502",
    "latitude": "-34.043",
    "longitude": "-71.0566"
  },
  {
    "country_code": "CL",
    "zipcode": "9660000",
    "place": "San Pedro",
    "state": "Región Metropolitana",
    "state_code": "12",
    "province": "Provincia de Melipilla",
    "province_code": "135",
    "community": "San Pedro",
    "community_code": "13505",
    "latitude": "-33.9318",
    "longitude": "-71.4529"
  },
  {
    "country_code": "CL",
    "zipcode": "9670000",
    "place": "Talagante",
    "state": "Región Metropolitana",
    "state_code": "12",
    "province": "Provincia de Talagante",
    "province_code": "136",
    "community": "Talagante",
    "community_code": "13601",
    "latitude": "-33.6823",
    "longitude": "-70.8951"
  },
  {
    "country_code": "CL",
    "zipcode": "9710000",
    "place": "Padre Hurtado",
    "state": "Región Metropolitana",
    "state_code": "12",
    "province": "Provincia de Talagante",
    "province_code": "136",
    "community": "Padre Hurtado",
    "community_code": "13604",
    "latitude": "-33.5572",
    "longitude": "-70.8708"
  },
  {
    "country_code": "CL",
    "zipcode": "9750000",
    "place": "Peñaflor",
    "state": "Región Metropolitana",
    "state_code": "12",
    "province": "Provincia de Talagante",
    "province_code": "136",
    "community": "Peñaflor",
    "community_code": "13605",
    "latitude": "-33.6109",
    "longitude": "-70.894"
  },
  {
    "country_code": "CL",
    "zipcode": "9790000",
    "place": "Isla De Maipo",
    "state": "Región Metropolitana",
    "state_code": "12",
    "province": "Provincia de Talagante",
    "province_code": "136",
    "community": "Isla De Maipo",
    "community_code": "13603",
    "latitude": "-33.7485",
    "longitude": "-70.9457"
  },
  {
    "country_code": "CL",
    "zipcode": "9810000",
    "place": "El Monte",
    "state": "Región Metropolitana",
    "state_code": "12",
    "province": "Provincia de Talagante",
    "province_code": "136",
    "community": "El Monte",
    "community_code": "13602",
    "latitude": "-33.6671",
    "longitude": "-71.0324"
  },
  {
    "country_code": "CL",
    "zipcode": "5480000",
    "place": "Puerto Montt",
    "state": "Región de los Lagos",
    "state_code": "14",
    "province": "Provincia de Llanquihue",
    "province_code": "101",
    "community": "Puerto Montt",
    "community_code": "10101",
    "latitude": "-41.4892",
    "longitude": "-72.7953"
  },
  {
    "country_code": "CL",
    "zipcode": "5550000",
    "place": "Puerto Varas",
    "state": "Región de los Lagos",
    "state_code": "14",
    "province": "Provincia de Llanquihue",
    "province_code": "101",
    "community": "Puerto Varas",
    "community_code": "10109",
    "latitude": "-41.1914",
    "longitude": "-72.3881"
  },
  {
    "country_code": "CL",
    "zipcode": "5560000",
    "place": "Cochamo",
    "state": "Región de los Lagos",
    "state_code": "14",
    "province": "Provincia de Llanquihue",
    "province_code": "101",
    "community": "Cochamo",
    "community_code": "10103",
    "latitude": "-41.7611",
    "longitude": "-72.0929"
  },
  {
    "country_code": "CL",
    "zipcode": "5570000",
    "place": "Calbuco",
    "state": "Región de los Lagos",
    "state_code": "14",
    "province": "Provincia de Llanquihue",
    "province_code": "101",
    "community": "Calbuco",
    "community_code": "10102",
    "latitude": "-41.7231",
    "longitude": "-73.1951"
  },
  {
    "country_code": "CL",
    "zipcode": "5580000",
    "place": "Maullín",
    "state": "Región de los Lagos",
    "state_code": "14",
    "province": "Provincia de Llanquihue",
    "province_code": "101",
    "community": "Maullín",
    "community_code": "10108",
    "latitude": "-41.6324",
    "longitude": "-73.5083"
  },