<?xml version="1.0" encoding="UTF-8"?>
<zipcodes>
  <object>
    <country_code>RS</country_code>
    <zipcode>11000</zipcode>
    <place>Beograd</place>
    <state></state>
    <state_code></state_code>
    <province></province>
    <province_code></province_code>
    <community></community>
    <community_code></community_code>
    <latitude>44.804</latitude>
    <longitude>20.4651</longitude>
  </object>
  <object>
    <country_code>RS</country_code>
    <zipcode>11031</zipcode>
    <place>Brograd</place>
    <state></state>
    <state_code></state_code>
    <province></province>
    <province_code></province_code>
    <community></community>
    <community_code></community_code>
    <latitude>44.8249</latitude>
    <longitude>20.4331</longitude>
  </object>
  <object>
    <country_code>RS</country_code>
    <zipcode>11080</zipcode>
    <place>Zemun</place>
    <state></state>
    <state_code></state_code>
    <province></province>
    <province_code></province_code>
    <community></community>
    <community_code></community_code>
    <latitude>44.8458</latitude>
    <longitude>20.4012</longitude>
  </object>
  <object>
    <country_code>RS</country_code>
    <zipcode>11130</zipcode>
    <place>Kaluđerica</place>
    <state></state>
    <state_code></state_code>
    <province></province>
    <province_code></province_code>
    <community></community>
    <community_code></community_code>
    <latitude>44.7542</latitude>
    <longitude>20.5541</longitude>
  </object>
  <object>
    <country_code>RS</country_code>
    <zipcode>11194</zipcode>
    <place>Rušanj</place>
    <state></state>
    <state_code></state_code>
    <province></province>
    <province_code></province_code>
    <community></community>
    <community_code></community_code>
    <latitude>44.6848</latitude>
    <longitude>20.4499</longitude>
  </object>
  <object>
    <country_code>RS</country_code>
    <zipcode>11211</zipcode>
    <place>Borča</place>
    <state></state>
    <state_code></state_code>
    <province></province>
    <province_code></province_code>
    <community></community>
    <community_code></community_code>
    <latitude>44.8697</latitude>
    <longitude>20.4541</longitude>
  </object>
  <object>
    <country_code>RS</country_code>
    <zipcode>11212</zipcode>
    <place>Ovča</place>
    <state></state>
    <state_code></state_code>
    <province></province>
    <province_code></province_code>
    <community></community>
    <community_code></community_code>
    <latitude>44.8835</latitude>
    <longitude>20.5334</longitude>
  </object>
  <object>
    <country_code>RS</country_code>
    <zipcode>11213</zipcode>
    <place>Padinska Skela</place>
    <state></state>
    <state_code></state_code>
    <province></province>
    <province_code></province_code>
    <community></community>
    <community_code></community_code>
    <latitude>44.9429</latitude>
    <longitude>20.4255</longitude>
  </object>
  <object>
    <country_code>RS</country_code>
    <zipcode>11215</zipcode>
    <place>Slanci</place>
    <state></state>
    <state_code></state_code>
    <province></province>
    <province_code></province_code>
    <community></community>
    <community_code></community_code>
    <latitude>44.8077</latitude>
    <longitude>20.5718</longitude>
  </object>
  <object>
    <country_code>RS</country_code>
    <zipcode>11223</zipcode>
    <place>Beli Potok</place>
    <state></state>
    <state_code></state_code>
    <province></province>
    <province_code></province_code>
    <community></community>
    <community_code></community_code>
    <latitude>44.7063</latitude>
    <longitude>20.5177</longitude>
  </object>
  <object>
    <country_code>RS</country_code>
    <zipcode>11224</zipcode>
    <place>Vrčin</place>
    <state></state>
    <state_code></state_code>
    <province></province>
    <province_code></province_code>
    <community></community>
    <community_code></community_code>
    <latitude>44.6685</latitude>
    <longitude>20.5933</longitude>
  </object>
  <object>
    <country_code>RS</country_code>
    <zipcode>11225</zipcode>
    <place>Zuce</place>
    <state></state>
    <state_code></state_code>
    <province></province>
    <province_code></province_code>
    <community></community>
    <community_code></community_code>
    <latitude>44.6981</latitude>
    <longitude>20.5552</longitude>
  </object>
  <object>
    <country_code>RS</country_code>
    <zipcode>11226</zipcode>
    <place>Pinosava</place>
    <state></state>
    <state_code></state_code>
    <province></province>
    <province_code></province_code>
    <community></community>
    <community_code></community_code>
    <latitude>44.6954</latitude>
    <longitude>20.483</longitude>
  </object>
  <object>
    <country_code>RS</country_code>
    <zipcode>11232</zipcode>
    <place>Ripanj</place>
    <state></state>
    <state_code></state_code>
    <province></province>
    <province_code></province_code>
    <community></community>
    <community_code></community_code>
    <latitude>44.6386</latitude>
    <longitude>20.5214</longitude>
  </object>
  <object>
    <country_code>RS</country_code>
    <zipcode>11233</zipcode>
    <place>Ralja</place>
    <state></state>
    <state_code></state_code>
    <province></province>
    <province_code></province_code>
    <community></community>
    <community_code></community_code>
    <latitude>44.5722</latitude>
    <longitude>20.5622</longitude>
  </object>
  <object>
    <country_code>RS</country_code>
    <zipcode>11235</zipcode>
    <place>Mali Požarevac</place>
    <state></state>
    <state_code></state_code>
    <province></province>
    <province_code></province_code>
    <community></community>
    <community_code></community_code>
    <latitude>44.5633</latitude>
    <longitude>20.6543</longitude>
  </object>
  <object>
    <country_code>RS</country_code>
    <zipcode>11251</zipcode>
    <place>Ostružnica</place>
    <state></state>
    <state_code></state_code>
    <province></province>
    <province_code></province_code>
    <community></community>
    <community_code></community_code>
    <latitude>44.7277</latitude>
    <longitude>20.3185</longitude>
  </object>
  <object>
    <country_code>RS</country_code>
    <zipcode>11253</zipcode>
    <place>Sremčica</place>
    <state></state>
    <state_code></state_code>
    <province></province>
    <province_code></province_code>
    <community></community>
    <community_code></community_code>
    <latitude>44.6765</latitude>
    <longitude>20.3923</longitude>
  </object>
  <object>
    <country_code>RS</country_code>
    <zipcode>11260</zipcode>
    <place>Umka</place>
    <state></state>
    <state_code></state_code>
    <province></province>
    <province_code></province_code>
    <community></community>
    <community_code></community_code>
    <latitude>44.6781</latitude>
    <longitude>20.3047</longitude>
  </object>
  <object>
    <country_code>RS</country_code>
    <zipcode>11261</zipcode>
    <place>Mala Moštanica</place>
    <state></state>
    <state_code></state_code>
    <province></province>
    <province_code></province_code>
    <community></community>
    <community_code></community_code>
    <latitude>44.6383</latitude>
    <longitude>20.306</longitude>
  </object>
  <object>
    <country_code>RS</country_code>
    <zipcode>11262</zipcode>
    <place>Velika Moštanica</place>
    <state></state>
    <state_code></state_code>
    <province></province>
    <province_code></province_code>
    <community></community>
    <community_code></community_code>
    <latitude>44.6649</latitude>
    <longitude>20.3539</longitude>
  </object>
  <object>
    <country_code>RS</country_code>
    <zipcode>11271</zipcode>
    <place>Surčin</place>
    <state></state>
    <state_code></state_code>
    <province></province>
    <province_code></province_code>
    <community></community>
    <community_code></community_code>
    <latitude>44.7931</latitude>
    <longitude>20.2803</longitude>
  </object>
  <object>
    <country_code>RS</country_code>
    <zipcode>11272</zipcode>
    <place>Dobanovci</place>
    <state></state>
    <state_code></state_code>
    <province></province>
    <province_code></province_code>
    <community></community>
    <community_code></community_code>
    <latitude>44.8263</latitude>
    <longitude>20.2249</longitude>
  </object>
  <object>
    <country_code>RS</country_code>
    <zipcode>11275</zipcode>
    <place>Boljevci</place>
    <state></state>
    <state_code></state_code>
    <province></province>
    <province_code></province_code>
    <community></community>
    <community_code></community_code>
    <latitude>44.7235</latitude>
    <longitude>20.2235</longitude>
  </object>
  <object>
    <country_code>RS</country_code>
    <zipcode>11276</zipcode>
    <place>Jakovo</place>
    <state></state>
    <state_code></state_code>
    <province></province>
    <province_code></province_code>
    <community></community>
    <community_code></community_code>
    <latitude>44.7537</latitude>
    <longitude>20.2601</longitude>
  </object>
  <object>
    <country_code>RS</country_code>
    <zipcode>11277</zipcode>
    <place>Ugrinovci</place>
    <state></state>
    <state_code></state_code>
    <province></province>
    <province_code></province_code>
    <community></community>
    <community_code></community_code>
    <latitude>44.8763</latitude>
    <longitude>20.1876</longitude>
  </object>
  <object>
    <country_code>RS</country_code>
    <zipcode>11279</zipcode>
    <place>Bečmen</place>
    <state></state>
    <state_code></state_code>
    <province></province>
    <province_code></province_code>
    <community></community>
    <community_code></community_code>
    <latitude>44.7798</latitude>
    <longitude>20.2058</longitude>
  </object>
  <object>
    <country_code>RS</country_code>
    <zipcode>11280</zipcode>
    <place>Progar</place>
    <state></state>
    <state_code></state_code>
    <province></province>
    <province_code></province_code>
    <community></community>
    <community_code></community_code>
    <latitude>44.7174</latitude>
    <longitude>20.1605</longitude>
  </object>
  <object>
    <country_code>RS</country_code>
    <zipcode>11283</zipcode>
    <place>Altina</place>
    <state></state>
    <state_code></state_code>
    <province></province>
    <province_code></province_code>
    <community></community>
    <community_code></community_code>
    <latitude>44.7174</latitude>
    <longitude>20.1605</longitude>
  </object>
  <object>
    <country_code>RS</country_code>
    <zipcode>11300</zipcode>
    <place>Smederevo</place>
    <state></state>
    <state_code></state_code>
    <province></province>
    <province_code></province_code>
    <community></community>
    <community_code></community_code>
    <latitude>44.6644</latitude>
    <longitude>20.9276</longitude>
  </object>
  <object>
    <country_code>RS</country_code>
    <zipcode>11306</zipcode>
    <place>Grocka</place>
    <state></state>
    <state_code></state_code>
    <province></province>
    <province_code></province_code>
    <community></community>
    <community_code></community_code>
    <latitude>44.6715</latitude>
    <longitude>20.7165</longitude>
  </object>
  <object>
    <country_code>RS</country_code>
    <zipcode>11307</zipcode>
    <place>Boleč</place>
    <state></state>
    <state_code></state_code>
    <province></province>
    <province_code></province_code>
    <community></community>
    <community_code></community_code>
    <latitude>44.7265</latitude>
    <longitude>20.6064</longitude>
  </object>
  <object>
    <country_code>RS</country_code>
    <zipcode>11308</zipcode>
    <place>Begaljica</place>
    <state></state>
    <state_code></state_code>
    <province></province>
    <province_code></province_code>
    <community></community>
    <community_code></community_code>
    <latitude>44.6336</latitude>
    <longitude>20.695</longitude>
  </object>
  <object>
    <country_code>RS</country_code>
    <zipcode>11309</zipcode>
    <place>Leštane</place>
    <state></state>
    <state_code></state_code>
    <province></province>
    <province_code></province_code>
    <community></community>
    <community_code></community_code>
    <latitude>44.7312</latitude>
    <longitude>20.5757</longitude>
  </object>
  <object>
    <country_code>RS</country_code>
    <zipcode>11310</zipcode>
    <place>Lipe</place>
    <state></state>
    <state_code></state_code>
    <province></province>
    <province_code></province_code>
    <community></community>
    <community_code></community_code>
    <latitude>44.641</latitude>
    <longitude>20.9999</longitude>
  </object>
  <object>
    <country_code>RS</country_code>
    <zipcode>11311</zipcode>
    <place>Radinac</place>
    <state></state>
    <state_code></state_code>
    <province></province>
    <province_code></province_code>
    <community></community>
    <community_code></community_code>
    <latitude>44.6273</latitude>
    <longitude>20.968</longitude>
  </object>
  <object>
    <country_code>RS</country_code>
    <zipcode>11312</zipcode>
    <place>Mihajlovac</place>
    <state></state>
    <state_code></state_code>
    <province></province>
    <province_code></province_code>
    <community></community>
    <community_code></community_code>
    <latitude>44.5438</latitude>
    <longitude>20.9732</longitude>
  </object>
  <object>
    <country_code>RS</country_code>
    <zipcode>11313</zipcode>
    <place>Mala Krsna</place>
    <state></state>
    <state_code></state_code>
    <province></province>
    <province_code></province_code>
    <community></community>
    <community_code></community_code>
    <latitude>44.5862</latitude>
    <longitude>21.0074</longitude>
  </object>
  <object>
    <country_code>RS</country_code>
    <zipcode>11314</zipcode>
    <place>Osipaonica</place>
    <state></state>
    <state_code></state_code>
    <province></province>
    <province_code></province_code>
    <community></community>
    <community_code></community_code>
    <latitude>44.5461</latitude>
    <longitude>21.0548</longitude>
  </object>
  <object>
    <country_code>RS</country_code>
    <zipcode>11315</zipcode>
    <place>Saraorci</place>
    <state></state>
    <state_code></state_code>
    <province></province>
    <province_code></province_code>
    <community></community>
    <community_code></community_code>
    <latitude>44.4905</latitude>
    <longitude>21.0816</longitude>
  </object>
  <object>
    <country_code>RS</country_code>
    <zipcode>11316</zipcode>
    <place>Golobok</place>
    <state></state>
    <state_code></state_code>
    <province></province>
    <province_code></province_code>
    <community></community>
    <community_code></community_code>
    <latitude>44.4547</latitude>
    <longitude>21.0041</longitude>
  </object>
  <object>
    <country_code>RS</country_code>
    <zipcode>11317</zipcode>
    <place>Lozovik</place>
    <state></state>
    <state_code></state_code>
    <province></province>
    <province_code></province_code>
    <community></community>
    <community_code></community_code>
    <latitude>44.4673</latitude>
    <longitude>21.1015</longitude>
  </object>
  <object>
    <country_code>RS</country_code>
    <zipcode>11318</zipcode>
    <place>Miloševac</place>
    <state></state>
    <state_code></state_code>
    <province></province>
    <province_code></province_code>
    <community></community>
    <community_code></community_code>
    <latitude>44.4411</latitude>
    <longitude>21.1108</longitude>
  </object>
  <object>
    <country_code>RS</country_code>
    <zipcode>11319</zipcode>
    <place>Krnjevo</place>
    <state></state>
    <state_code></state_code>
    <province></province>
    <province_code></province_code>
    <community></community>
    <community_code></community_code>
    <latitude>44.4093</latitude>
    <longitude>21.0476</longitude>
  </object>
  <object>
    <country_code>RS</country_code>
    <zipcode>11320</zipcode>
    <place>Velika Plana</place>
    <state></state>
    <state_code></state_code>
    <province></province>
    <province_code></province_code>
    <community></community>
    <community_code></community_code>
    <latitude>44.3339</latitude>
    <longitude>21.0768</longitude>
  </object>
  <object>
    <country_code>RS</country_code>
    <zipcode>11321</zipcode>
    <place>Lugavčina</place>
    <state></state>
    <state_code></state_code>
    <province></province>
    <province_code></province_code>
    <community></community>
    <community_code></community_code>
    <latitude>44.5231</latitude>
    <longitude>21.0708</longitude>
  </object>
  <object>
    <country_code>RS</country_code>
    <zipcode>11322</zipcode>
    <place>Skobalj</place>
    <state></state>
    <state_code></state_code>
    <province></province>
    <province_code></province_code>
    <community></community>
    <community_code></community_code>
    <latitude>44.5646</latitude>
    <longitude>21.0331</longitude>
  </object>
  <object>
    <country_code>RS</country_code>
    <zipcode>11323</zipcode>
    <place>Veliko Orašje</place>
    <state></state>
    <state_code></state_code>
    <province></province>
    <province_code></province_code>
    <community></community>
    <community_code></community_code>
    <latitude>44.3711</latitude>
    <longitude>21.0879</longitude>
  </object>
  <object>
    <country_code>RS</country_code>
    <zipcode>11324</zipcode>
    <place>Staro Selo</place>
    <state></state>
    <state_code></state_code>
    <province></province>
    <province_code></province_code>
    <community></community>
    <community_code></community_code>
    <latitude>44.2943</latitude>
    <longitude>21.0887</longitude>
  </object>
  <object>
    <country_code>RS</country_code>
    <zipcode>11325</zipcode>
    <place>Markovac</place>
    <state></state>
    <state_code></state_code>
    <province></province>
    <province_code></province_code>
    <community></community>
    <community_code></community_code>
    <latitude>44.2388</latitude>
    <longitude>21.1071</longitude>
  </object>
  <object>
    <country_code>RS</country_code>
    <zipcode>11328</zipcode>
    <place>Vodanj</place>
    <state></state>
    <state_code></state_code>
    <province></province>
    <province_code></province_code>
    <community></community>
    <community_code></community_code>
    <latitude>44.6096</latitude>
    <longitude>20.8526</longitude>
  </object>
  <object>
    <country_code>RS</country_code>
    <zipcode>11329</zipcode>
    <place>Vranovo</place>
    <state></state>
    <state_code></state_code>
    <province></province>
    <province_code></province_code>
    <community></community>
    <community_code></community_code>
    <latitude>44.601</latitude>
    <longitude>20.9945</longitude>
  </object>
  <object>
    <country_code>RS</country_code>
    <zipcode>11351</zipcode>
    <place>Vinča</place>
    <state></state>
    <state_code></state_code>
    <province></province>
    <province_code></province_code>
    <community></community>
    <community_code></community_code>
    <latitude>44.7626</latitude>
    <longitude>20.6216</longitude>
  </object>
  <object>
    <country_code>RS</country_code>
    <zipcode>11400</zipcode>
    <place>Mladenovac</place>
    <state></state>
    <state_code></state_code>
    <province></province>
    <province_code></province_code>
    <community></community>
    <community_code></community_code>
    <latitude>44.4386</latitude>
    <longitude>20.6992</longitude>
  </object>
  <object>
    <country_code>RS</country_code>
    <zipcode>11405</zipcode>
    <place>Međulužje</place>
    <state></state>
    <state_code></state_code>
    <province></province>
    <province_code></province_code>
    <community></community>
    <community_code></community_code>
    <latitude>44.4092</latitude>
    <longitude>20.6893</longitude>
  </object>
  <object>
    <country_code>RS</country_code>
    <zipcode>11406</zipcode>
    <place>Vlaška</place>
    <state></state>
    <state_code></state_code>
    <province></province>
    <province_code></province_code>
    <community></community>
    <community_code></community_code>
    <latitude>44.5003</latitude>
    <longitude>20.6873</longitude>
  </object>
  <object>
    <country_code>RS</country_code>
    <zipcode>11407</zipcode>
    <place>Selevac</place>
    <state></state>
    <state_code></state_code>
    <province></province>
    <province_code></province_code>
    <community></community>
    <community_code></community_code>
    <latitude>44.4953</latitude>
    <longitude>20.873</longitude>
  </object>
  <object>
    <country_code>RS</country_code>
    <zipcode>11408</zipcode>
    <place>Velika Krsna</place>
    <state></state>
    <state_code></state_code>
    <province></province>
    <province_code></province_code>
    <community></community>
    <community_code></community_code>
    <latitude>44.4784</latitude>
    <longitude>20.8052</longitude>
  </object>
  <object>
    <country_code>RS</country_code>
    <zipcode>11409</zipcode>
    <place>Kovačevac</place>
    <state></state>
    <state_code></state_code>
    <province></province>
    <province_code></province_code>
    <community></community>
    <community_code></community_code>
    <latitude>44.44</latitude>
    <longitude>20.74</longitude>
  </object>
  <object>
    <country_code>RS</country_code>
    <zipcode>11411</zipcode>
    <place>Ratari</place>
    <state></state>
    <state_code></state_code>
    <province></province>
    <province_code></province_code>
    <community></community>
    <community_code></community_code>
    <latitude>44.3537</latitude>
    <longitude>20.8298</longitude>
  </object>
  <object>
    <country_code>RS</country_code>
    <zipcode>11412</zipcode>
    <place>Jagnjilo</place>
    <state></state>
    <state_code></state_code>
    <province></province>
    <province_code></province_code>
    <community></community>
    <community_code></community_code>
    <latitude>44.3774</latitude>
    <longitude>20.7294</longitude>
  </object>
  <object>
    <country_code>RS</country_code>
    <zipcode>11413</zipcode>
    <place>Pružatovac</place>
    <state></state>
    <state_code></state_code>
    <province></province>
    <province_code></province_code>
    <community></community>
    <community_code></community_code>
    <latitude>44.4179</latitude>
    <longitude>20.6279</longitude>
  </object>
  <object>
    <country_code>RS</country_code>
    <zipcode>11414</zipcode>
    <place>Velika Ivanča</place>
    <state></state>
    <state_code></state_code>
    <province></province>
    <province_code></province_code>
    <community></community>
    <community_code></community_code>
    <latitude>44.4264</latitude>
    <longitude>20.5803</longitude>
  </object>
  <object>
    <country_code>RS</country_code>
    <zipcode>11415</zipcode>
    <place>Koraćica</place>
    <state></state>
    <state_code></state_code>
    <province></province>
    <province_code></province_code>
    <community></community>
    <community_code></community_code>
    <latitude>44.451</latitude>
    <longitude>20.6201</longitude>
  </object>
  <object>
    <country_code>RS</country_code>
    <zipcode>11420</zipcode>
    <place>Smederevska Palanka</place>
    <state></state>
    <state_code></state_code>
    <province></province>
    <province_code></province_code>
    <community></community>
    <community_code></community_code>
    <latitude>44.3655</latitude>
    <longitude>20.9588</longitude>
  </object>
  <object>
    <country_code>RS</country_code>
    <zipcode>11423</zipcode>
    <place>Azanja</place>
    <state></state>
    <state_code></state_code>
    <province></province>
    <province_code></province_code>
    <community></community>
    <community_code></community_code>
    <latitude>44.4331</latitude>
    <longitude>20.8797</longitude>
  </object>
  <object>
    <country_code>RS</country_code>
    <zipcode>11425</zipcode>
    <place>Kusadak</place>
    <state></state>
    <state_code></state_code>
    <province></province>
    <province_code></province_code>
    <community></community>
    <community_code></community_code>
    <latitude>44.4002</latitude>
    <longitude>20.805</longitude>
  </object>
  <object>
    <country_code>RS</country_code>
    <zipcode>11426</zipcode>
    <place>Meljak</place>
    <state></state>
    <state_code></state_code>
    <province></province>
    <province_code></province_code>
    <community></community>
    <community_code></community_code>
    <latitude>44.6231</latitude>
    <longitude>20.3692</longitude>
  </object>
  <object>
    <country_code>RS</country_code>
    <zipcode>11427</zipcode>
    <place>Vranić</place>
    <state></state>
    <state_code></state_code>
    <province></province>
    <province_code></province_code>
    <community></community>
    <community_code></community_code>
    <latitude>44.6024</latitude>
    <longitude>20.3287</longitude>
  </object>
  <object>
    <country_code>RS</country_code>
    <zipcode>11430</zipcode>
    <place>Umčari</place>
    <state></state>
    <state_code></state_code>
    <province></province>
    <province_code></province_code>
    <community></community>
    <community_code></community_code>
    <latitude>44.5836</latitude>
    <longitude>20.7342</longitude>
  </object>
  <object>
    <country_code>RS</country_code>
    <zipcode>11431</zipcode>
    <place>Kolari</place>
    <state></state>
    <state_code></state_code>
    <province></province>
    <province_code></province_code>
    <community></community>
    <community_code></community_code>
    <latitude>44.5843</latitude>
    <longitude>20.9014</longitude>
  </object>
  <object>
    <country_code>RS</country_code>
    <zipcode>11432</zipcode>
    <place>Drugovac</place>
    <state></state>
    <state_code></state_code>
    <province></province>
    <province_code></province_code>
    <community></community>
    <community_code></community_code>
    <latitude>44.5461</latitude>
    <longitude>20.8316</longitude>
  </object>
  <object>
    <country_code>RS</country_code>
    <zipcode>11433</zipcode>
    <place>Šepšin</place>
    <state></state>
    <state_code></state_code>
    <province></province>
    <province_code></province_code>
    <community></community>
    <community_code></community_code>
    <latitude>44.5414</latitude>
    <longitude>20.7045</longitude>
  </object>
  <object>
    <country_code>RS</country_code>
    <zipcode>11450</zipcode>
    <place>Sopot</place>
    <state></state>
    <state_code></state_code>
    <province></province>
    <province_code></province_code>
    <community></community>
    <community_code></community_code>
    <latitude>44.5197</latitude>
    <longitude>20.5736</longitude>
  </object>
  <object>
    <country_code>RS</country_code>
    <zipcode>11453</zipcode>
    <place>Rogača (Sopot)</place>
    <state></state>
    <state_code></state_code>
    <province></province>
    <province_code></province_code>
    <community></community>
    <community_code></community_code>
    <latitude>44.492</latitude>
    <longitude>20.5135</longitude>
  </object>
  <object>
    <country_code>RS</country_code>
    <zipcode>11454</zipcode>
    <place>Sibnica</place>
    <state></state>
    <state_code></state_code>
    <province></province>
    <province_code></province_code>
    <community></community>
    <community_code></community_code>
    <latitude>44.4644</latitude>
    <longitude>20.4533</longitude>
  </object>
  <object>
    <country_code>RS</country_code>
    <zipcode>11460</zipcode>
    <place>Barajevo</place>
    <state></state>
    <state_code></state_code>
    <province></province>
    <province_code></province_code>
    <community></community>
    <community_code></community_code>
    <latitude>44.6089</latitude>
    <longitude>20.4547</longitude>
  </object>
  <object>
    <country_code>RS</country_code>
    <zipcode>11461</zipcode>
    <place>Beljina</place>
    <state></state>
    <state_code></state_code>
    <province></province>
    <province_code></province_code>
    <community></community>
    <community_code></community_code>
    <latitude>44.5153</latitude>
    <longitude>20.406</longitude>
  </object>
  <object>
    <country_code>RS</country_code>
    <zipcode>11462</zipcode>
    <place>Veliki Borak</place>
    <state></state>
    <state_code></state_code>
    <province></province>
    <province_code></province_code>
    <community></community>
    <community_code></community_code>
    <latitude>44.5394</latitude>
    <longitude>20.3505</longitude>
  </object>
  <object>
    <country_code>RS</country_code>
    <zipcode>11467</zipcode>
    <place>Banatski Dvor</place>
    <state></state>
    <state_code></state_code>
    <province></province>
    <province_code></province_code>
    <community></community>
    <community_code></community_code>
    <latitude>44.5545</latitude>
    <longitude>20.4037</longitude>
  </object>
  <object>
    <country_code>RS</country_code>
    <zipcode>11500</zipcode>
    <place>Obrenovac</place>
    <state></state>
    <state_code></state_code>
    <province></province>
    <province_code></province_code>
    <community></community>
    <community_code></community_code>
    <latitude>44.6549</latitude>
    <longitude>20.2002</longitude>
  </object>
  <object>
    <country_code>RS</country_code>
    <zipcode>11504</zipcode>
    <place>Barič</place>
    <state></state>
    <state_code></state_code>
    <province></province>
    <province_code></province_code>
    <community></community>
    <community_code></community_code>
    <latitude>44.6507</latitude>
    <longitude>20.2594</longitude>
  </object>
  <object>
    <country_code>RS</country_code>
    <zipcode>11505</zipcode>
    <place>Zabrežje</place>
    <state></state>
    <state_code></state_code>
    <province></province>
    <province_code></province_code>
    <community></community>
    <community_code></community_code>
    <latitude>44.6825</latitude>
    <longitude>20.2025</longitude>
  </object>
  <object>
    <country_code>RS</country_code>
    <zipcode>11506</zipcode>
    <place>Draževac</place>
    <state></state>
    <state_code></state_code>
    <province></province>
    <province_code></province_code>
    <community></community>
    <community_code></community_code>
    <latitude>44.5958</latitude>
    <longitude>20.2217</longitude>
  </object>
  <object>
    <country_code>RS</country_code>
    <zipcode>11507</zipcode>
    <place>Stubline</place>
    <state></state>
    <state_code></state_code>
    <province></province>
    <province_code></province_code>
    <community></community>
    <community_code></community_code>
    <latitude>44.5748</latitude>
    <longitude>20.1348</longitude>
  </object>
  <object>
    <country_code>RS</country_code>
    <zipcode>11508</zipcode>
    <place>Grabovac</place>
    <state></state>
    <state_code></state_code>
    <province></province>
    <province_code></province_code>
    <community></community>
    <community_code></community_code>
    <latitude>44.6005</latitude>
    <longitude>20.0854</longitude>
  </object>
  <object>
    <country_code>RS</country_code>
    <zipcode>11509</zipcode>
    <place>Skela</place>
    <state></state>
    <state_code></state_code>
    <province></province>
    <province_code></province_code>
    <community></community>
    <community_code></community_code>
    <latitude>44.682</latitude>
    <longitude>20.0576</longitude>
  </object>
  <object>
    <country_code>RS</country_code>
    <zipcode>11550</zipcode>
    <place>Lazarevac</place>
    <state></state>
    <state_code></state_code>
    <province></province>
    <province_code></province_code>
    <community></community>
    <community_code></community_code>
    <latitude>44.3853</latitude>
    <longitude>20.2557</longitude>
  </object>
  <object>
    <country_code>RS</country_code>
    <zipcode>11560</zipcode>
    <place>Vreoci</place>
    <state></state>
    <state_code></state_code>
    <province></province>
    <province_code></province_code>
    <community></community>
    <community_code></community_code>
    <latitude>44.4434</latitude>
    <longitude>20.282</longitude>
  </object>
  <object>
    <country_code>RS</country_code>
    <zipcode>11561</zipcode>
    <place>Dudovica</place>
    <state></state>
    <state_code></state_code>
    <province></province>
    <province_code></province_code>
    <community></community>
    <community_code></community_code>
    <latitude>44.2983</latitude>
    <longitude>20.2631</longitude>
  </object>
  <object>
    <country_code>RS</country_code>
    <zipcode>11562</zipcode>
    <place>Junkovac</place>
    <state></state>
    <state_code></state_code>
    <province></province>
    <province_code></province_code>
    <community></community>
    <community_code></community_code>
    <latitude>44.4496</latitude>
    <longitude>20.3492</longitude>
  </object>
  <object>
    <country_code>RS</country_code>
    <zipcode>11563</zipcode>
    <place>Veliki Crljeni</place>
    <state></state>
    <state_code></state_code>
    <province></province>
    <province_code></province_code>
    <community></community>
    <community_code></community_code>
    <latitude>44.4722</latitude>
    <longitude>20.2907</longitude>
  </object>
  <object>
    <country_code>RS</country_code>
    <zipcode>11564</zipcode>
    <place>Stepojevac</place>
    <state></state>
    <state_code></state_code>
    <province></province>
    <province_code></province_code>
    <community></community>
    <community_code></community_code>
    <latitude>44.5128</latitude>
    <longitude>20.295</longitude>
  </object>
  <object>
    <country_code>RS</country_code>
    <zipcode>11565</zipcode>
    <place>Baroševac</place>
    <state></state>
    <state_code></state_code>
    <province></province>
    <province_code></province_code>
    <community></community>
    <community_code></community_code>
    <latitude>44.3986</latitude>
    <longitude>20.3689</longitude>
  </object>
  <object>
    <country_code>RS</country_code>
    <zipcode>11566</zipcode>
    <place>Rudovci</place>
    <state></state>
    <state_code></state_code>
    <province></province>
    <province_code></province_code>
    <community></community>
    <community_code></community_code>
    <latitude>44.3736</latitude>
    <longitude>20.4123</longitude>
  </object>
  <object>
    <country_code>RS</country_code>
    <zipcode>11567</zipcode>
    <place>Mirosaljci</place>
    <state></state>
    <state_code></state_code>
    <province></province>
    <province_code></province_code>
    <community></community>
    <community_code></community_code>
    <latitude>44.4374</latitude>
    <longitude>20.4176</longitude>
  </object>
  <object>
    <country_code>RS</country_code>
    <zipcode>12000</zipcode>
    <place>Požarevac</place>
    <state></state>
    <state_code></state_code>
    <province></province>
    <province_code></province_code>
    <community></community>
    <community_code></community_code>
    <latitude>44.6213</latitude>
    <longitude>21.1878</longitude>
  </object>
  <object>
    <country_code>RS</country_code>
    <zipcode>12206</zipcode>
    <place>Bradarac</place>
    <state></state>
    <state_code></state_code>
    <province></province>
    <province_code></province_code>
    <community></community>
    <community_code></community_code>
    <latitude>44.69</latitude>
    <longitude>21.2282</longitude>
  </object>
  <object>
    <country_code>RS</country_code>
    <zipcode>12207</zipcode>
    <place>Dubravica</place>
    <state></state>
    <state_code></state_code>
    <province></province>
    <province_code></province_code>
    <community></community>
    <community_code></community_code>
    <latitude>44.6964</latitude>
    <longitude>21.0802</longitude>
  </object>
  <object>
    <country_code>RS</country_code>
    <zipcode>12208</zipcode>
    <place>Kostolac</place>
    <state></state>
    <state_code></state_code>
    <province></province>
    <province_code></province_code>
    <community></community>
    <community_code></community_code>
    <latitude>44.735</latitude>
    <longitude>21.1956</longitude>
  </object>
  <object>
    <country_code>RS</country_code>
    <zipcode>12209</zipcode>
    <place>Kličevac</place>
    <state></state>
    <state_code></state_code>
    <province></province>
    <province_code></province_code>
    <community></community>
    <community_code></community_code>
    <latitude>44.7593</latitude>
    <longitude>21.2904</longitude>
  </object>
  <object>
    <country_code>RS</country_code>
    <zipcode>12220</zipcode>
    <place>Veliko Gradište</place>
    <state></state>
    <state_code></state_code>
    <province></province>
    <province_code></province_code>
    <community></community>
    <community_code></community_code>
    <latitude>44.7633</latitude>
    <longitude>21.5165</longitude>
  </object>
  <object>
    <country_code>RS</country_code>
    <zipcode>12221</zipcode>
    <place>Majilovac</place>
    <state></state>
    <state_code></state_code>
    <province></province>
    <province_code></province_code>
    <community></community>
    <community_code></community_code>
    <latitude>44.6917</latitude>
    <longitude>21.362</longitude>
  </object>
  <object>
    <country_code>RS</country_code>
    <zipcode>12222</zipcode>
    <place>Braničevo</place>
    <state></state>
    <state_code></state_code>
    <province></province>
    <province_code></province_code>
    <community></community>
    <community_code></community_code>
    <latitude>44.705</latitude>
    <longitude>21.5383</longitude>
  </object>
  <object>
    <country_code>RS</country_code>
    <zipcode>12223</zipcode>
    <place>Golubac</place>
    <state></state>
    <state_code></state_code>
    <province></province>
    <province_code></province_code>
    <community></community>
    <community_code></community_code>
    <latitude>44.653</latitude>
    <longitude>21.632</longitude>
  </object>
  <object>
    <country_code>RS</country_code>
    <zipcode>12224</zipcode>
    <place>Dobra</place>
    <state></state>
    <state_code></state_code>
    <province></province>
    <province_code></province_code>
    <community></community>
    <community_code></community_code>
    <latitude>44.6357</latitude>
    <longitude>21.9085</longitude>
  </object>
  <object>
    <country_code>RS</country_code>
    <zipcode>12226</zipcode>
    <place>Topolovnik</place>
    <state></state>
    <state_code></state_code>
    <province></province>
    <province_code></province_code>
    <community></community>
    <community_code></community_code>
    <latitude>44.7197</latitude>
    <longitude>21.4423</longitude>
  </object>
  <object>
    <country_code>RS</country_code>
    <zipcode>12227</zipcode>
    <place>Bare</place>
    <state></state>
    <state_code></state_code>
    <province></province>
    <province_code></province_code>
    <community></community>
    <community_code></community_code>
    <latitude>44.6468</latitude>
    <longitude>21.3306</longitude>
  </object>
  <object>
    <country_code>RS</country_code>
    <zipcode>12229</zipcode>
    <place>Vinci</place>
    <state></state>
    <state_code></state_code>
    <province></province>
    <province_code></province_code>
    <community></community>
    <community_code></community_code>
    <latitude>44.711</latitude>
    <longitude>21.6061</longitude>
  </object>
  <object>
    <country_code>RS</country_code>
    <zipcode>12230</zipcode>
    <place>Brnjica</place>
    <state></state>
    <state_code></state_code>
    <province></province>
    <province_code></province_code>
    <community></community>
    <community_code></community_code>
    <latitude>44.6524</latitude>
    <longitude>21.7687</longitude>
  </object>
  <object>
    <country_code>RS</country_code>
    <zipcode>12240</zipcode>
    <place>Kučevo</place>
    <state></state>
    <state_code></state_code>
    <province></province>
    <province_code></province_code>
    <community></community>
    <community_code></community_code>
    <latitude>44.4775</latitude>
    <longitude>21.67</longitude>
  </object>
  <object>
    <country_code>RS</country_code>
    <zipcode>12242</zipcode>
    <place>Neresnica</place>
    <state></state>
    <state_code></state_code>
    <province></province>
    <province_code></province_code>
    <community></community>
    <community_code></community_code>
    <latitude>44.4425</latitude>
    <longitude>21.7262</longitude>
  </object>
  <object>
    <country_code>RS</country_code>
    <zipcode>12253</zipcode>
    <place>Srednjevo</place>
    <state></state>
    <state_code></state_code>
    <province></province>
    <province_code></province_code>
    <community></community>
    <community_code></community_code>
    <latitude>44.6449</latitude>
    <longitude>21.4893</longitude>
  </object>
  <object>
    <country_code>RS</country_code>
    <zipcode>12254</zipcode>
    <place>Rabrovo</place>
    <state></state>
    <state_code></state_code>
    <province></province>
    <province_code></province_code>
    <community></community>
    <community_code></community_code>
    <latitude>44.5764</latitude>
    <longitude>21.5138</longitude>
  </object>
  <object>
    <country_code>RS</country_code>
    <zipcode>12255</zipcode>
    <place>Duboka</place>
    <state></state>
    <state_code></state_code>
    <province></province>
    <province_code></province_code>
    <community></community>
    <community_code></community_code>
    <latitude>44.5222</latitude>
    <longitude>21.7603</longitude>
  </object>
  <object>
    <country_code>RS</country_code>
    <zipcode>12256</zipcode>
    <place>Voluja</place>
    <state></state>
    <state_code></state_code>
    <province></province>
    <province_code></province_code>
    <community></community>
    <community_code></community_code>
    <latitude>44.4915</latitude>
    <longitude>21.765</longitude>
  </object>
  <object>
    <country_code>RS</country_code>
    <zipcode>12257</zipcode>
    <place>Turija (Kučevo)</place>
    <state></state>
    <state_code></state_code>
    <province></province>
    <province_code></province_code>
    <community></community>
    <community_code></community_code>
    <latitude>44.5672</latitude>
    <longitude>21.6118</longitude>
  </object>
  <object>
    <country_code>RS</country_code>
    <zipcode>12258</zipcode>
    <place>Klenje</place>
    <state></state>
    <state_code></state_code>
    <province></province>
    <province_code></province_code>
    <community></community>
    <community_code></community_code>
    <latitude>44.6011</latitude>
    <longitude>21.5306</longitude>
  </object>
  <object>
    <country_code>RS</country_code>
    <zipcode>12300</zipcode>
    <place>Petrovac na Mlavi</place>
    <state></state>
    <state_code></state_code>
    <province></province>
    <province_code></province_code>
    <community></community>
    <community_code></community_code>
    <latitude>44.3367</latitude>
    <longitude>21.4466</longitude>
  </object>
  <object>
    <country_code>RS</country_code>
    <zipcode>12304</zipcode>
    <place>Kladurovo</place>
    <state></state>
    <state_code></state_code>
    <province></province>
    <province_code></province_code>
    <community></community>
    <community_code></community_code>
    <latitude>44.4369</latitude>
    <longitude>21.5441</longitude>
  </object>
  <object>
    <country_code>RS</country_code>
    <zipcode>12304</zipcode>
    <place>Ranovac</place>
    <state></state>
    <state_code></state_code>
    <province></province>
    <province_code></province_code>
    <community></community>
    <community_code></community_code>
    <latitude>44.4441</latitude>
    <longitude>21.4762</longitude>
  </object>
  <object>
    <country_code>RS</country_code>
    <zipcode>12305</zipcode>
    <place>Melnica</place>
    <state></state>
    <state_code></state_code>
    <province></province>
    <province_code></province_code>
    <community></community>
    <community_code></community_code>
    <latitude>44.3921</latitude>
    <longitude>21.5336</longitude>
  </object>
  <object>
    <country_code>RS</country_code>
    <zipcode>12306</zipcode>
    <place>Veliko Laole</place>
    <state></state>
    <state_code></state_code>
    <province></province>
    <province_code></province_code>
    <community></community>
    <community_code></community_code>
    <latitude>44.3195</latitude>
    <longitude>21.4312</longitude>
  </object>
  <object>
    <country_code>RS</country_code>
    <zipcode>12307</zipcode>
    <place>Burovac</place>
    <state></state>
    <state_code></state_code>
    <province></province>
    <province_code></province_code>
    <community></community>
    <community_code></community_code>
    <latitude>44.2728</latitude>
    <longitude>21.3578</longitude>
  </object>
  <object>
    <country_code>RS</country_code>
    <zipcode>12308</zipcode>
    <place>Oreškovica</place>
    <state></state>
    <state_code></state_code>
    <province></province>
    <province_code></province_code>
    <community></community>
    <community_code></community_code>
    <latitude>44.3171</latitude>
    <longitude>21.3251</longitude>
  </object>
  <object>
    <country_code>RS</country_code>
    <zipcode>12309</zipcode>
    <place>Vezičevo</place>
    <state></state>
    <state_code></state_code>
    <province></province>
    <province_code></province_code>
    <community></community>
    <community_code></community_code>
    <latitude>44.239</latitude>
    <longitude>21.4302</longitude>
  </object>
  <object>
    <country_code>RS</country_code>
    <zipcode>12309</zipcode>
    <place>Šetonje</place>
    <state></state>
    <state_code></state_code>
    <province></province>
    <province_code></province_code>
    <community></community>
    <community_code></community_code>
    <latitude>44.2723</latitude>
    <longitude>21.4744</longitude>
  </object>
  <object>
    <country_code>RS</country_code>
    <zipcode>12311</zipcode>
    <place>Malo Crniće</place>
    <state></state>
    <state_code></state_code>
    <province></province>
    <province_code></province_code>
    <community></community>
    <community_code></community_code>
    <latitude>44.5561</latitude>
    <longitude>21.2856</longitude>
  </object>
  <object>
    <country_code>RS</country_code>
    <zipcode>12312</zipcode>
    <place>Smoljinac</place>
    <state></state>
    <state_code></state_code>
    <province></province>
    <province_code></province_code>
    <community></community>
    <community_code></community_code>
    <latitude>44.6062</latitude>
    <longitude>21.3461</longitude>
  </object>
  <object>
    <country_code>RS</country_code>
    <zipcode>12313</zipcode>
    <place>Boževac</place>
    <state></state>
    <state_code></state_code>
    <province></province>
    <province_code></province_code>
    <community></community>
    <community_code></community_code>
    <latitude>44.5418</latitude>
    <longitude>21.3943</longitude>
  </object>
  <object>
    <country_code>RS</country_code>
    <zipcode>12315</zipcode>
    <place>Rašanac</place>
    <state></state>
    <state_code></state_code>
    <province></province>
    <province_code></province_code>
    <community></community>
    <community_code></community_code>
    <latitude>44.4609</latitude>
    <longitude>21.3623</longitude>
  </object>
  <object>
    <country_code>RS</country_code>
    <zipcode>12316</zipcode>
    <place>Krepoljin</place>
    <state></state>
    <state_code></state_code>
    <province></province>
    <province_code></province_code>
    <community></community>
    <community_code></community_code>
    <latitude>44.2627</latitude>
    <longitude>21.6045</longitude>
  </object>
  <object>
    <country_code>RS</country_code>
    <zipcode>12317</zipcode>
    <place>Osanica</place>
    <state></state>
    <state_code></state_code>
    <province></province>
    <province_code></province_code>
    <community></community>
    <community_code></community_code>
    <latitude>44.2813</latitude>
    <longitude>21.6677</longitude>
  </object>
  <object>
    <country_code>RS</country_code>
    <zipcode>12318</zipcode>
    <place>Vukovac</place>
    <state></state>
    <state_code></state_code>
    <province></province>
    <province_code></province_code>
    <community></community>
    <community_code></community_code>
    <latitude>44.259</latitude>
    <longitude>21.7383</longitude>
  </object>
  <object>
    <country_code>RS</country_code>
    <zipcode>12320</zipcode>
    <place>Žagubica</place>
    <state></state>
    <state_code></state_code>
    <province></province>
    <province_code></province_code>
    <community></community>
    <community_code></community_code>
    <latitude>44.1969</latitude>
    <longitude>21.7884</longitude>
  </object>
  <object>
    <country_code>RS</country_code>
    <zipcode>12321</zipcode>
    <place>Laznica</place>
    <state></state>
    <state_code></state_code>
    <province></province>
    <province_code></province_code>
    <community></community>
    <community_code></community_code>
    <latitude>44.2403</latitude>
    <longitude>21.81</longitude>
  </object>
  <object>
    <country_code>RS</country_code>
    <zipcode>12322</zipcode>
    <place>Suvi Do</place>
    <state></state>
    <state_code></state_code>
    <province></province>
    <province_code></province_code>
    <community></community>
    <community_code></community_code>
    <latitude>44.2086</latitude>
    <longitude>21.7275</longitude>
  </object>
  <object>
    <country_code>RS</country_code>
    <zipcode>12370</zipcode>
    <place>Aleksandrovac</place>
    <state></state>
    <state_code></state_code>
    <province></province>
    <province_code></province_code>
    <community></community>
    <community_code></community_code>
    <latitude>44.4492</latitude>
    <longitude>21.2131</longitude>
  </object>
  <object>
    <country_code>RS</country_code>
    <zipcode>12372</zipcode>
    <place>Poljana</place>
    <state></state>
    <state_code></state_code>
    <province></province>
    <province_code></province_code>
    <community></community>
    <community_code></community_code>
    <latitude>44.5322</latitude>
    <longitude>21.2026</longitude>
  </object>
  <object>
    <country_code>RS</country_code>
    <zipcode>12373</zipcode>
    <place>Simićevo</place>
    <state></state>
    <state_code></state_code>
    <province></province>
    <province_code></province_code>
    <community></community>
    <community_code></community_code>
    <latitude>44.3933</latitude>
    <longitude>21.2107</longitude>
  </object>
  <object>
    <country_code>RS</country_code>
    <zipcode>12374</zipcode>
    <place>Žabari</place>
    <state></state>
    <state_code></state_code>
    <province></province>
    <province_code></province_code>
    <community></community>
    <community_code></community_code>
    <latitude>44.3561</latitude>
    <longitude>21.215</longitude>
  </object>
  <object>
    <country_code>RS</country_code>
    <zipcode>12375</zipcode>
    <place>Porodin</place>
    <state></state>
    <state_code></state_code>
    <province></province>
    <province_code></province_code>
    <community></community>
    <community_code></community_code>
    <latitude>44.3171</latitude>
    <longitude>21.221</longitude>
  </object>
  <object>
    <country_code>RS</country_code>
    <zipcode>14000</zipcode>
    <place>Valjevo</place>
    <state></state>
    <state_code></state_code>
    <province></province>
    <province_code></province_code>
    <community></community>
    <community_code></community_code>
    <latitude>44.2751</latitude>
    <longitude>19.8982</longitude>
  </object>
  <object>
    <country_code>RS</country_code>
    <zipcode>14000</zipcode>
    <place>Lipljan</place>
    <state></state>
    <state_code></state_code>
    <province></province>
    <province_code></province_code>
    <community></community>
    <community_code></community_code>
    <latitude>44.2751</latitude>
    <longitude>19.8982</longitude>
  </object>
  <object>
    <country_code>RS</country_code>
    <zipcode>14201</zipcode>
    <place>Brankovina</place>
    <state></state>
    <state_code></state_code>
    <province></province>
    <province_code></province_code>
    <community></community>
    <community_code></community_code>
    <latitude>44.3466</latitude>
    <longitude>19.8984</longitude>
  </object>
  <object>
    <country_code>RS</country_code>
    <zipcode>14202</zipcode>
    <place>Rajković</place>
    <state></state>
    <state_code></state_code>
    <province></province>
    <province_code></province_code>
    <community></community>
    <community_code></community_code>
    <latitude>44.2248</latitude>
    <longitude>20.0131</longitude>
  </object>
  <object>
    <country_code>RS</country_code>
    <zipcode>14203</zipcode>
    <place>Dračić</place>
    <state></state>
    <state_code></state_code>
    <province></province>
    <province_code></province_code>
    <community></community>
    <community_code></community_code>
    <latitude>44.2157</latitude>
    <longitude>19.9003</longitude>
  </object>
  <object>
    <country_code>RS</country_code>
    <zipcode>14204</zipcode>
    <place>Divčibare</place>
    <state></state>
    <state_code></state_code>
    <province></province>
    <province_code></province_code>
    <community></community>
    <community_code></community_code>
    <latitude>44.106</latitude>
    <longitude>19.9925</longitude>
  </object>
  <object>
    <country_code>RS</country_code>
    <zipcode>14205</zipcode>
    <place>Lelić</place>
    <state></state>
    <state_code></state_code>
    <province></province>
    <province_code></province_code>
    <community></community>
    <community_code></community_code>
    <latitude>44.2303</latitude>
    <longitude>19.8293</longitude>
  </object>
  <object>
    <country_code>RS</country_code>
    <zipcode>14206</zipcode>
    <place>Poćuta</place>
    <state></state>
    <state_code></state_code>
    <province></province>
    <province_code></province_code>
    <community></community>
    <community_code></community_code>
    <latitude>44.2106</latitude>
    <longitude>19.7327</longitude>
  </object>
  <object>
    <country_code>RS</country_code>
    <zipcode>14207</zipcode>
    <place>Pecka</place>
    <state></state>
    <state_code></state_code>
    <province></province>
    <province_code></province_code>
    <community></community>
    <community_code></community_code>
    <latitude>44.2932</latitude>
    <longitude>19.5407</longitude>
  </object>
  <object>
    <country_code>RS</country_code>
    <zipcode>14210</zipcode>
    <place>Ub</place>
    <state></state>
    <state_code></state_code>
    <province></province>
    <province_code></province_code>
    <community></community>
    <community_code></community_code>
    <latitude>44.4561</latitude>
    <longitude>20.0739</longitude>
  </object>
  <object>
    <country_code>RS</country_code>
    <zipcode>14211</zipcode>
    <place>Radljevo</place>
    <state></state>
    <state_code></state_code>
    <province></province>
    <province_code></province_code>
    <community></community>
    <community_code></community_code>
    <latitude>44.4624</latitude>
    <longitude>20.1906</longitude>
  </object>
  <object>
    <country_code>RS</country_code>
    <zipcode>14212</zipcode>
    <place>Brgule</place>
    <state></state>
    <state_code></state_code>
    <province></province>
    <province_code></province_code>
    <community></community>
    <community_code></community_code>
    <latitude>44.5234</latitude>
    <longitude>20.1749</longitude>
  </object>
  <object>
    <country_code>RS</country_code>
    <zipcode>14213</zipcode>
    <place>Pambukovica</place>
    <state></state>
    <state_code></state_code>
    <province></province>
    <province_code></province_code>
    <community></community>
    <community_code></community_code>
    <latitude>44.4409</latitude>
    <longitude>19.9231</longitude>
  </object>
  <object>
    <country_code>RS</country_code>
    <zipcode>14214</zipcode>
    <place>Banjani</place>
    <state></state>
    <state_code></state_code>
    <province></province>
    <province_code></province_code>
    <community></community>
    <community_code></community_code>
    <latitude>44.5377</latitude>
    <longitude>19.9803</longitude>
  </object>
  <object>
    <country_code>RS</country_code>
    <zipcode>14221</zipcode>
    <place>Popučke</place>
    <state></state>
    <state_code></state_code>
    <province></province>
    <province_code></province_code>
    <community></community>
    <community_code></community_code>
    <latitude>44.2928</latitude>
    <longitude>19.9542</longitude>
  </object>
  <object>
    <country_code>RS</country_code>
    <zipcode>14222</zipcode>
    <place>Divci</place>
    <state></state>
    <state_code></state_code>
    <province></province>
    <province_code></province_code>
    <community></community>
    <community_code></community_code>
    <latitude>44.3013</latitude>
    <longitude>20.03</longitude>
  </object>
  <object>
    <country_code>RS</country_code>
    <zipcode>14223</zipcode>
    <place>Slovac</place>
    <state></state>
    <state_code></state_code>
    <province></province>
    <province_code></province_code>
    <community></community>
    <community_code></community_code>
    <latitude>44.3412</latitude>
    <longitude>20.0719</longitude>
  </object>
  <object>
    <country_code>RS</country_code>
    <zipcode>14224</zipcode>
    <place>Lajkovac</place>
    <state></state>
    <state_code></state_code>
    <province></province>
    <province_code></province_code>
    <community></community>
    <community_code></community_code>
    <latitude>44.3694</latitude>
    <longitude>20.1653</longitude>
  </object>
  <object>
    <country_code>RS</country_code>
    <zipcode>14225</zipcode>
    <place>Bogovađa</place>
    <state></state>
    <state_code></state_code>
    <province></province>
    <province_code></province_code>
    <community></community>
    <community_code></community_code>
    <latitude>44.3275</latitude>
    <longitude>20.2005</longitude>
  </object>
  <object>
    <country_code>RS</country_code>
    <zipcode>14226</zipcode>
    <place>Jabučje</place>
    <state></state>
    <state_code></state_code>
    <province></province>
    <province_code></province_code>
    <community></community>
    <community_code></community_code>
    <latitude>44.3694</latitude>
    <longitude>20.1653</longitude>
  </object>
  <object>
    <country_code>RS</country_code>
    <zipcode>14240</zipcode>
    <place>Ljig</place>
    <state></state>
    <state_code></state_code>
    <province></province>
    <province_code></province_code>
    <community></community>
    <community_code></community_code>
    <latitude>44.2301</latitude>
    <longitude>20.2382</longitude>
  </object>
  <object>
    <country_code>RS</country_code>
    <zipcode>14242</zipcode>
    <place>Mionica</place>
    <state></state>
    <state_code></state_code>
    <province></province>
    <province_code></province_code>
    <community></community>
    <community_code></community_code>
    <latitude>44.2519</latitude>
    <longitude>20.0817</longitude>
  </object>
  <object>
    <country_code>RS</country_code>
    <zipcode>14243</zipcode>
    <place>Gornja Toplica</place>
    <state></state>
    <state_code></state_code>
    <province></province>
    <province_code></province_code>
    <community></community>
    <community_code></community_code>
    <latitude>44.223</latitude>
    <longitude>20.1679</longitude>
  </object>
  <object>
    <country_code>RS</country_code>
    <zipcode>14244</zipcode>
    <place>Brežđe</place>
    <state></state>
    <state_code></state_code>
    <province></province>
    <province_code></province_code>
    <community></community>
    <community_code></community_code>
    <latitude>44.1726</latitude>
    <longitude>20.0606</longitude>
  </object>
  <object>
    <country_code>RS</country_code>
    <zipcode>14245</zipcode>
    <place>Slavkovica</place>
    <state></state>
    <state_code></state_code>
    <province></province>
    <province_code></province_code>
    <community></community>
    <community_code></community_code>
    <latitude>44.1707</latitude>
    <longitude>20.2457</longitude>
  </object>
  <object>
    <country_code>RS</country_code>
    <zipcode>14246</zipcode>
    <place>Belanovica</place>
    <state></state>
    <state_code></state_code>
    <province></province>
    <province_code></province_code>
    <community></community>
    <community_code></community_code>
    <latitude>44.2495</latitude>
    <longitude>20.3961</longitude>
  </object>
  <object>
    <country_code>RS</country_code>
    <zipcode>14251</zipcode>
    <place>Pričević</place>
    <state></state>
    <state_code></state_code>
    <province></province>
    <province_code></province_code>
    <community></community>
    <community_code></community_code>
    <latitude>44.2797</latitude>
    <longitude>19.7689</longitude>
  </object>
  <object>
    <country_code>RS</country_code>
    <zipcode>14252</zipcode>
    <place>Kamenica</place>
    <state></state>
    <state_code></state_code>
    <province></province>
    <province_code></province_code>
    <community></community>
    <community_code></community_code>
    <latitude>44.343</latitude>
    <longitude>19.7233</longitude>
  </object>
  <object>
    <country_code>RS</country_code>
    <zipcode>14253</zipcode>
    <place>Osečina</place>
    <state></state>
    <state_code></state_code>
    <province></province>
    <province_code></province_code>
    <community></community>
    <community_code></community_code>
    <latitude>44.3731</latitude>
    <longitude>19.6014</longitude>
  </object>
  <object>
    <country_code>RS</country_code>
    <zipcode>14254</zipcode>
    <place>Komirić</place>
    <state></state>
    <state_code></state_code>
    <province></province>
    <province_code></province_code>
    <community></community>
    <community_code></community_code>
    <latitude>44.4123</latitude>
    <longitude>19.5415</longitude>
  </object>
  <object>
    <country_code>RS</country_code>
    <zipcode>14255</zipcode>
    <place>Stave</place>
    <state></state>
    <state_code></state_code>
    <province></province>
    <province_code></province_code>
    <community></community>
    <community_code></community_code>
    <latitude>44.2588</latitude>
    <longitude>19.6916</longitude>
  </object>
  <object>
    <country_code>RS</country_code>
    <zipcode>15000</zipcode>
    <place>Šabac</place>
    <state></state>
    <state_code></state_code>
    <province></province>
    <province_code></province_code>
    <community></community>
    <community_code></community_code>
    <latitude>44.7467</latitude>
    <longitude>19.69</longitude>
  </object>
  <object>
    <country_code>RS</country_code>
    <zipcode>15211</zipcode>
    <place>Mačvanski Pričinović</place>
    <state></state>
    <state_code></state_code>
    <province></province>
    <province_code></province_code>
    <community></community>
    <community_code></community_code>
    <latitude>44.8497</latitude>
    <longitude>19.6311</longitude>
  </object>
  <object>
    <country_code>RS</country_code>
    <zipcode>15212</zipcode>
    <place>Drenovac</place>
    <state></state>
    <state_code></state_code>
    <province></province>
    <province_code></province_code>
    <community></community>
    <community_code></community_code>
    <latitude>44.8665</latitude>
    <longitude>19.7094</longitude>
  </object>
  <object>
    <country_code>RS</country_code>
    <zipcode>15213</zipcode>
    <place>Orid</place>
    <state></state>
    <state_code></state_code>
    <province></province>
    <province_code></province_code>
    <community></community>
    <community_code></community_code>
    <latitude>44.7103</latitude>
    <longitude>19.7997</longitude>
  </object>
  <object>
    <country_code>RS</country_code>
    <zipcode>15214</zipcode>
    <place>Debrc</place>
    <state></state>
    <state_code></state_code>
    <province></province>
    <province_code></province_code>
    <community></community>
    <community_code></community_code>
    <latitude>44.6227</latitude>
    <longitude>19.9027</longitude>
  </object>
  <object>
    <country_code>RS</country_code>
    <zipcode>15215</zipcode>
    <place>Provo</place>
    <state></state>
    <state_code></state_code>
    <province></province>
    <province_code></province_code>
    <community></community>
    <community_code></community_code>
    <latitude>44.6696</latitude>
    <longitude>19.9104</longitude>
  </object>
  <object>
    <country_code>RS</country_code>
    <zipcode>15220</zipcode>
    <place>Koceljeva</place>
    <state></state>
    <state_code></state_code>
    <province></province>
    <province_code></province_code>
    <community></community>
    <community_code></community_code>
    <latitude>44.4736</latitude>
    <longitude>19.8117</longitude>
  </object>
  <object>
    <country_code>RS</country_code>
    <zipcode>15221</zipcode>
    <place>Svileuva</place>
    <state></state>
    <state_code></state_code>
    <province></province>
    <province_code></province_code>
    <community></community>
    <community_code></community_code>
    <latitude>44.5215</latitude>
    <longitude>19.8279</longitude>
  </object>
  <object>
    <country_code>RS</country_code>
    <zipcode>15222</zipcode>
    <place>Kamenica</place>
    <state></state>
    <state_code></state_code>
    <province></province>
    <province_code></province_code>
    <community></community>
    <community_code></community_code>
    <latitude>44.4733</latitude>
    <longitude>19.722</longitude>
  </object>
  <object>
    <country_code>RS</country_code>
    <zipcode>15224</zipcode>
    <place>Cerovac</place>
    <state></state>
    <state_code></state_code>
    <province></province>
    <province_code></province_code>
    <community></community>
    <community_code></community_code>
    <latitude>44.6771</latitude>
    <longitude>19.7514</longitude>
  </object>
  <object>
    <country_code>RS</country_code>
    <zipcode>15225</zipcode>
    <place>Vladimirci</place>
    <state></state>
    <state_code></state_code>
    <province></province>
    <province_code></province_code>
    <community></community>
    <community_code></community_code>
    <latitude>44.6147</latitude>
    <longitude>19.7853</longitude>
  </object>
  <object>
    <country_code>RS</country_code>
    <zipcode>15226</zipcode>
    <place>Draginje</place>
    <state></state>
    <state_code></state_code>
    <province></province>
    <province_code></province_code>
    <community></community>
    <community_code></community_code>
    <latitude>44.533</latitude>
    <longitude>19.7625</longitude>
  </object>
  <object>
    <country_code>RS</country_code>
    <zipcode>15227</zipcode>
    <place>Donje Crniljevo</place>
    <state></state>
    <state_code></state_code>
    <province></province>
    <province_code></province_code>
    <community></community>
    <community_code></community_code>
    <latitude>44.4677</latitude>
    <longitude>19.6257</longitude>
  </object>
  <object>
    <country_code>RS</country_code>
    <zipcode>15232</zipcode>
    <place>Varna</place>
    <state></state>
    <state_code></state_code>
    <province></province>
    <province_code></province_code>
    <community></community>
    <community_code></community_code>
    <latitude>44.6791</latitude>
    <longitude>19.6515</longitude>
  </object>
  <object>
    <country_code>RS</country_code>
    <zipcode>15233</zipcode>
    <place>Metlić</place>
    <state></state>
    <state_code></state_code>
    <province></province>
    <province_code></province_code>
    <community></community>
    <community_code></community_code>
    <latitude>44.5731</latitude>
    <longitude>19.6299</longitude>
  </object>
  <object>
    <country_code>RS</country_code>
    <zipcode>15234</zipcode>
    <place>Tekeriš</place>
    <state></state>
    <state_code></state_code>
    <province></province>
    <province_code></province_code>
    <community></community>
    <community_code></community_code>
    <latitude>44.5573</latitude>
    <longitude>19.5297</longitude>
  </object>
  <object>
    <country_code>RS</country_code>
    <zipcode>15235</zipcode>
    <place>Dobrić</place>
    <state></state>
    <state_code></state_code>
    <province></province>
    <province_code></province_code>
    <community></community>
    <community_code></community_code>
    <latitude>44.7022</latitude>
    <longitude>19.5793</longitude>
  </object>
  <object>
    <country_code>RS</country_code>
    <zipcode>15300</zipcode>
    <place>Loznica</place>
    <state></state>
    <state_code></state_code>
    <province></province>
    <province_code></province_code>
    <community></community>
    <community_code></community_code>
    <latitude>44.5312</latitude>
    <longitude>19.2427</longitude>
  </object>
  <object>
    <country_code>RS</country_code>
    <zipcode>15302</zipcode>
    <place>Korenita</place>
    <state></state>
    <state_code></state_code>
    <province></province>
    <province_code></province_code>
    <community></community>
    <community_code></community_code>
    <latitude>44.5121</latitude>
    <longitude>19.2891</longitude>
  </object>
  <object>
    <country_code>RS</country_code>
    <zipcode>15303</zipcode>
    <place>Tršić</place>
    <state></state>
    <state_code></state_code>
    <province></province>
    <province_code></province_code>
    <community></community>
    <community_code></community_code>
    <latitude>44.495</latitude>
    <longitude>19.2649</longitude>
  </object>
  <object>
    <country_code>RS</country_code>
    <zipcode>15304</zipcode>
    <place>Petlovača</place>
    <state></state>
    <state_code></state_code>
    <province></province>
    <province_code></province_code>
    <community></community>
    <community_code></community_code>
    <latitude>44.7222</latitude>
    <longitude>19.4467</longitude>
  </object>
  <object>
    <country_code>RS</country_code>
    <zipcode>15305</zipcode>
    <place>Lipolist</place>
    <state></state>
    <state_code></state_code>
    <province></province>
    <province_code></province_code>
    <community></community>
    <community_code></community_code>
    <latitude>44.6978</latitude>
    <longitude>19.501</longitude>
  </object>
  <object>
    <country_code>RS</country_code>
    <zipcode>15306</zipcode>
    <place>Prnjavor</place>
    <state></state>
    <state_code></state_code>
    <province></province>
    <province_code></province_code>
    <community></community>
    <community_code></community_code>
    <latitude>44.7006</latitude>
    <longitude>19.3869</longitude>
  </object>
  <object>
    <country_code>RS</country_code>
    <zipcode>15307</zipcode>
    <place>Lešnica</place>
    <state></state>
    <state_code></state_code>
    <province></province>
    <province_code></province_code>
    <community></community>
    <community_code></community_code>
    <latitude>44.6525</latitude>
    <longitude>19.31</longitude>
  </object>
  <object>
    <country_code>RS</country_code>
    <zipcode>15308</zipcode>
    <place>Jadranska Lešnica</place>
    <state></state>
    <state_code></state_code>
    <province></province>
    <province_code></province_code>
    <community></community>
    <community_code></community_code>
    <latitude>44.5973</latitude>
    <longitude>19.3521</longitude>
  </object>
  <object>
    <country_code>RS</country_code>
    <zipcode>15309</zipcode>
    <place>Brezjak</place>
    <state></state>
    <state_code></state_code>
    <province></province>
    <province_code></province_code>
    <community></community>
    <community_code></community_code>
    <latitude>44.5097</latitude>
    <longitude>19.3413</longitude>
  </object>
  <object>
    <country_code>RS</country_code>
    <zipcode>15310</zipcode>
    <place>Ribari</place>
    <state></state>
    <state_code></state_code>
    <province></province>
    <province_code></province_code>
    <community></community>
    <community_code></community_code>
    <latitude>44.7096</latitude>
    <longitude>19.4247</longitude>
  </object>
  <object>
    <country_code>RS</country_code>
    <zipcode>15311</zipcode>
    <place>Draginac</place>
    <state></state>
    <state_code></state_code>
    <province></province>
    <province_code></province_code>
    <community></community>
    <community_code></community_code>
    <latitude>44.5084</latitude>
    <longitude>19.4163</longitude>
  </object>
  <object>
    <country_code>RS</country_code>
    <zipcode>15312</zipcode>
    <place>Zavlaka</place>
    <state></state>
    <state_code></state_code>
    <province></province>
    <province_code></province_code>
    <community></community>
    <community_code></community_code>
    <latitude>44.4565</latitude>
    <longitude>19.4835</longitude>
  </object>
  <object>
    <country_code>RS</country_code>
    <zipcode>15313</zipcode>
    <place>Bela Crkva</place>
    <state></state>
    <state_code></state_code>
    <province></province>
    <province_code></province_code>
    <community></community>
    <community_code></community_code>
    <latitude>44.3955</latitude>
    <longitude>19.4796</longitude>
  </object>
  <object>
    <country_code>RS</country_code>
    <zipcode>15314</zipcode>
    <place>Krupanj</place>
    <state></state>
    <state_code></state_code>
    <province></province>
    <province_code></province_code>
    <community></community>
    <community_code></community_code>
    <latitude>44.3656</latitude>
    <longitude>19.3619</longitude>
  </object>
  <object>
    <country_code>RS</country_code>
    <zipcode>15315</zipcode>
    <place>Zajača</place>
    <state></state>
    <state_code></state_code>
    <province></province>
    <province_code></province_code>
    <community></community>
    <community_code></community_code>
    <latitude>44.4568</latitude>
    <longitude>19.2443</longitude>
  </object>
  <object>
    <country_code>RS</country_code>
    <zipcode>15316</zipcode>
    <place>Banja Koviljača</place>
    <state></state>
    <state_code></state_code>
    <province></province>
    <province_code></province_code>
    <community></community>
    <community_code></community_code>
    <latitude>44.5146</latitude>
    <longitude>19.1528</longitude>
  </object>
  <object>
    <country_code>RS</country_code>
    <zipcode>15317</zipcode>
    <place>Donja Borina</place>
    <state></state>
    <state_code></state_code>
    <province></province>
    <province_code></province_code>
    <community></community>
    <community_code></community_code>
    <latitude>44.4352</latitude>
    <longitude>19.179</longitude>
  </object>
  <object>
    <country_code>RS</country_code>
    <zipcode>15318</zipcode>
    <place>Mali Zvornik</place>
    <state></state>
    <state_code></state_code>
    <province></province>
    <province_code></province_code>
    <community></community>
    <community_code></community_code>
    <latitude>44.3734</latitude>
    <longitude>19.1065</longitude>
  </object>
  <object>
    <country_code>RS</country_code>
    <zipcode>15319</zipcode>
    <place>Uzovnica</place>
    <state></state>
    <state_code></state_code>
    <province></province>
    <province_code></province_code>
    <community></community>
    <community_code></community_code>
    <latitude>44.2693</latitude>
    <longitude>19.3524</longitude>
  </object>
  <object>
    <country_code>RS</country_code>
    <zipcode>15320</zipcode>
    <place>Ljubovija</place>
    <state></state>
    <state_code></state_code>
    <province></province>
    <province_code></province_code>
    <community></community>
    <community_code></community_code>
    <latitude>44.1894</latitude>
    <longitude>19.3767</longitude>
  </object>
  <object>
    <country_code>RS</country_code>
    <zipcode>15321</zipcode>
    <place>Radalj</place>
    <state></state>
    <state_code></state_code>
    <province></province>
    <province_code></province_code>
    <community></community>
    <community_code></community_code>
    <latitude>44.3964</latitude>
    <longitude>19.1773</longitude>
  </object>
  <object>
    <country_code>RS</country_code>
    <zipcode>15322</zipcode>
    <place>Velika Reka</place>
    <state></state>
    <state_code></state_code>
    <province></province>
    <province_code></province_code>
    <community></community>
    <community_code></community_code>
    <latitude>44.27</latitude>
    <longitude>19.2281</longitude>
  </object>
  <object>
    <country_code>RS</country_code>
    <zipcode>15323</zipcode>
    <place>Donja Orovica</place>
    <state></state>
    <state_code></state_code>
    <province></province>
    <province_code></province_code>
    <community></community>
    <community_code></community_code>
    <latitude>44.22</latitude>
    <longitude>19.4729</longitude>
  </object>
  <object>
    <country_code>RS</country_code>
    <zipcode>15324</zipcode>
    <place>Drlače</place>
    <state></state>
    <state_code></state_code>
    <province></province>
    <province_code></province_code>
    <community></community>
    <community_code></community_code>
    <latitude>44.1432</latitude>
    <longitude>19.4889</longitude>
  </object>
  <object>
    <country_code>RS</country_code>
    <zipcode>15341</zipcode>
    <place>Lipnički Šor</place>
    <state></state>
    <state_code></state_code>
    <province></province>
    <province_code></province_code>
    <community></community>
    <community_code></community_code>
    <latitude>44.5806</latitude>
    <longitude>19.2657</longitude>
  </object>
  <object>
    <country_code>RS</country_code>
    <zipcode>15342</zipcode>
    <place>Rainovača</place>
    <state></state>
    <state_code></state_code>
    <province></province>
    <province_code></province_code>
    <community></community>
    <community_code></community_code>
    <latitude>44.5806</latitude>
    <longitude>19.2657</longitude>
  </object>
  <object>
    <country_code>RS</country_code>
    <zipcode>15350</zipcode>
    <place>Bogatić</place>
    <state></state>
    <state_code></state_code>
    <province></province>
    <province_code></province_code>
    <community></community>
    <community_code></community_code>
    <latitude>44.8375</latitude>
    <longitude>19.4806</longitude>
  </object>
  <object>
    <country_code>RS</country_code>
    <zipcode>15352</zipcode>
    <place>Zminjak</place>
    <state></state>
    <state_code></state_code>
    <province></province>
    <province_code></province_code>
    <community></community>
    <community_code></community_code>
    <latitude>44.7571</latitude>
    <longitude>19.4707</longitude>
  </object>
  <object>
    <country_code>RS</country_code>
    <zipcode>15353</zipcode>
    <place>Majur</place>
    <state></state>
    <state_code></state_code>
    <province></province>
    <province_code></province_code>
    <community></community>
    <community_code></community_code>
    <latitude>44.773</latitude>
    <longitude>19.648</longitude>
  </object>
  <object>
    <country_code>RS</country_code>
    <zipcode>15354</zipcode>
    <place>Štitar</place>
    <state></state>
    <state_code></state_code>
    <province></province>
    <province_code></province_code>
    <community></community>
    <community_code></community_code>
    <latitude>44.7941</latitude>
    <longitude>19.5953</longitude>
  </object>
  <object>
    <country_code>RS</country_code>
    <zipcode>15355</zipcode>
    <place>Crna Bara</place>
    <state></state>
    <state_code></state_code>
    <province></province>
    <province_code></province_code>
    <community></community>
    <community_code></community_code>
    <latitude>44.8737</latitude>
    <longitude>19.3948</longitude>
  </object>
  <object>
    <country_code>RS</country_code>
    <zipcode>15356</zipcode>
    <place>Glušci</place>
    <state></state>
    <state_code></state_code>
    <province></province>
    <province_code></province_code>
    <community></community>
    <community_code></community_code>
    <latitude>44.8902</latitude>
    <longitude>19.5491</longitude>
  </object>
  <object>
    <country_code>RS</country_code>
    <zipcode>15357</zipcode>
    <place>Klenje</place>
    <state></state>
    <state_code></state_code>
    <province></province>
    <province_code></province_code>
    <community></community>
    <community_code></community_code>
    <latitude>44.8079</latitude>
    <longitude>19.4351</longitude>
  </object>
  <object>
    <country_code>RS</country_code>
    <zipcode>15358</zipcode>
    <place>Badovinci</place>
    <state></state>
    <state_code></state_code>
    <province></province>
    <province_code></province_code>
    <community></community>
    <community_code></community_code>
    <latitude>44.7853</latitude>
    <longitude>19.3715</longitude>
  </object>
  <object>
    <country_code>RS</country_code>
    <zipcode>15359</zipcode>
    <place>Dublje</place>
    <state></state>
    <state_code></state_code>
    <province></province>
    <province_code></province_code>
    <community></community>
    <community_code></community_code>
    <latitude>44.8012</latitude>
    <longitude>19.509</longitude>
  </object>
  <object>
    <country_code>RS</country_code>
    <zipcode>15362</zipcode>
    <place>Banovo Polje</place>
    <state></state>
    <state_code></state_code>
    <province></province>
    <province_code></province_code>
    <community></community>
    <community_code></community_code>
    <latitude>44.9104</latitude>
    <longitude>19.4492</longitude>
  </object>
  <object>
    <country_code>RS</country_code>
    <zipcode>16000</zipcode>
    <place>Leskovac</place>
    <state></state>
    <state_code></state_code>
    <province></province>
    <province_code></province_code>
    <community></community>
    <community_code></community_code>
    <latitude>42.9981</latitude>
    <longitude>21.9461</longitude>
  </object>
  <object>
    <country_code>RS</country_code>
    <zipcode>16201</zipcode>
    <place>Manojlovce</place>
    <state></state>
    <state_code></state_code>
    <province></province>
    <province_code></province_code>
    <community></community>
    <community_code></community_code>
    <latitude>43.0143</latitude>
    <longitude>22.0147</longitude>
  </object>
  <object>
    <country_code>RS</country_code>
    <zipcode>16203</zipcode>
    <place>Vučje</place>
    <state></state>
    <state_code></state_code>
    <province></province>
    <province_code></province_code>
    <community></community>
    <community_code></community_code>
    <latitude>42.8653</latitude>
    <longitude>21.9105</longitude>
  </object>
  <object>
    <country_code>RS</country_code>
    <zipcode>16204</zipcode>
    <place>Miroševce</place>
    <state></state>
    <state_code></state_code>
    <province></province>
    <province_code></province_code>
    <community></community>
    <community_code></community_code>
    <latitude>42.8655</latitude>
    <longitude>21.8381</longitude>
  </object>
  <object>
    <country_code>RS</country_code>
    <zipcode>16205</zipcode>
    <place>Bojnik</place>
    <state></state>
    <state_code></state_code>
    <province></province>
    <province_code></province_code>
    <community></community>
    <community_code></community_code>
    <latitude>43.0122</latitude>
    <longitude>21.721</longitude>
  </object>
  <object>
    <country_code>RS</country_code>
    <zipcode>16206</zipcode>
    <place>Kosančić</place>
    <state></state>
    <state_code></state_code>
    <province></province>
    <province_code></province_code>
    <community></community>
    <community_code></community_code>
    <latitude>43.0883</latitude>
    <longitude>21.7779</longitude>
  </object>
  <object>
    <country_code>RS</country_code>
    <zipcode>16210</zipcode>
    <place>Vlasotince</place>
    <state></state>
    <state_code></state_code>
    <province></province>
    <province_code></province_code>
    <community></community>
    <community_code></community_code>
    <latitude>42.967</latitude>
    <longitude>22.134</longitude>
  </object>
  <object>
    <country_code>RS</country_code>
    <zipcode>16211</zipcode>
    <place>Guberevac (Leskovac)</place>
    <state></state>
    <state_code></state_code>
    <province></province>
    <province_code></province_code>
    <community></community>
    <community_code></community_code>
    <latitude>42.9181</latitude>
    <longitude>22.2328</longitude>
  </object>
  <object>
    <country_code>RS</country_code>
    <zipcode>16212</zipcode>
    <place>Svođe</place>
    <state></state>
    <state_code></state_code>
    <province></province>
    <province_code></province_code>
    <community></community>
    <community_code></community_code>
    <latitude>42.9773</latitude>
    <longitude>22.2656</longitude>
  </object>
  <object>
    <country_code>RS</country_code>
    <zipcode>16213</zipcode>
    <place>Sastav Reka</place>
    <state></state>
    <state_code></state_code>
    <province></province>
    <province_code></province_code>
    <community></community>
    <community_code></community_code>
    <latitude>42.9181</latitude>
    <longitude>22.2328</longitude>
  </object>
  <object>
    <country_code>RS</country_code>
    <zipcode>16215</zipcode>
    <place>Crna Trava</place>
    <state></state>
    <state_code></state_code>
    <province></province>
    <province_code></province_code>
    <community></community>
    <community_code></community_code>
    <latitude>42.8099</latitude>
    <longitude>22.2988</longitude>
  </object>
  <object>
    <country_code>RS</country_code>
    <zipcode>16220</zipcode>
    <place>Grdelica</place>
    <state></state>
    <state_code></state_code>
    <province></province>
    <province_code></province_code>
    <community></community>
    <community_code></community_code>
    <latitude>42.9016</latitude>
    <longitude>22.0705</longitude>
  </object>
  <object>
    <country_code>RS</country_code>
    <zipcode>16221</zipcode>
    <place>Velika Grabovnica</place>
    <state></state>
    <state_code></state_code>
    <province></province>
    <province_code></province_code>
    <community></community>
    <community_code></community_code>
    <latitude>42.9246</latitude>
    <longitude>22.0114</longitude>
  </object>
  <object>
    <country_code>RS</country_code>
    <zipcode>16222</zipcode>
    <place>Predejane</place>
    <state></state>
    <state_code></state_code>
    <province></province>
    <province_code></province_code>
    <community></community>
    <community_code></community_code>
    <latitude>42.8328</latitude>
    <longitude>22.1291</longitude>
  </object>
  <object>
    <country_code>RS</country_code>
    <zipcode>16223</zipcode>
    <place>Ruplje</place>
    <state></state>
    <state_code></state_code>
    <province></province>
    <province_code></province_code>
    <community></community>
    <community_code></community_code>
    <latitude>42.8395</latitude>
    <longitude>22.2255</longitude>
  </object>
  <object>
    <country_code>RS</country_code>
    <zipcode>16230</zipcode>
    <place>Lebane</place>
    <state></state>
    <state_code></state_code>
    <province></province>
    <province_code></province_code>
    <community></community>
    <community_code></community_code>
    <latitude>42.9239</latitude>
    <longitude>21.7375</longitude>
  </object>
  <object>
    <country_code>RS</country_code>
    <zipcode>16231</zipcode>
    <place>Turekovac</place>
    <state></state>
    <state_code></state_code>
    <province></province>
    <province_code></province_code>
    <community></community>
    <community_code></community_code>
    <latitude>42.9843</latitude>
    <longitude>21.8816</longitude>
  </object>
  <object>
    <country_code>RS</country_code>
    <zipcode>16232</zipcode>
    <place>Bošnjace</place>
    <state></state>
    <state_code></state_code>
    <province></province>
    <province_code></province_code>
    <community></community>
    <community_code></community_code>
    <latitude>42.9463</latitude>
    <longitude>21.8272</longitude>
  </object>
  <object>
    <country_code>RS</country_code>
    <zipcode>16233</zipcode>
    <place>Orane</place>
    <state></state>
    <state_code></state_code>
    <province></province>
    <province_code></province_code>
    <community></community>
    <community_code></community_code>
    <latitude>42.9863</latitude>
    <longitude>21.6278</longitude>
  </object>
  <object>
    <country_code>RS</country_code>
    <zipcode>16236</zipcode>
    <place>Klajić</place>
    <state></state>
    <state_code></state_code>
    <province></province>
    <province_code></province_code>
    <community></community>
    <community_code></community_code>
    <latitude>42.8237</latitude>
    <longitude>21.7313</longitude>
  </object>
  <object>
    <country_code>RS</country_code>
    <zipcode>16240</zipcode>
    <place>Medveđa</place>
    <state></state>
    <state_code></state_code>
    <province></province>
    <province_code></province_code>
    <community></community>
    <community_code></community_code>
    <latitude>42.8431</latitude>
    <longitude>21.5833</longitude>
  </object>
  <object>
    <country_code>RS</country_code>
    <zipcode>16244</zipcode>
    <place>Gornji Brestovac</place>
    <state></state>
    <state_code></state_code>
    <province></province>
    <province_code></province_code>
    <community></community>
    <community_code></community_code>
    <latitude>42.8298</latitude>
    <longitude>21.5432</longitude>
  </object>
  <object>
    <country_code>RS</country_code>
    <zipcode>16246</zipcode>
    <place>Sijarinska Banja</place>
    <state></state>
    <state_code></state_code>
    <province></province>
    <province_code></province_code>
    <community></community>
    <community_code></community_code>
    <latitude>42.7777</latitude>
    <longitude>21.6037</longitude>
  </object>
  <object>
    <country_code>RS</country_code>
    <zipcode>16247</zipcode>
    <place>Tulare</place>
    <state></state>
    <state_code></state_code>
    <province></province>
    <province_code></province_code>
    <community></community>
    <community_code></community_code>
    <latitude>42.7942</latitude>
    <longitude>21.4605</longitude>
  </object>
  <object>
    <country_code>RS</country_code>
    <zipcode>16248</zipcode>
    <place>Lece</place>
    <state></state>
    <state_code></state_code>
    <province></province>
    <province_code></province_code>
    <community></community>
    <community_code></community_code>
    <latitude>42.9043</latitude>
    <longitude>21.5252</longitude>
  </object>
  <object>
    <country_code>RS</country_code>
    <zipcode>16251</zipcode>
    <place>Pečanjevce</place>
    <state></state>
    <state_code></state_code>
    <province></province>
    <province_code></province_code>
    <community></community>
    <community_code></community_code>
    <latitude>43.1351</latitude>
    <longitude>21.9164</longitude>
  </object>
  <object>
    <country_code>RS</country_code>
    <zipcode>16252</zipcode>
    <place>Razgojna</place>
    <state></state>
    <state_code></state_code>
    <province></province>
    <province_code></province_code>
    <community></community>
    <community_code></community_code>
    <latitude>43.1171</latitude>
    <longitude>21.955</longitude>
  </object>
  <object>
    <country_code>RS</country_code>
    <zipcode>16253</zipcode>
    <place>Brestovac</place>
    <state></state>
    <state_code></state_code>
    <province></province>
    <province_code></province_code>
    <community></community>
    <community_code></community_code>
    <latitude>43.1532</latitude>
    <longitude>21.8777</longitude>
  </object>
  <object>
    <country_code>RS</country_code>
    <zipcode>17501</zipcode>
    <place>Vranje</place>
    <state></state>
    <state_code></state_code>
    <province></province>
    <province_code></province_code>
    <community></community>
    <community_code></community_code>
    <latitude>42.5514</latitude>
    <longitude>21.9003</longitude>
  </object>
  <object>
    <country_code>RS</country_code>
    <zipcode>17507</zipcode>
    <place>Vlase</place>
    <state></state>
    <state_code></state_code>
    <province></province>
    <province_code></province_code>
    <community></community>
    <community_code></community_code>
    <latitude>42.6949</latitude>
    <longitude>21.8628</longitude>
  </object>
  <object>
    <country_code>RS</country_code>
    <zipcode>17508</zipcode>
    <place>Sveti Ilija</place>
    <state></state>
    <state_code></state_code>
    <province></province>
    <province_code></province_code>
    <community></community>
    <community_code></community_code>
    <latitude>42.4744</latitude>
    <longitude>22.045</longitude>
  </object>
  <object>
    <country_code>RS</country_code>
    <zipcode>17510</zipcode>
    <place>Vladičin Han</place>
    <state></state>
    <state_code></state_code>
    <province></province>
    <province_code></province_code>
    <community></community>
    <community_code></community_code>
    <latitude>42.7078</latitude>
    <longitude>22.0633</longitude>
  </object>
  <object>
    <country_code>RS</country_code>
    <zipcode>17511</zipcode>
    <place>Priboj Vranjski</place>
    <state></state>
    <state_code></state_code>
    <province></province>
    <province_code></province_code>
    <community></community>
    <community_code></community_code>
    <latitude>42.6057</latitude>
    <longitude>22.0121</longitude>
  </object>
  <object>
    <country_code>RS</country_code>
    <zipcode>17512</zipcode>
    <place>Stubal</place>
    <state></state>
    <state_code></state_code>
    <province></province>
    <province_code></province_code>
    <community></community>
    <community_code></community_code>
    <latitude>42.633</latitude>
    <longitude>22.0334</longitude>
  </object>
  <object>
    <country_code>RS</country_code>
    <zipcode>17513</zipcode>
    <place>Lepenica</place>
    <state></state>
    <state_code></state_code>
    <province></province>
    <province_code></province_code>
    <community></community>
    <community_code></community_code>
    <latitude>42.6696</latitude>
    <longitude>22.0304</longitude>
  </object>
  <object>
    <country_code>RS</country_code>
    <zipcode>17514</zipcode>
    <place>Džep</place>
    <state></state>
    <state_code></state_code>
    <province></province>
    <province_code></province_code>
    <community></community>
    <community_code></community_code>
    <latitude>42.7682</latitude>
    <longitude>22.0883</longitude>
  </object>
  <object>
    <country_code>RS</country_code>
    <zipcode>17520</zipcode>
    <place>Bujanovac</place>
    <state></state>
    <state_code></state_code>
    <province></province>
    <province_code></province_code>
    <community></community>
    <community_code></community_code>
    <latitude>42.4592</latitude>
    <longitude>21.7667</longitude>
  </object>
  <object>
    <country_code>RS</country_code>
    <zipcode>17521</zipcode>
    <place>Ristovac</place>
    <state></state>
    <state_code></state_code>
    <province></province>
    <province_code></province_code>
    <community></community>
    <community_code></community_code>
    <latitude>42.4666</latitude>
    <longitude>21.8412</longitude>
  </object>
  <object>
    <country_code>RS</country_code>
    <zipcode>17522</zipcode>
    <place>Biljača</place>
    <state></state>
    <state_code></state_code>
    <province></province>
    <province_code></province_code>
    <community></community>
    <community_code></community_code>
    <latitude>42.3552</latitude>
    <longitude>21.7478</longitude>
  </object>
  <object>
    <country_code>RS</country_code>
    <zipcode>17523</zipcode>
    <place>Preševo</place>
    <state></state>
    <state_code></state_code>
    <province></province>
    <province_code></province_code>
    <community></community>
    <community_code></community_code>
    <latitude>42.3092</latitude>
    <longitude>21.6492</longitude>
  </object>
  <object>
    <country_code>RS</country_code>
    <zipcode>17524</zipcode>
    <place>Klenike</place>
    <state></state>
    <state_code></state_code>
    <province></province>
    <province_code></province_code>
    <community></community>
    <community_code></community_code>
    <latitude>42.3897</latitude>
    <longitude>21.8889</longitude>
  </object>
  <object>
    <country_code>RS</country_code>
    <zipcode>17525</zipcode>
    <place>Trgovište</place>
    <state></state>
    <state_code></state_code>
    <province></province>
    <province_code></province_code>
    <community></community>
    <community_code></community_code>
    <latitude>42.3528</latitude>
    <longitude>22.0622</longitude>
  </object>
  <object>
    <country_code>RS</country_code>
    <zipcode>17526</zipcode>
    <place>Donji Stajevac</place>
    <state></state>
    <state_code></state_code>
    <province></province>
    <province_code></province_code>
    <community></community>
    <community_code></community_code>
    <latitude>42.4012</latitude>
    <longitude>22.1597</longitude>
  </object>
  <object>
    <country_code>RS</country_code>
    <zipcode>17528</zipcode>
    <place>Veliki Trnovac</place>
    <state></state>
    <state_code></state_code>
    <province></province>
    <province_code></province_code>
    <community></community>
    <community_code></community_code>
    <latitude>42.4791</latitude>
    <longitude>21.7399</longitude>
  </object>
  <object>
    <country_code>RS</country_code>
    <zipcode>17529</zipcode>
    <place>Muhovac</place>
    <state></state>
    <state_code></state_code>
    <province></province>
    <province_code></province_code>
    <community></community>
    <community_code></community_code>
    <latitude>42.5696</latitude>
    <longitude>21.7542</longitude>
  </object>
  <object>
    <country_code>RS</country_code>
    <zipcode>17530</zipcode>
    <place>Surdulica</place>
    <state></state>
    <state_code></state_code>
    <province></province>
    <province_code></province_code>
    <community></community>
    <community_code></community_code>
    <latitude>42.6906</latitude>
    <longitude>22.1708</longitude>
  </object>
  <object>
    <country_code>RS</country_code>
    <zipcode>17530</zipcode>
    <place>Suvojnica</place>
    <state></state>
    <state_code></state_code>
    <province></province>
    <province_code></province_code>
    <community></community>
    <community_code></community_code>
    <latitude>42.6597</latitude>
    <longitude>22.1234</longitude>
  </object>
  <object>
    <country_code>RS</country_code>
    <zipcode>17531</zipcode>
    <place>Jelašnica</place>
    <state></state>
    <state_code></state_code>
    <province></province>
    <province_code></province_code>
    <community></community>
    <community_code></community_code>
    <latitude>42.6404</latitude>
    <longitude>22.0883</longitude>
  </object>
  <object>
    <country_code>RS</country_code>
    <zipcode>17532</zipcode>
    <place>Vlasina Okruglica</place>
    <state></state>
    <state_code></state_code>
    <province></province>
    <province_code></province_code>
    <community></community>
    <community_code></community_code>
    <latitude>42.6656</latitude>
    <longitude>22.3192</longitude>
  </object>
  <object>
    <country_code>RS</country_code>
    <zipcode>17533</zipcode>
    <place>Vlasina Rid</place>
    <state></state>
    <state_code></state_code>
    <province></province>
    <province_code></province_code>
    <community></community>
    <community_code></community_code>
    <latitude>42.731</latitude>
    <longitude>22.3219</longitude>
  </object>
  <object>
