[
  {
    "country_code": "PK",
    "zipcode": "80000",
    "place": "Sui Gas Field Sibi",
    "state": "Balochistan",
    "state_code": "02",
    "province": "",
    "province_code": "",
    "community": "",
    "community_code": "",
    "latitude": "28.5838",
    "longitude": "66.829"
  },
  {
    "country_code": "PK",
    "zipcode": "80100",
    "place": "Dera Bugti",
    "state": "Balochistan",
    "state_code": "02",
    "province": "",
    "province_code": "",
    "community": "",
    "community_code": "",
    "latitude": "29.0362",
    "longitude": "69.1585"
  },
  {
    "country_code": "PK",
    "zipcode": "80200",
    "place": "Manjhi Pur",
    "state": "Balochistan",
    "state_code": "02",
    "province": "",
    "province_code": "",
    "community": "",
    "community_code": "",
    "latitude": "28.5838",
    "longitude": "66.829"
  },
  {
    "country_code": "PK",
    "zipcode": "80300",
    "place": "Usta Muhammad",
    "state": "Balochistan",
    "state_code": "02",
    "province": "",
    "province_code": "",
    "community": "",
    "community_code": "",
    "latitude": "28.1772",
    "longitude": "68.0437"
  },
  {
    "country_code": "PK",
    "zipcode": "80310",
    "place": "Dr.Azizullah Salakzai",
    "state": "Balochistan",
    "state_code": "02",
    "province": "",
    "province_code": "",
    "community": "",
    "community_code": "",
    "latitude": "28.1772",
    "longitude": "68.0437"
  },
  {
    "country_code": "PK",
    "zipcode": "80400",
    "place": "Gandakha",
    "state": "Balochistan",
    "state_code": "02",
    "province": "",
    "province_code": "",
    "community": "",
    "community_code": "",
    "latitude": "28.0106",
    "longitude": "67.8498"
  },
  {
    "country_code": "PK",
    "zipcode": "80500",
    "place": "Dera Allayyar",
    "state": "Balochistan",
    "state_code": "02",
    "province": "",
    "province_code": "",
    "community": "",
    "community_code": "",
    "latitude": "28.5838",
    "longitude": "66.829"
  },
  {
    "country_code": "PK",
    "zipcode": "80600",
    "place": "Sohbat Pur",
    "state": "Balochistan",
    "state_code": "02",
    "province": "",
    "province_code": "",
    "community": "",
    "community_code": "",
    "latitude": "28.5838",
    "longitude": "66.829"
  },
  {
    "country_code": "PK",
    "zipcode": "80700",
    "place": "Dear Murad Jamali",
    "state": "Balochistan",
    "state_code": "02",
    "province": "",
    "province_code": "",
    "community": "",
    "community_code": "",
    "latitude": "28.5838",
    "longitude": "66.829"
  },
  {
    "country_code": "PK",
    "zipcode": "80800",
    "place": "Chattar",
    "state": "Balochistan",
    "state_code": "02",
    "province": "",
    "province_code": "",
    "community": "",
    "community_code": "",
    "latitude": "28.8951",
    "longitude": "64.9024"
  },
  {
    "country_code": "PK",
    "zipcode": "80810",
    "place": "Sardar Changez Khan",
    "state": "Balochistan",
    "state_code": "02",
    "province": "",
    "province_code": "",
    "community": "",
    "community_code": "",
    "latitude": "28.8951",
    "longitude": "64.9024"
  },
  {
    "country_code": "PK",
    "zipcode": "80820",
    "place": "Abdul Ghafoor Lehri",
    "state": "Balochistan",
    "state_code": "02",
    "province": "",
    "province_code": "",
    "community": "",
    "community_code": "",
    "latitude": "28.8951",
    "longitude": "64.9024"
  },
  {
    "country_code": "PK",
    "zipcode": "81050",
    "place": "Gandawa",
    "state": "Balochistan",
    "state_code": "02",
    "province": "",
    "province_code": "",
    "community": "",
    "community_code": "",
    "latitude": "28.9015",
    "longitude": "67.3616"
  },
  {
    "country_code": "PK",
    "zipcode": "81100",
    "place": "Jhal Magsi",
    "state": "Balochistan",
    "state_code": "02",
    "province": "",
    "province_code": "",
    "community": "",
    "community_code": "",
    "latitude": "28.284",
    "longitude": "67.4562"
  },
  {
    "country_code": "PK",
    "zipcode": "81150",
    "place": "Bukhtarabad Domki",
    "state": "Balochistan",
    "state_code": "02",
    "province": "",
    "province_code": "",
    "community": "",
    "community_code": "",
    "latitude": "28.284",
    "longitude": "67.4562"
  },
  {
    "country_code": "PK",
    "zipcode": "81200",
    "place": "Lehri",
    "state": "Balochistan",
    "state_code": "02",
    "province": "",
    "province_code": "",
    "community": "",
    "community_code": "",
    "latitude": "29.1948",
    "longitude": "67.6435"
  },
  {
    "country_code": "PK",
    "zipcode": "81250",
    "place": "Bhag",
    "state": "Balochistan",
    "state_code": "02",
    "province": "",
    "province_code": "",
    "community": "",
    "community_code": "",
    "latitude": "29.0417",
    "longitude": "67.8239"
  },
  {
    "country_code": "PK",
    "zipcode": "81260",
    "place": "Khattan",
    "state": "Balochistan",
    "state_code": "02",
    "province": "",
    "province_code": "",
    "community": "",
    "community_code": "",
    "latitude": "29.1506",
    "longitude": "67.6965"
  },
  {
    "country_code": "PK",
    "zipcode": "81270",
    "place": "Manjho Shori",
    "state": "Balochistan",
    "state_code": "02",
    "province": "",
    "province_code": "",
    "community": "",
    "community_code": "",
    "latitude": "29.129",
    "longitude": "67.7213"
  },
  {
    "country_code": "PK",
    "zipcode": "81300",
    "place": "Haji Shaher",
    "state": "Balochistan",
    "state_code": "02",
    "province": "",
    "province_code": "",
    "community": "",
    "community_code": "",
    "latitude": "28.2114",
    "longitude": "66.4291"
  },
  {
    "country_code": "PK",
    "zipcode": "81350",
    "place": "Mithri Village",
    "state": "Balochistan",
    "state_code": "02",
    "province": "",
    "province_code": "",
    "community": "",
    "community_code": "",
    "latitude": "28.2114",
    "longitude": "66.4291"
  },
  {
    "country_code": "PK",
    "zipcode": "81400",
    "place": "Dhadar",
    "state": "Balochistan",
    "state_code": "02",
    "province": "",
    "province_code": "",
    "community": "",
    "community_code": "",
    "latitude": "29.4749",
    "longitude": "67.6517"
  },
  {
    "country_code": "PK",
    "zipcode": "81410",
    "place": "Rind Ali",
    "state": "Balochistan",
    "state_code": "02",
    "province": "",
    "province_code": "",
    "community": "",
    "community_code": "",
    "latitude": "29.4868",
    "longitude": "67.6401"
  },
  {
    "country_code": "PK",
    "zipcode": "81450",
    "place": "Sanni",
    "state": "Balochistan",
    "state_code": "02",
    "province": "",
    "province_code": "",
    "community": "",
    "community_code": "",
    "latitude": "29.1537",
    "longitude": "67.5622"
  },
  {
    "country_code": "PK",
    "zipcode": "81550",
    "place": "Kolpur",
    "state": "Balochistan",
    "state_code": "02",
    "province": "",
    "province_code": "",
    "community": "",
    "community_code": "",
    "latitude": "29.1957",
    "longitude": "66.8301"
  },
  {
    "country_code": "PK",
    "zipcode": "82000",
    "place": "Sibi Gpo",
    "state": "Balochistan",
    "state_code": "02",
    "province": "",
    "province_code": "",
    "community": "",
    "community_code": "",
    "latitude": "29.5303",
    "longitude": "68.1354"
  },
  {
    "country_code": "PK",
    "zipcode": "82010",
    "place": "Talli",
    "state": "Balochistan",
    "state_code": "02",
    "province": "",
    "province_code": "",
    "community": "",
    "community_code": "",
    "latitude": "29.5303",
    "longitude": "68.1354"
  },
  {
    "country_code": "PK",
    "zipcode": "82100",
    "place": "Sibi Railway Colony",
    "state": "Balochistan",
    "state_code": "02",
    "province": "",
    "province_code": "",
    "community": "",
    "community_code": "",
    "latitude": "30.4996",
    "longitude": "68.7498"
  },
  {
    "country_code": "PK",
    "zipcode": "82200",
    "place": "Sibi Petrol Pump",
    "state": "Balochistan",
    "state_code": "02",
    "province": "",
    "province_code": "",
    "community": "",
    "community_code": "",
    "latitude": "30.4996",
    "longitude": "68.7498"
  },
  {
    "country_code": "PK",
    "zipcode": "82300",
    "place": "Harnai",
    "state": "Balochistan",
    "state_code": "02",
    "province": "",
    "province_code": "",
    "community": "",
    "community_code": "",
    "latitude": "30.1008",
    "longitude": "67.9382"
  },
  {
    "country_code": "PK",
    "zipcode": "82310",
    "place": "Khost",
    "state": "Balochistan",
    "state_code": "02",
    "province": "",
    "province_code": "",
    "community": "",
    "community_code": "",
    "latitude": "32.837",
    "longitude": "70.7903"
  },
  {
    "country_code": "PK",
    "zipcode": "82400",
    "place": "Sharigh",
    "state": "Balochistan",
    "state_code": "02",
    "province": "",
    "province_code": "",
    "community": "",
    "community_code": "",
    "latitude": "30.4996",
    "longitude": "68.7498"
  },
  {
    "country_code": "PK",
    "zipcode": "83000",
    "place": "Kohlu",
    "state": "Balochistan",
    "state_code": "02",
    "province": "",
    "province_code": "",
    "community": "",
    "community_code": "",
    "latitude": "29.8965",
    "longitude": "69.2532"
  },
  {
    "country_code": "PK",
    "zipcode": "83100",
    "place": "Maiwand",
    "state": "Balochistan",
    "state_code": "02",
    "province": "",
    "province_code": "",
    "community": "",
    "community_code": "",
    "latitude": "29.8965",
    "longitude": "69.2532"
  },
  {
    "country_code": "PK",
    "zipcode": "84100",
    "place": "Chutiali Shafir",
    "state": "Balochistan",
    "state_code": "02",
    "province": "",
    "province_code": "",
    "community": "",
    "community_code": "",
    "latitude": "30.0589",
    "longitude": "69.5253"
  },
  {
    "country_code": "PK",
    "zipcode": "84200",
    "place": "Dukki",
    "state": "Balochistan",
    "state_code": "02",
    "province": "",
    "province_code": "",
    "community": "",
    "community_code": "",
    "latitude": "28.4625",
    "longitude": "70.2153"
  },
  {
    "country_code": "PK",
    "zipcode": "84300",
    "place": "Sinjawi",
    "state": "Balochistan",
    "state_code": "02",
    "province": "",
    "province_code": "",
    "community": "",
    "community_code": "",
    "latitude": "30.2829",
    "longitude": "68.3436"
  },
  {
    "country_code": "PK",
    "zipcode": "84400",
    "place": "Barkhan",
    "state": "Balochistan",
    "state_code": "02",
    "province": "",
    "province_code": "",
    "community": "",
    "community_code": "",
    "latitude": "29.8977",
    "longitude": "69.5256"
  },
  {
    "country_code": "PK",
    "zipcode": "84500",
    "place": "Rakhni",
    "state": "Balochistan",
    "state_code": "02",
    "province": "",
    "province_code": "",
    "community": "",
    "community_code": "",
    "latitude": "30.0442",
    "longitude": "69.9258"
  },
  {
    "country_code": "PK",
    "zipcode": "84600",
    "place": "Rara Sham",
    "state": "Balochistan",
    "state_code": "02",
    "province": "",
    "province_code": "",
    "community": "",
    "community_code": "",
    "latitude": "30.857",
    "longitude": "70.1875"
  },
  {
    "country_code": "PK",
    "zipcode": "84690",
    "place": "Drug",
    "state": "Balochistan",
    "state_code": "02",
    "province": "",
    "province_code": "",
    "community": "",
    "community_code": "",
    "latitude": "30.857",
    "longitude": "70.1875"
  },
  {
    "country_code": "PK",
    "zipcode": "84700",
    "place": "Musa Kel",
    "state": "Balochistan",
    "state_code": "02",
    "province": "",
    "province_code": "",
    "community": "",
    "community_code": "",
    "latitude": "30.4747",
    "longitude": "69.3644"
  },
  {
    "country_code": "PK",
    "zipcode": "84710",
    "place": "Mekhtar",
    "state": "Balochistan",
    "state_code": "02",
    "province": "",
    "province_code": "",
    "community": "",
    "community_code": "",
    "latitude": "30.4747",
    "longitude": "69.3644"
  },
  {
    "country_code": "PK",
    "zipcode": "84800",
    "place": "Loralai Gpo",
    "state": "Balochistan",
    "state_code": "02",
    "province": "",
    "province_code": "",
    "community": "",
    "community_code": "",
    "latitude": "29.9123",
    "longitude": "69.3733"
  },
  {
    "country_code": "PK",
    "zipcode": "84810",
    "place": "Mohsinabad",
    "state": "Balochistan",
    "state_code": "02",
    "province": "",
    "province_code": "",
    "community": "",
    "community_code": "",
    "latitude": "29.1105",
    "longitude": "70.905"
  },
  {
    "country_code": "PK",
    "zipcode": "84820",
    "place": "Loralai Cantt.",
    "state": "Balochistan",
    "state_code": "02",
    "province": "",
    "province_code": "",
    "community": "",
    "community_code": "",
    "latitude": "30.3632",
    "longitude": "68.5996"
  },
  {
    "country_code": "PK",
    "zipcode": "84830",
    "place": "Nahar Kot",
    "state": "Balochistan",
    "state_code": "02",
    "province": "",
    "province_code": "",
    "community": "",
    "community_code": "",
    "latitude": "29.7667",
    "longitude": "69.4661"
  },
  {
    "country_code": "PK",
    "zipcode": "84840",
    "place": "Kach Jamal Bagar",
    "state": "Balochistan",
    "state_code": "02",
    "province": "",
    "province_code": "",
    "community": "",
    "community_code": "",
    "latitude": "29.9123",
    "longitude": "69.3733"
  },
  {
    "country_code": "PK",
    "zipcode": "84850",
    "place": "Shah Karez",
    "state": "Balochistan",
    "state_code": "02",
    "province": "",
    "province_code": "",
    "community": "",
    "community_code": "",
    "latitude": "30.4088",
    "longitude": "68.5223"
  },
  {
    "country_code": "PK",
    "zipcode": "84900",
    "place": "Rar Kan",
    "state": "Balochistan",
    "state_code": "02",
    "province": "",
    "province_code": "",
    "community": "",
    "community_code": "",
    "latitude": "30.0589",
    "longitude": "69.5253"
  },
  {
    "country_code": "PK",
    "zipcode": "85100",
    "place": "Murgha",
    "state": "Balochistan",
    "state_code": "02",
    "province": "",
    "province_code": "",
    "community": "",
    "community_code": "",
    "latitude": "30.7266",
    "longitude": "67.8233"
  },
  {
    "country_code": "PK",
    "zipcode": "85200",
    "place": "Zhob",
    "state": "Balochistan",
    "state_code": "02",
    "province": "",
    "province_code": "",
    "community": "",
    "community_code": "",
    "latitude": "31.3408",
    "longitude": "69.4493"
  },
  {
    "country_code": "PK",
    "zipcode": "85210",
    "place": "Sherani",
    "state": "Balochistan",
    "state_code": "02",
    "province": "",
    "province_code": "",
    "community": "",
    "community_code": "",
    "latitude": "28.2664",
    "longitude": "67.3763"
  },
  {
    "country_code": "PK",
    "zipcode": "85220",
    "place": "Sherani Bazar",
    "state": "Balochistan",
    "state_code": "02",
    "province": "",
    "province_code": "",
    "community": "",
    "community_code": "",
    "latitude": "29.8036",
    "longitude": "68.4128"
  },
  {
    "country_code": "PK",
    "zipcode": "85230",
    "place": "Ganj Mohalla",
    "state": "Balochistan",
    "state_code": "02",
    "province": "",
    "province_code": "",
    "community": "",
    "community_code": "",
    "latitude": "29.8036",
    "longitude": "68.4128"
  },
  {
    "country_code": "PK",
    "zipcode": "85240",
    "place": "Appozai",
    "state": "Balochistan",
    "state_code": "02",
    "province": "",
    "province_code": "",
    "community": "",
    "community_code": "",
    "latitude": "29.8036",
    "longitude": "68.4128"
  },
  {
    "country_code": "PK",
    "zipcode": "85300",
    "place": "Qamar-Ud-Din Karez",
    "state": "Balochistan",
    "state_code": "02",
    "province": "",
    "province_code": "",
    "community": "",
    "community_code": "",
    "latitude": "31.6591",
    "longitude": "68.4033"
  },
  {
    "country_code": "PK",
    "zipcode": "85400",
    "place": "Killa Saifullah",
    "state": "Balochistan",
    "state_code": "02",
    "province": "",
    "province_code": "",
    "community": "",
    "community_code": "",
    "latitude": "30.5249",
    "longitude": "68.6329"
  },
  {
    "country_code": "PK",
    "zipcode": "85500",
    "place": "Muslim Bagh",
    "state": "Balochistan",
    "state_code": "02",
    "province": "",
    "province_code": "",
    "community": "",
    "community_code": "",
    "latitude": "32.7956",
    "longitude": "70.7725"
  },
  {
    "country_code": "PK",
    "zipcode": "86000",
    "place": "Chaman",
    "state": "Balochistan",
    "state_code": "02",
    "province": "",
    "province_code": "",
    "community": "",
    "community_code": "",
    "latitude": "30.5731",
    "longitude": "67.1097"
  },
  {
    "country_code": "PK",
    "zipcode": "86200",
    "place": "Killa Abadulllah",
    "state": "Balochistan",
    "state_code": "02",
    "province": "",
    "province_code": "",
    "community": "",
    "community_code": "",
    "latitude": "28.1813",
    "longitude": "66.1652"
  },
  {
    "country_code": "PK",
    "zipcode": "86210",
    "place": "Killi Abdul Rehmanzai",
    "state": "Balochistan",
    "state_code": "02",
    "province": "",
    "province_code": "",
    "community": "",
    "community_code": "",
    "latitude": "28.1813",
    "longitude": "66.1652"
  },
  {
    "country_code": "PK",
    "zipcode": "86220",
    "place": "Habibabad",
    "state": "Balochistan",
    "state_code": "02",
    "province": "",
    "province_code": "",
    "community": "",
    "community_code": "",
    "latitude": "28.1813",
    "longitude": "66.1652"
  },
  {
    "country_code": "PK",
    "zipcode": "86400",
    "place": "Saranan",
    "state": "Balochistan",
    "state_code": "02",
    "province": "",
    "province_code": "",
    "community": "",
    "community_code": "",
    "latitude": "30.5852",
    "longitude": "66.8725"
  },
  {
    "country_code": "PK",
    "zipcode": "86410",
    "place": "Killi Abdur Rehman Zai",
    "state": "Balochistan",
    "state_code": "02",
    "province": "",
    "province_code": "",
    "community": "",
    "community_code": "",
    "latitude": "30.5852",
    "longitude": "66.8725"
  },
  {
    "country_code": "PK",
    "zipcode": "86500",
    "place": "Bostan",
    "state": "Balochistan",
    "state_code": "02",
    "province": "",
    "province_code": "",
    "community": "",
    "community_code": "",
    "latitude": "30.428",
    "longitude": "67.0184"
  },
  {
    "country_code": "PK",
    "zipcode": "86600",
    "place": "Khanozai",
    "state": "Balochistan",
    "state_code": "02",
    "province": "",
    "province_code": "",
    "community": "",
    "community_code": "",
    "latitude": "30.438",
    "longitude": "66.6474"
  },
  {
    "country_code": "PK",
    "zipcode": "86650",
    "place": "Killi Verchoom",
    "state": "Balochistan",
    "state_code": "02",
    "province": "",
    "province_code": "",
    "community": "",
    "community_code": "",
    "latitude": "30.438",
    "longitude": "66.6474"
  },
  {
    "country_code": "PK",
    "zipcode": "86700",
    "place": "Pishin",
    "state": "Balochistan",
    "state_code": "02",
    "province": "",
    "province_code": "",
    "community": "",
    "community_code": "",
    "latitude": "30.5818",
    "longitude": "66.9941"
  },
  {
    "country_code": "PK",
    "zipcode": "86710",
    "place": "Hurram Zai",
    "state": "Balochistan",
    "state_code": "02",
    "province": "",
    "province_code": "",
    "community": "",
    "community_code": "",
    "latitude": "30.6655",
    "longitude": "66.9901"
  },
  {
    "country_code": "PK",
    "zipcode": "86720",
    "place": "Manzari",
    "state": "Balochistan",
    "state_code": "02",
    "province": "",
    "province_code": "",
    "community": "",
    "community_code": "",
    "latitude": "30.7493",
    "longitude": "66.9861"
  },
  {
    "country_code": "PK",
    "zipcode": "86730",
    "place": "Killi Malakyar",
    "state": "Balochistan",
    "state_code": "02",
    "province": "",
    "province_code": "",
    "community": "",
    "community_code": "",
    "latitude": "30.6655",
    "longitude": "66.9901"
  },
  {
    "country_code": "PK",
    "zipcode": "86800",
    "place": "Barshore",
    "state": "Balochistan",
    "state_code": "02",
    "province": "",
    "province_code": "",
    "community": "",
    "community_code": "",
    "latitude": "30.0195",
    "longitude": "66.7403"
  },
  {
    "country_code": "PK",
    "zipcode": "87000",
    "place": "Kuchlak",
    "state": "Balochistan",
    "state_code": "02",
    "province": "",
    "province_code": "",
    "community": "",
    "community_code": "",
    "latitude": "30.3522",
    "longitude": "66.9402"
  },
  {
    "country_code": "PK",
    "zipcode": "87100",
    "place": "Baleli",
    "state": "Balochistan",
    "state_code": "02",
    "province": "",
    "province_code": "",
    "community": "",
    "community_code": "",
    "latitude": "30.2781",
    "longitude": "66.9116"
  },
  {
    "country_code": "PK",
    "zipcode": "87110",
    "place": "Killi Minhas",
    "state": "Balochistan",
    "state_code": "02",
    "province": "",
    "province_code": "",
    "community": "",
    "community_code": "",
    "latitude": "30.2781",
    "longitude": "66.9116"
  },
  {
    "country_code": "PK",
    "zipcode": "87290",
    "place": "Killi Tirkha",
    "state": "Balochistan",
    "state_code": "02",
    "province": "",
    "province_code": "",
    "community": "",
    "community_code": "",
    "latitude": "30.3264",
    "longitude": "67.1673"
  },
  {
    "country_code": "PK",
    "zipcode": "87300",
    "place": "Quetta Gpo",
    "state": "Balochistan",
    "state_code": "02",
    "province": "",
    "province_code": "",
    "community": "",
    "community_code": "",
    "latitude": "30.6451",
    "longitude": "66.5429"
  },
  {
    "country_code": "PK",
    "zipcode": "87312",
    "place": "Jinnah Town, Queeta",
    "state": "Balochistan",
    "state_code": "02",
    "province": "",
    "province_code": "",
    "community": "",
    "community_code": "",
    "latitude": "30.6451",
    "longitude": "66.5429"
  },
  {
    "country_code": "PK",
    "zipcode": "87320",
    "place": "Hazar Gangi",
    "state": "Balochistan",
    "state_code": "02",
    "province": "",
    "province_code": "",
    "community": "",
    "community_code": "",
    "latitude": "30.6451",
    "longitude": "66.5429"
  },
  {
    "country_code": "PK",
    "zipcode": "87340",
    "place": "Ali Town",
    "state": "Balochistan",
    "state_code": "02",
    "province": "",
    "province_code": "",
    "community": "",
    "community_code": "",
    "latitude": "30.6451",
    "longitude": "66.5429"
  },
  {
    "country_code": "PK",
    "zipcode": "87500",
    "place": "Satellite Town Quetta",
    "state": "Balochistan",
    "state_code": "02",
    "province": "",
    "province_code": "",
    "community": "",
    "community_code": "",
    "latitude": "30.1615",
    "longitude": "67.0049"
  },
  {
    "country_code": "PK",
    "zipcode": "87550",
    "place": "Sariab Road",
    "state": "Balochistan",
    "state_code": "02",
    "province": "",
    "province_code": "",
    "community": "",
    "community_code": "",
    "latitude": "30.1615",
    "longitude": "67.0049"
  },
  {
    "country_code": "PK",
    "zipcode": "87600",
    "place": "Samungali",
    "state": "Balochistan",
    "state_code": "02",
    "province": "",
    "province_code": "",
    "community": "",
    "community_code": "",
    "latitude": "30.3264",
    "longitude": "67.1673"
  },
  {
    "country_code": "PK",
    "zipcode": "87650",
    "place": "Quetta Air Port",
    "state": "Balochistan",
    "state_code": "02",
    "province": "",
    "province_code": "",
    "community": "",
    "community_code": "",
    "latitude": "30.3264",
    "longitude": "67.1673"
  },
  {
    "country_code": "PK",
    "zipcode": "87710",
    "place": "Nawan Killi",
    "state": "Balochistan",
    "state_code": "02",
    "province": "",
    "province_code": "",
    "community": "",
    "community_code": "",
    "latitude": "34.378",
    "longitude": "71.5886"
  },
  {
    "country_code": "PK",
    "zipcode": "87720",
    "place": "Nasirabad",
    "state": "Balochistan",
    "state_code": "02",
    "province": "",
    "province_code": "",
    "community": "",
    "community_code": "",
    "latitude": "28.2027",
    "longitude": "67.9081"
  },
  {
    "country_code": "PK",
    "zipcode": "87750",
    "place": "Infantory School",
    "state": "Balochistan",
    "state_code": "02",
    "province": "",
    "province_code": "",
    "community": "",
    "community_code": "",
    "latitude": "31.2904",
    "longitude": "69.7484"
  },
  {
    "country_code": "PK",
    "zipcode": "87800",
    "place": "Staff College Quetta",
    "state": "Balochistan",
    "state_code": "02",
    "province": "",
    "province_code": "",
    "community": "",
    "community_code": "",
    "latitude": "30.3264",
    "longitude": "67.1673"
  },
  {
    "country_code": "PK",
    "zipcode": "87900",
    "place": "Sariab",
    "state": "Balochistan",
    "state_code": "02",
    "province": "",
    "province_code": "",
    "community": "",
    "community_code": "",
    "latitude": "26.5607",
    "longitude": "62.985"
  },
  {
    "country_code": "PK",
    "zipcode": "88050",
    "place": "Sorange",
    "state": "Balochistan",
    "state_code": "02",
    "province": "",
    "province_code": "",
    "community": "",
    "community_code": "",
    "latitude": "30.1667",
    "longitude": "67.2205"
  },
  {
    "country_code": "PK",
    "zipcode": "88100",
    "place": "Mastung Road",
    "state": "Balochistan",
    "state_code": "02",
    "province": "",
    "province_code": "",
    "community": "",
    "community_code": "",
    "latitude": "29.8802",
    "longitude": "66.8418"
  },
  {
    "country_code": "PK",
    "zipcode": "88150",
    "place": "Digari",
    "state": "Balochistan",
    "state_code": "02",
    "province": "",
    "province_code": "",
    "community": "",
    "community_code": "",
    "latitude": "30.0727",
    "longitude": "67.2122"
  },
  {
    "country_code": "PK",
    "zipcode": "88200",
    "place": "Mastung",
    "state": "Balochistan",
    "state_code": "02",
    "province": "",
    "province_code": "",
    "community": "",
    "community_code": "",
    "latitude": "28.1202",
    "longitude": "66.4106"
  },
  {
    "country_code": "PK",
    "zipcode": "88210",
    "place": "Khad Kucha",
    "state": "Balochistan",
    "state_code": "02",
    "province": "",
    "province_code": "",
    "community": "",
    "community_code": "",
    "latitude": "27.2318",
    "longitude": "65.6633"
  },
  {
    "country_code": "PK",
    "zipcode": "88220",
    "place": "Kirdgap",
    "state": "Balochistan",
    "state_code": "02",
    "province": "",
    "province_code": "",
    "community": "",
    "community_code": "",
    "latitude": "28.1202",
    "longitude": "66.4106"
  },
  {
    "country_code": "PK",
    "zipcode": "88230",
    "place": "Dringarh",
    "state": "Balochistan",
    "state_code": "02",
    "province": "",
    "province_code": "",
    "community": "",
    "community_code": "",
    "latitude": "28.1202",
    "longitude": "66.4106"
  },
  {
    "country_code": "PK",
    "zipcode": "88240",
    "place": "Kanak",
    "state": "Balochistan",
    "state_code": "02",
    "province": "",
    "province_code": "",
    "community": "",
    "community_code": "",
    "latitude": "27.8",
    "longitude": "66.5969"
  },
  {
    "country_code": "PK",
    "zipcode": "88250",
    "place": "Manochar",
    "state": "Balochistan",
    "state_code": "02",
    "province": "",
    "province_code": "",
    "community": "",
    "community_code": "",
    "latitude": "28.1202",
    "longitude": "66.4106"
  },
  {
    "country_code": "PK",
    "zipcode": "88260",
    "place": "Johan",
    "state": "Balochistan",
    "state_code": "02",
    "province": "",
    "province_code": "",
    "community": "",
    "community_code": "",
    "latitude": "29.3289",
    "longitude": "66.9716"
  },
  {
    "country_code": "PK",
    "zipcode": "88300",
    "place": "Kalat",
    "state": "Balochistan",
    "state_code": "02",
    "province": "",
    "province_code": "",
    "community": "",
    "community_code": "",
    "latitude": "29.0266",
    "longitude": "66.5936"
  },
  {
    "country_code": "PK",
    "zipcode": "88310",
    "place": "Kalat Petrol Pump",
    "state": "Balochistan",
    "state_code": "02",
    "province": "",
    "province_code": "",
    "community": "",
    "community_code": "",
    "latitude": "28.9437",
    "longitude": "66.6723"
  },
  {
    "country_code": "PK",
    "zipcode": "88320",
    "place": "Moola",
    "state": "Balochistan",
    "state_code": "02",
    "province": "",
    "province_code": "",
    "community": "",
    "community_code": "",
    "latitude": "28.9437",
    "longitude": "66.6723"
  },
  {
    "country_code": "PK",
    "zipcode": "88350",
    "place": "Nichara",
    "state": "Balochistan",
    "state_code": "02",
    "province": "",
    "province_code": "",
    "community": "",
    "community_code": "",
    "latitude": "28.8607",
    "longitude": "66.751"
  },
  {
    "country_code": "PK",
    "zipcode": "88360",
    "place": "Pidran",
    "state": "Balochistan",
    "state_code": "02",
    "province": "",
    "province_code": "",
    "community": "",
    "community_code": "",
    "latitude": "28.9437",
    "longitude": "66.6723"
  },
  {
    "country_code": "PK",
    "zipcode": "88370",
    "place": "Sorab Croos",
    "state": "Balochistan",
    "state_code": "02",
    "province": "",
    "province_code": "",
    "community": "",
    "community_code": "",
    "latitude": "28.9437",
    "longitude": "66.6723"
  },
  {
    "country_code": "PK",
    "zipcode": "88400",
    "place": "Sorab",
    "state": "Balochistan",
    "state_code": "02",
    "province": "",
    "province_code": "",
    "community": "",
    "community_code": "",
    "latitude": "27.3167",
    "longitude": "64.75"
  },
  {
    "country_code": "PK",
    "zipcode": "88410",
    "place": "Umerabad Gidder",
    "state": "Balochistan",
    "state_code": "02",
    "province": "",
    "province_code": "",
    "community": "",
    "community_code": "",
    "latitude": "27.3647",
    "longitude": "64.941"
  },
  {
    "country_code": "PK",
    "zipcode": "88420",
    "place": "Basima",
    "state": "Balochistan",
    "state_code": "02",
    "province": "",
    "province_code": "",
    "community": "",
    "community_code": "",
    "latitude": "27.3647",
    "longitude": "64.941"
  },
  {
    "country_code": "PK",
    "zipcode": "88430",
    "place": "Nag",
    "state": "Balochistan",
    "state_code": "02",
    "province": "",
    "province_code": "",
    "community": "",
    "community_code": "",
    "latitude": "27.4127",
    "longitude": "65.132"
  },
  {
    "country_code": "PK",
    "zipcode": "88450",
    "place": "Zehri",
    "state": "Balochistan",
    "state_code": "02",
    "province": "",
    "province_code": "",
    "community": "",
    "community_code": "",
    "latitude": "27.3647",
    "longitude": "64.941"
  },
  {
    "country_code": "PK",
    "zipcode": "89100",
    "place": "Khuzdar Gpo",
    "state": "Balochistan",
    "state_code": "02",
    "province": "",
    "province_code": "",
    "community": "",
    "community_code": "",
    "latitude": "29.1506",
    "longitude": "67.6965"
  },
  {
    "country_code": "PK",
    "zipcode": "89120",
    "place": "Buet",
    "state": "Balochistan",
    "state_code": "02",
    "province": "",
    "province_code": "",
    "community": "",
    "community_code": "",
    "latitude": "29.1506",
    "longitude": "67.6965"
  },
  {
    "country_code": "PK",
    "zipcode": "89130",
    "place": "Chamrok",
    "state": "Balochistan",
    "state_code": "02",
    "province": "",
    "province_code": "",
    "community": "",
    "community_code": "",
    "latitude": "29.1506",
    "longitude": "67.6965"
  },
  {
    "country_code": "PK",
    "zipcode": "89140",
    "place": "Tootak",
    "state": "Balochistan",
    "state_code": "02",
    "province": "",
    "province_code": "",
    "community": "",
    "community_code": "",
    "latitude": "29.1506",
    "longitude": "67.6965"
  },
  {
    "country_code": "PK",
    "zipcode": "89150",
    "place": "Khuzdar Cantt.",
    "state": "Balochistan",
    "state_code": "02",
    "province": "",
    "province_code": "",
    "community": "",
    "community_code": "",
    "latitude": "29.1506",
    "longitude": "67.6965"
  },
  {
    "country_code": "PK",
    "zipcode": "89160",
    "place": "Kuzdar Bazar",
    "state": "Balochistan",
    "state_code": "02",
    "province": "",
    "province_code": "",
    "community": "",
    "community_code": "",
    "latitude": "29.1506",
    "longitude": "67.6965"
  },
  {
    "country_code": "PK",
    "zipcode": "89170",
    "place": "Khattan",
    "state": "Balochistan",
    "state_code": "02",
    "province": "",
    "province_code": "",
    "community": "",
    "community_code": "",
    "latitude": "29.1506",
    "longitude": "67.6965"
  },
  {
    "country_code": "PK",
    "zipcode": "89200",
    "place": "Mashkey",
    "state": "Balochistan",
    "state_code": "02",
    "province": "",
    "province_code": "",
    "community": "",
    "community_code": "",
    "latitude": "27.3733",
    "longitude": "66.3266"
  },
  {
    "country_code": "PK",
    "zipcode": "89230",
    "place": "Zeedi",
    "state": "Balochistan",
    "state_code": "02",
    "province": "",
    "province_code": "",
    "community": "",
    "community_code": "",
    "latitude": "27.3733",
    "longitude": "66.3266"
  },
  {
    "country_code": "PK",
    "zipcode": "89240",
    "place": "Jinnah Camp",
    "state": "Balochistan",
    "state_code": "02",
    "province": "",
    "province_code": "",
    "community": "",
    "community_code": "",
    "latitude": "27.3733",
    "longitude": "66.3266"
  },
  {
    "country_code": "PK",
    "zipcode": "89250",
    "place": "Wadh",
    "state": "Balochistan",
    "state_code": "02",
    "province": "",
    "province_code": "",
    "community": "",
    "community_code": "",
    "latitude": "27.449",
    "longitude": "66.91"
  },
  {
    "country_code": "PK",
    "zipcode": "89260",
    "place": "Jibri",
    "state": "Balochistan",
    "state_code": "02",
    "province": "",
    "province_code": "",
    "community": "",
    "community_code": "",
    "latitude": "27.2977",
    "longitude": "65.7432"
  },
  {
    "country_code": "PK",
    "zipcode": "89270",
    "place": "Ornach",
    "state": "Balochistan",
    "state_code": "02",
    "province": "",
    "province_code": "",
    "community": "",
    "community_code": "",
    "latitude": "27.3733",
    "longitude": "66.3266"
  },
  {
    "country_code": "PK",
    "zipcode": "89300",
    "place": "Kalwan",
    "state": "Balochistan",
    "state_code": "02",
    "province": "",
    "province_code": "",
    "community": "",
    "community_code": "",
    "latitude": "34.8851",
    "longitude": "73.9306"
  },
  {
    "country_code": "PK",
    "zipcode": "89350",
    "place": "Karakh",
    "state": "Balochistan",
    "state_code": "02",
    "province": "",
    "province_code": "",
    "community": "",
    "community_code": "",
    "latitude": "27.7363",
    "longitude": "67.1728"
  },
  {
    "country_code": "PK",
    "zipcode": "90050",
    "place": "Bela",
    "state": "Balochistan",
    "state_code": "02",
    "province": "",
    "province_code": "",
    "community": "",
    "community_code": "",
    "latitude": "26.2272",
    "longitude": "66.3118"
  },
  {
    "country_code": "PK",
    "zipcode": "90150",
    "place": "Uthal",
    "state": "Balochistan",
    "state_code": "02",
    "province": "",
    "province_code": "",
    "community": "",
    "community_code": "",
    "latitude": "25.8072",
    "longitude": "66.6219"
  },
  {
    "country_code": "PK",
    "zipcode": "90160",
    "place": "Lakhra",
    "state": "Balochistan",
    "state_code": "02",
    "province": "",
    "province_code": "",
    "community": "",
    "community_code": "",
    "latitude": "25.8647",
    "longitude": "66.4517"
  },
  {
    "country_code": "PK",
    "zipcode": "90200",
    "place": "Miani Beach",
    "state": "Balochistan",
    "state_code": "02",
    "province": "",
    "province_code": "",
    "community": "",
    "community_code": "",
    "latitude": "25.6273",
    "longitude": "66.57"
  },
  {
    "country_code": "PK",
    "zipcode": "90210",
    "place": "Sommiani (Winder)",
    "state": "Balochistan",
    "state_code": "02",
    "province": "",
    "province_code": "",
    "community": "",
    "community_code": "",
    "latitude": "25.6273",
    "longitude": "66.57"
  },
  {
    "country_code": "PK",
    "zipcode": "90250",
    "place": "Hub Chowki",
    "state": "Balochistan",
    "state_code": "02",
    "province": "",
    "province_code": "",
    "community": "",
    "community_code": "",
    "latitude": "25.6273",
    "longitude": "66.57"
  },
  {
    "country_code": "PK",
    "zipcode": "90260",
    "place": "Civic Centre Hub",
    "state": "Balochistan",
    "state_code": "02",
    "province": "",
    "province_code": "",
    "community": "",
    "community_code": "",
    "latitude": "25.6273",
    "longitude": "66.57"
  },
  {
    "country_code": "PK",
    "zipcode": "90300",
    "place": "Gadani",
    "state": "Balochistan",
    "state_code": "02",
    "province": "",
    "province_code": "",
    "community": "",
    "community_code": "",
    "latitude": "25.1188",
    "longitude": "66.7322"
  },
  {
    "country_code": "PK",
    "zipcode": "90350",
    "place": "Balicha",
    "state": "Balochistan",
    "state_code": "02",
    "province": "",
    "province_code": "",
    "community": "",
    "community_code": "",
    "latitude": "25.1188",
    "longitude": "66.7322"
  },
  {
    "country_code": "PK",
    "zipcode": "91100",
    "place": "Jiwani",
    "state": "Balochistan",
    "state_code": "02",
    "province": "",
    "province_code": "",
    "community": "",
    "community_code": "",
    "latitude": "25.0485",
    "longitude": "61.7457"
  },
  {
    "country_code": "PK",
    "zipcode": "91200",
    "place": "Gawadar",
    "state": "Balochistan",
    "state_code": "02",
    "province": "",
    "province_code": "",
    "community": "",
    "community_code": "",
    "latitude": "25.1739",
    "longitude": "63.2837"
  },
  {
    "country_code": "PK",
    "zipcode": "91210",
    "place": "Surbandar",
    "state": "Balochistan",
    "state_code": "02",
    "province": "",
    "province_code": "",
    "community": "",
    "community_code": "",
    "latitude": "25.1739",
    "longitude": "63.2837"
  },
  {
    "country_code": "PK",
    "zipcode": "91220",
    "place": "Peshkan",
    "state": "Balochistan",
    "state_code": "02",
    "province": "",
    "province_code": "",
    "community": "",
    "community_code": "",
    "latitude": "25.1739",
    "longitude": "63.2837"
  },
  {
    "country_code": "PK",
    "zipcode": "91300",
    "place": "Pasni",
    "state": "Balochistan",
    "state_code": "02",
    "province": "",
    "province_code": "",
    "community": "",
    "community_code": "",
    "latitude": "25.263",
    "longitude": "63.4692"
  },
  {
    "country_code": "PK",
    "zipcode": "91400",
    "place": "Ormara",
    "state": "Balochistan",
    "state_code": "02",
    "province": "",
    "province_code": "",
    "community": "",
    "community_code": "",
    "latitude": "25.2102",
    "longitude": "64.6363"
  },
  {
    "country_code": "PK",
    "zipcode": "92100",
    "place": "Mand",
    "state": "Balochistan",
    "state_code": "02",
    "province": "",
    "province_code": "",
    "community": "",
    "community_code": "",
    "latitude": "26.1167",
    "longitude": "62.0326"
  },
  {
    "country_code": "PK",
    "zipcode": "92300",
    "place": "Tump",
    "state": "Balochistan",
    "state_code": "02",
    "province": "",
    "province_code": "",
    "community": "",
    "community_code": "",
    "latitude": "26.1014",
    "longitude": "62.3659"
  },
  {
    "country_code": "PK",
    "zipcode": "92400",
    "place": "Kalatuk",
    "state": "Balochistan",
    "state_code": "02",
    "province": "",
    "province_code": "",
    "community": "",
    "community_code": "",
    "latitude": "26.0359",
    "longitude": "62.8952"
  },
  {
    "country_code": "PK",
    "zipcode": "92500",
    "place": "Shahi Tump",
    "state": "Balochistan",
    "state_code": "02",
    "province": "",
    "province_code": "",
    "community": "",
    "community_code": "",
    "latitude": "26.0035",
    "longitude": "63.0182"
  },
  {
    "country_code": "PK",
    "zipcode": "92600",
    "place": "Turbat Gpo",
    "state": "Balochistan",
    "state_code": "02",
    "province": "",
    "province_code": "",
    "community": "",
    "community_code": "",
    "latitude": "25.8998",
    "longitude": "62.5082"
  },
  {
    "country_code": "PK",
    "zipcode": "92610",
    "place": "Asiabad",
    "state": "Balochistan",
    "state_code": "02",
    "province": "",
    "province_code": "",
    "community": "",
    "community_code": "",
    "latitude": "26.0887",
    "longitude": "62.4742"
  },
  {
    "country_code": "PK",
    "zipcode": "92650",
    "place": "Kuddan",
    "state": "Balochistan",
    "state_code": "02",
    "province": "",
    "province_code": "",
    "community": "",
    "community_code": "",
    "latitude": "25.7109",
    "longitude": "62.5421"
  },
  {
    "country_code": "PK",
    "zipcode": "92800",
    "place": "Buleda",
    "state": "Balochistan",
    "state_code": "02",
    "province": "",
    "province_code": "",
    "community": "",
    "community_code": "",
    "latitude": "26.3091",
    "longitude": "63.1537"
  },
  {
    "country_code": "PK",
    "zipcode": "92810",
    "place": "Solo Buleda",
    "state": "Balochistan",
    "state_code": "02",
    "province": "",
    "province_code": "",
    "community": "",
    "community_code": "",
    "latitude": "26.3091",
    "longitude": "63.1537"
  },
  {
    "country_code": "PK",
    "zipcode": "92900",
    "place": "Nasirabad",
    "state": "Balochistan",
    "state_code": "02",
    "province": "",
    "province_code": "",
    "community": "",
    "community_code": "",
    "latitude": "26.0669",
    "longitude": "62.7134"
  },
  {
    "country_code": "PK",
    "zipcode": "92910",
    "place": "Hoshab",
    "state": "Balochistan",
    "state_code": "02",
    "province": "",
    "province_code": "",
    "community": "",
    "community_code": "",
    "latitude": "26.0159",
    "longitude": "63.8883"
  },
  {
    "country_code": "PK",
    "zipcode": "93000",
    "place": "Panjgur",
    "state": "Balochistan",
    "state_code": "02",
    "province": "",
    "province_code": "",
    "community": "",
    "community_code": "",
    "latitude": "26.9719",
    "longitude": "64.0946"
  },
  {
    "country_code": "PK",
    "zipcode": "93100",
    "place": "Patak",
    "state": "Balochistan",
    "state_code": "02",
    "province": "",
    "province_code": "",
    "community": "",
    "community_code": "",
    "latitude": "27.7538",
    "longitude": "65.616"
  },
  {
    "country_code": "PK",
    "zipcode": "93200",
    "place": "Katagari",
    "state": "Balochistan",
    "state_code": "02",
    "province": "",
    "province_code": "",
    "community": "",
    "community_code": "",
    "latitude": "26.7534",
    "longitude": "64.0285"
  },
  {
    "country_code": "PK",
    "zipcode": "93210",
    "place": "Washbood",
    "state": "Balochistan",
    "state_code": "02",
    "province": "",
    "province_code": "",
    "community": "",
    "community_code": "",
    "latitude": "26.7534",
    "longitude": "64.0285"
  },
  {
    "country_code": "PK",
    "zipcode": "93220",
    "place": "Khudabandan",
    "state": "Balochistan",
    "state_code": "02",
    "province": "",
    "province_code": "",
    "community": "",
    "community_code": "",
    "latitude": "26.7534",
    "longitude": "64.0285"
  },
  {
    "country_code": "PK",
    "zipcode": "93230",
    "place": "Tasap",
    "state": "Balochistan",
    "state_code": "02",
    "province": "",
    "province_code": "",
    "community": "",
    "community_code": "",
    "latitude": "26.7534",
    "longitude": "64.0285"
  },
  {
    "country_code": "PK",
    "zipcode": "94050",
    "place": "Basima",
    "state": "Balochistan",
    "state_code": "02",
    "province": "",
    "province_code": "",
    "community": "",
    "community_code": "",
    "latitude": "28.2839",
    "longitude": "65.106"
  },
  {
    "country_code": "PK",
    "zipcode": "94100",
    "place": "Kharan",
    "state": "Balochistan",
    "state_code": "02",
    "province": "",
    "province_code": "",
    "community": "",
    "community_code": "",
    "latitude": "28.5846",
    "longitude": "65.415"
  },
  {
    "country_code": "PK",
    "zipcode": "94110",
    "place": "Washuk",
    "state": "Balochistan",
    "state_code": "02",
    "province": "",
    "province_code": "",
    "community": "",
    "community_code": "",
    "latitude": "27.7273",
    "longitude": "64.8097"
  },
  {
    "country_code": "PK",
    "zipcode": "94150",
    "place": "Ladgasht",
    "state": "Balochistan",
    "state_code": "02",
    "province": "",
    "province_code": "",
    "community": "",
    "community_code": "",
    "latitude": "28.5399",
    "longitude": "65.0934"
  },
  {
    "country_code": "PK",
    "zipcode": "95000",
    "place": "Koh Taftan",
    "state": "Balochistan",
    "state_code": "02",
    "province": "",
    "province_code": "",
    "community": "",
    "community_code": "",
    "latitude": "29.1046",
    "longitude": "65.2193"
  },
  {
    "country_code": "PK",
    "zipcode": "95040",
    "place": "Yak Mach",
    "state": "Balochistan",
    "state_code": "02",
    "province": "",
    "province_code": "",
    "community": "",
    "community_code": "",
    "latitude": "29.1046",
    "longitude": "65.2193"
  },
  {
    "country_code": "PK",
    "zipcode": "95050",
    "place": "Nokundi",
    "state": "Balochistan",
    "state_code": "02",
    "province": "",
    "province_code": "",
    "community": "",
    "community_code": "",
    "latitude": "29.1046",
    "longitude": "65.2193"
  },
  {
    "country_code": "PK",
    "zipcode": "95060",
    "place": "Amori",
    "state": "Balochistan",
    "state_code": "02",
    "province": "",
    "province_code": "",
    "community": "",
    "community_code": "",
    "latitude": "29.1046",
    "longitude": "65.2193"
  },
  {
    "country_code": "PK",
    "zipcode": "95100",
    "place": "Dalbandin",
    "state": "Balochistan",
    "state_code": "02",
    "province": "",
    "province_code": "",
    "community": "",
    "community_code": "",
    "latitude": "28.8885",
    "longitude": "64.4062"
  },
  {
    "country_code": "PK",
    "zipcode": "95110",
    "place": "Padag",
    "state": "Balochistan",
    "state_code": "02",
    "province": "",
    "province_code": "",
    "community": "",
    "community_code": "",
    "latitude": "29.0031",
    "longitude": "65.3154"
  },
  {
    "country_code": "PK",
    "zipcode": "95120",
    "place": "Chaghi",
    "state": "Balochistan",
    "state_code": "02",
    "province": "",
    "province_code": "",
    "community": "",
    "community_code": "",
    "latitude": "29.1046",
    "longitude": "65.2193"
  },
  {
    "country_code": "PK",
    "zipcode": "95130",
    "place": "Brapcha",
    "state": "Balochistan",
    "state_code": "02",
    "province": "",
    "province_code": "",
    "community": "",
    "community_code": "",
    "latitude": "29.1046",
    "longitude": "65.2193"
  },
  {
    "country_code": "PK",
    "zipcode": "95150",
    "place": "Ahmedwal",
    "state": "Balochistan",
    "state_code": "02",
    "province": "",
    "province_code": "",
    "community": "",
    "community_code": "",
    "latitude": "29.4222",
    "longitude": "65.9364"
  },
  {
    "country_code": "PK",
    "zipcode": "95200",
    "place": "Nushki Gpo",
    "state": "Balochistan",
    "state_code": "02",
    "province": "",
    "province_code": "",
    "community": "",
    "community_code": "",
    "latitude": "29.1046",
    "longitude": "65.2193"
  },
  {
    "country_code": "PK",
    "zipcode": "95210",
    "place": "Sar Mall",
    "state": "Balochistan",
    "state_code": "02",
    "province": "",
    "province_code": "",
    "community": "",
    "community_code": "",
    "latitude": "29.1046",
    "longitude": "65.2193"
  },
  {
    "country_code": "PK",
    "zipcode": "96000",
    "place": "Ziarat",
    "state": "Balochistan",
    "state_code": "02",
    "province": "",
    "province_code": "",
    "community": "",
    "community_code": "",
    "latitude": "30.3434",
    "longitude": "67.7422"
  },
  {
    "country_code": "PK",
    "zipcode": "96100",
    "place": "Ahmadoon",
    "state": "Balochistan",
    "state_code": "02",
    "province": "",
    "province_code": "",
    "community": "",
    "community_code": "",
    "latitude": "30.3434",
    "longitude": "67.7422"
  },
  {
    "country_code": "PK",
    "zipcode": "17000",
    "place": "Mera Gram",
    "state": "Khyber Pakhtunkhwa",
    "state_code": "03",
    "province": "",
    "province_code": "",
    "community": "",
    "community_code": "",
    "latitude": "35.9268",
    "longitude": "71.5265"
  },
  {
    "country_code": "PK",
    "zipcode": "17010",
    "place": "Brep",
    "state": "Khyber Pakhtunkhwa",
    "state_code": "03",
    "province": "",
    "province_code": "",
    "community": "",
    "community_code": "",
    "latitude": "35.9268",
    "longitude": "71.5265"
  },
  {
    "country_code": "PK",
    "zipcode": "17020",
    "place": "Mastaj",
    "state": "Khyber Pakhtunkhwa",
    "state_code": "03",
    "province": "",
    "province_code": "",
    "community": "",
    "community_code": "",
    "latitude": "35.9268",
    "longitude": "71.5265"
  },
  {
    "country_code": "PK",
    "zipcode": "17030",
    "place": "Harichin",
    "state": "Khyber Pakhtunkhwa",
    "state_code": "03",
    "province": "",
    "province_code": "",
    "community": "",
    "community_code": "",
    "latitude": "35.9268",
    "longitude": "71.5265"
  },
  {
    "country_code": "PK",
    "zipcode": "17050",
    "place": "Booni",
    "state": "Khyber Pakhtunkhwa",
    "state_code": "03",
    "province": "",
    "province_code": "",
    "community": "",
    "community_code": "",
    "latitude": "35.9268",
    "longitude": "71.5265"
  },
  {
    "country_code": "PK",
    "zipcode": "17054",
    "place": "Booni Main Bazar",
    "state": "Khyber Pakhtunkhwa",
    "state_code": "03",
    "province": "",
    "province_code": "",
    "community": "",
    "community_code": "",
    "latitude": "35.9268",
    "longitude": "71.5265"
  },
  {
    "country_code": "PK",
    "zipcode": "17060",
    "place": "Darason",
    "state": "Khyber Pakhtunkhwa",
    "state_code": "03",
    "province": "",
    "province_code": "",
    "community": "",
    "community_code": "",
    "latitude": "35.9268",
    "longitude": "71.5265"
  },
  {
    "country_code": "PK",
    "zipcode": "17070",
    "place": "Gohkeer",
    "state": "Khyber Pakhtunkhwa",
    "state_code": "03",
    "province": "",
    "province_code": "",
    "community": "",
    "community_code": "",
    "latitude": "35.9268",
    "longitude": "71.5265"
  },
  {
    "country_code": "PK",
    "zipcode": "17080",
    "place": "Shah Gram",
    "state": "Khyber Pakhtunkhwa",
    "state_code": "03",
    "province": "",
    "province_code": "",
    "community": "",
    "community_code": "",
    "latitude": "35.9268",
    "longitude": "71.5265"
  },
  {
    "country_code": "PK",
    "zipcode": "17090",
    "place": "Shot Khara",
    "state": "Khyber Pakhtunkhwa",
    "state_code": "03",
    "province": "",
    "province_code": "",
    "community": "",
    "community_code": "",
    "latitude": "35.9268",
    "longitude": "71.5265"
  },
  {
    "country_code": "PK",
    "zipcode": "17100",
    "place": "Kosht",
    "state": "Khyber Pakhtunkhwa",
    "state_code": "03",
    "province": "",
    "province_code": "",
    "community": "",
    "community_code": "",
    "latitude": "36.242",
    "longitude": "72.1593"
  },
  {
    "country_code": "PK",
    "zipcode": "17110",
    "place": "Reshun",
    "state": "Khyber Pakhtunkhwa",
    "state_code": "03",
    "province": "",
    "province_code": "",
    "community": "",
    "community_code": "",
    "latitude": "36.1571",
    "longitude": "72.104"
  },
  {
    "country_code": "PK",
    "zipcode": "17120",
    "place": "Kaghuzai",
    "state": "Khyber Pakhtunkhwa",
    "state_code": "03",
    "province": "",
    "province_code": "",
    "community": "",
    "community_code": "",
    "latitude": "36.1307",
    "longitude": "71.9409"
  },
  {
    "country_code": "PK",
    "zipcode": "17130",
    "place": "Garam Chashma",
    "state": "Khyber Pakhtunkhwa",
    "state_code": "03",
    "province": "",
    "province_code": "",
    "community": "",
    "community_code": "",
    "latitude": "35.993",
    "longitude": "71.5594"
  },
  {
    "country_code": "PK",
    "zipcode": "17140",
    "place": "Para Beg",
    "state": "Khyber Pakhtunkhwa",
    "state_code": "03",
    "province": "",
    "province_code": "",
    "community": "",
    "community_code": "",
    "latitude": "36.1307",
    "longitude": "71.9409"
  },
  {
    "country_code": "PK",
    "zipcode": "17200",
    "place": "Chitral Gpo",
    "state": "Khyber Pakhtunkhwa",
    "state_code": "03",
    "province": "",
    "province_code": "",
    "community": "",
    "community_code": "",
    "latitude": "34.7902",
    "longitude": "71.7932"
  },
  {
    "country_code": "PK",
    "zipcode": "17210",
    "place": "Ayun",
    "state": "Khyber Pakhtunkhwa",
    "state_code": "03",
    "province": "",
    "province_code": "",
    "community": "",
    "community_code": "",
    "latitude": "35.7254",
    "longitude": "71.7728"
  },
  {
    "country_code": "PK",
    "zipcode": "17220",
    "place": "Drosh",
    "state": "Khyber Pakhtunkhwa",
    "state_code": "03",
    "province": "",
    "province_code": "",
    "community": "",
    "community_code": "",
    "latitude": "35.5604",
    "longitude": "71.796"
  },
  {
    "country_code": "PK",
    "zipcode": "17230",
    "place": "Broz",
    "state": "Khyber Pakhtunkhwa",
    "state_code": "03",
    "province": "",
    "province_code": "",
    "community": "",
    "community_code": "",
    "latitude": "35.3941",
    "longitude": "71.6781"
  },
  {
    "country_code": "PK",
    "zipcode": "17234",
    "place": "Sair Door",
    "state": "Khyber Pakhtunkhwa",
    "state_code": "03",
    "province": "",
    "province_code": "",
    "community": "",
    "community_code": "",
    "latitude": "35.3941",
    "longitude": "71.6781"
  },
  {
    "country_code": "PK",
    "zipcode": "17240",
    "place": "Nagar",
    "state": "Khyber Pakhtunkhwa",
    "state_code": "03",
    "province": "",
    "province_code": "",
    "community": "",
    "community_code": "",
    "latitude": "34.036",
    "longitude": "72.949"
  },
  {
    "country_code": "PK",
    "zipcode": "17250",
    "place": "Aranda",
    "state": "Khyber Pakhtunkhwa",
    "state_code": "03",
    "province": "",
    "province_code": "",
    "community": "",
    "community_code": "",
    "latitude": "34.2243",
    "longitude": "71.5362"
  },
  {
    "country_code": "PK",
    "zipcode": "17260",
    "place": "Ashrit",
    "state": "Khyber Pakhtunkhwa",
    "state_code": "03",
    "province": "",
    "province_code": "",
    "community": "",
    "community_code": "",
    "latitude": "34.7902",
    "longitude": "71.7932"
  },
  {
    "country_code": "PK",
    "zipcode": "17290",
    "place": "Daggar",
    "state": "Khyber Pakhtunkhwa",
    "state_code": "03",
    "province": "",
    "province_code": "",
    "community": "",
    "community_code": "",
    "latitude": "33.197",
    "longitude": "71.1424"
  },
  {
    "country_code": "PK",
    "zipcode": "18000",
    "place": "Dir",
    "state": "Khyber Pakhtunkhwa",
    "state_code": "03",
    "province": "",
    "province_code": "",
    "community": "",
    "community_code": "",
    "latitude": "35.2074",
    "longitude": "71.8768"
  },
  {
    "country_code": "PK",
    "zipcode": "18050",
    "place": "Sharingal",
    "state": "Khyber Pakhtunkhwa",
    "state_code": "03",
    "province": "",
    "province_code": "",
    "community": "",
    "community_code": "",
    "latitude": "35.2074",
    "longitude": "71.8768"
  },
  {
    "country_code": "PK",
    "zipcode": "18100",
    "place": "Barawal Bandi",
    "state": "Khyber Pakhtunkhwa",
    "state_code": "03",
    "province": "",
    "province_code": "",
    "community": "",
    "community_code": "",
    "latitude": "35.0905",
    "longitude": "71.7636"
  },
  {
    "country_code": "PK",
    "zipcode": "18150",
    "place": "Darora",
    "state": "Khyber Pakhtunkhwa",
    "state_code": "03",
    "province": "",
    "province_code": "",
    "community": "",
    "community_code": "",
    "latitude": "35.1025",
    "longitude": "71.9881"
  },
  {
    "country_code": "PK",
    "zipcode": "18200",
    "place": "Wari",
    "state": "Khyber Pakhtunkhwa",
    "state_code": "03",
    "province": "",
    "province_code": "",
    "community": "",
    "community_code": "",
    "latitude": "34.7925",
    "longitude": "71.7967"
  },
  {
    "country_code": "PK",
    "zipcode": "18210",
    "place": "Shahibabad",
    "state": "Khyber Pakhtunkhwa",
    "state_code": "03",
    "province": "",
    "province_code": "",
    "community": "",
    "community_code": "",
    "latitude": "34.7925",
    "longitude": "71.7967"
  },
  {
    "country_code": "PK",
    "zipcode": "18250",
    "place": "Khall",
    "state": "Khyber Pakhtunkhwa",
    "state_code": "03",
    "province": "",
    "province_code": "",
    "community": "",
    "community_code": "",
    "latitude": "34.7925",
    "longitude": "71.7967"
  },
  {
    "country_code": "PK",
    "zipcode": "18300",
    "place": "Timargara",
    "state": "Khyber Pakhtunkhwa",
    "state_code": "03",
    "province": "",
    "province_code": "",
    "community": "",
    "community_code": "",
    "latitude": "34.8266",
    "longitude": "71.8442"
  },
  {
    "country_code": "PK",
    "zipcode": "18350",
    "place": "Lal Qilla",
    "state": "Khyber Pakhtunkhwa",
    "state_code": "03",
    "province": "",
    "province_code": "",
    "community": "",
    "community_code": "",
    "latitude": "34.8266",
    "longitude": "71.8442"
  },
  {
    "country_code": "PK",
    "zipcode": "18400",
    "place": "Dara Manial",
    "state": "Khyber Pakhtunkhwa",
    "state_code": "03",
    "province": "",
    "province_code": "",
    "community": "",
    "community_code": "",
    "latitude": "34.7925",
    "longitude": "71.7967"
  },
  {
    "country_code": "PK",
    "zipcode": "18450",
    "place": "Zaimdara",
    "state": "Khyber Pakhtunkhwa",
    "state_code": "03",
    "province": "",
    "province_code": "",
    "community": "",
    "community_code": "",
    "latitude": "34.7925",
    "longitude": "71.7967"
  },
  {
    "country_code": "PK",
    "zipcode": "18500",
    "place": "Munda",
    "state": "Khyber Pakhtunkhwa",
    "state_code": "03",
    "province": "",
    "province_code": "",
    "community": "",
    "community_code": "",
    "latitude": "34.8237",
    "longitude": "71.6856"
  },
  {
    "country_code": "PK",
    "zipcode": "18550",
    "place": "Mayar Jandol",
    "state": "Khyber Pakhtunkhwa",
    "state_code": "03",
    "province": "",
    "province_code": "",
    "community": "",
    "community_code": "",
    "latitude": "34.8237",
    "longitude": "71.6856"
  },
  {
    "country_code": "PK",
    "zipcode": "18600",
    "place": "Samar Bagh",
    "state": "Khyber Pakhtunkhwa",
    "state_code": "03",
    "province": "",
    "province_code": "",
    "community": "",
    "community_code": "",
    "latitude": "34.0501",
    "longitude": "71.6051"
  },
  {
    "country_code": "PK",
    "zipcode": "18650",
    "place": "Khar (Bajaur Agency)",
    "state": "Khyber Pakhtunkhwa",
    "state_code": "03",
    "province": "",
    "province_code": "",
    "community": "",
    "community_code": "",
    "latitude": "34.7361",
    "longitude": "71.5274"
  },
  {
    "country_code": "PK",
    "zipcode": "18700",
    "place": "Ziarat (Dir)",
    "state": "Khyber Pakhtunkhwa",
    "state_code": "03",
    "province": "",
    "province_code": "",
    "community": "",
    "community_code": "",
    "latitude": "34.5798",
    "longitude": "71.808"
  },
  {
    "country_code": "PK",
    "zipcode": "18750",
    "place": "Ouch (Dir)",
    "state": "Khyber Pakhtunkhwa",
    "state_code": "03",
    "province": "",
    "province_code": "",
    "community": "",
    "community_code": "",
    "latitude": "34.5798",
    "longitude": "71.808"
  },
  {
    "country_code": "PK",
    "zipcode": "18760",
    "place": "Pir Khel",
    "state": "Khyber Pakhtunkhwa",
    "state_code": "03",
    "province": "",
    "province_code": "",
    "community": "",
    "community_code": "",
    "latitude": "34.5798",
    "longitude": "71.808"
  },
  {
    "country_code": "PK",
    "zipcode": "18800",
    "place": "Chakdara",
    "state": "Khyber Pakhtunkhwa",
    "state_code": "03",
    "province": "",
    "province_code": "",
    "community": "",
    "community_code": "",
    "latitude": "34.6616",
    "longitude": "72.0324"
  },
  {
    "country_code": "PK",
    "zipcode": "19010",
    "place": "Bahrain",
    "state": "Khyber Pakhtunkhwa",
    "state_code": "03",
    "province": "",
    "province_code": "",
    "community": "",
    "community_code": "",
    "latitude": "35.2093",
    "longitude": "72.5485"
  },
  {
    "country_code": "PK",
    "zipcode": "19020",
    "place": "Madyan",
    "state": "Khyber Pakhtunkhwa",
    "state_code": "03",
    "province": "",
    "province_code": "",
    "community": "",
    "community_code": "",
    "latitude": "35.141",
    "longitude": "72.5382"
  },
  {
    "country_code": "PK",
    "zipcode": "19030",
    "place": "Fatehpur",
    "state": "Khyber Pakhtunkhwa",
    "state_code": "03",
    "province": "",
    "province_code": "",
    "community": "",
    "community_code": "",
    "latitude": "35.0504",
    "longitude": "72.5071"
  },
  {
    "country_code": "PK",
    "zipcode": "19040",
    "place": "Matta",
    "state": "Khyber Pakhtunkhwa",
    "state_code": "03",
    "province": "",
    "province_code": "",
    "community": "",
    "community_code": "",
    "latitude": "34.9292",
    "longitude": "72.4146"
  },
  {
    "country_code": "PK",
    "zipcode": "19044",
    "place": "Chuprial",
    "state": "Khyber Pakhtunkhwa",
    "state_code": "03",
    "province": "",
    "province_code": "",
    "community": "",
    "community_code": "",
    "latitude": "34.9811",
    "longitude": "72.3632"
  },
  {
    "country_code": "PK",
    "zipcode": "19050",
    "place": "Bara Darwesh Khela",
    "state": "Khyber Pakhtunkhwa",
    "state_code": "03",
    "province": "",
    "province_code": "",
    "community": "",
    "community_code": "",
    "latitude": "35.005",
    "longitude": "72.5164"
  },
  {
    "country_code": "PK",
    "zipcode": "19060",
    "place": "Kabal",
    "state": "Khyber Pakhtunkhwa",
    "state_code": "03",
    "province": "",
    "province_code": "",
    "community": "",
    "community_code": "",
    "latitude": "34.7907",
    "longitude": "72.2824"
  },
  {
    "country_code": "PK",
    "zipcode": "19070",
    "place": "Davlai",
    "state": "Khyber Pakhtunkhwa",
    "state_code": "03",
    "province": "",
    "province_code": "",
    "community": "",
    "community_code": "",
    "latitude": "35.005",
    "longitude": "72.5164"
  },
  {
    "country_code": "PK",
    "zipcode": "19080",
    "place": "Kana",
    "state": "Khyber Pakhtunkhwa",
    "state_code": "03",
    "province": "",
    "province_code": "",
    "community": "",
    "community_code": "",
    "latitude": "34.9333",
    "longitude": "72.9607"
  },
  {
    "country_code": "PK",
    "zipcode": "19090",
    "place": "Chakisar",
    "state": "Khyber Pakhtunkhwa",
    "state_code": "03",
    "province": "",
    "province_code": "",
    "community": "",
    "community_code": "",
    "latitude": "35.005",
    "longitude": "72.5164"
  },
  {
    "country_code": "PK",
    "zipcode": "19100",
    "place": "Alpurai",
    "state": "Khyber Pakhtunkhwa",
    "state_code": "03",
    "province": "",
    "province_code": "",
    "community": "",
    "community_code": "",
    "latitude": "34.9029",
    "longitude": "72.6443"
  },
  {
    "country_code": "PK",
    "zipcode": "19110",
    "place": "Khawaza Khela",
    "state": "Khyber Pakhtunkhwa",
    "state_code": "03",
    "province": "",
    "province_code": "",
    "community": "",
    "community_code": "",
    "latitude": "34.3593",
    "longitude": "73.1243"
  },
  {
    "country_code": "PK",
    "zipcode": "19120",
    "place": "Charbagh",
    "state": "Khyber Pakhtunkhwa",
    "state_code": "03",
    "province": "",
    "province_code": "",
    "community": "",
    "community_code": "",
    "latitude": "34.5007",
    "longitude": "73.028"
  },
  {
    "country_code": "PK",
    "zipcode": "19130",
    "place": "Mangora",
    "state": "Khyber Pakhtunkhwa",
    "state_code": "03",
    "province": "",
    "province_code": "",
    "community": "",
    "community_code": "",
    "latitude": "33.8753",
    "longitude": "73.976"
  },
  {
    "country_code": "PK",
    "zipcode": "19132",
    "place": "Gulkada (Distt. Court)",
    "state": "Khyber Pakhtunkhwa",
    "state_code": "03",
    "province": "",
    "province_code": "",
    "community": "",
    "community_code": "",
    "latitude": "33.8753",
    "longitude": "73.976"
  },
  {
    "country_code": "PK",
    "zipcode": "19140",
    "place": "Aman Kot",
    "state": "Khyber Pakhtunkhwa",
    "state_code": "03",
    "province": "",
    "province_code": "",
    "community": "",
    "community_code": "",
    "latitude": "34.2624",
    "longitude": "72.4372"
  },
  {
    "country_code": "PK",
    "zipcode": "19150",
    "place": "Aloch",
    "state": "Khyber Pakhtunkhwa",
    "state_code": "03",
    "province": "",
    "province_code": "",
    "community": "",
    "community_code": "",
    "latitude": "34.7391",
    "longitude": "72.6842"
  },
  {
    "country_code": "PK",
    "zipcode": "19200",
    "place": "Saidu Sharif Gpo",
    "state": "Khyber Pakhtunkhwa",
    "state_code": "03",
    "province": "",
    "province_code": "",
    "community": "",
    "community_code": "",
    "latitude": "32.5607",
    "longitude": "70.9172"
  },
  {
    "country_code": "PK",
    "zipcode": "19204",
    "place": "Damori",
    "state": "Khyber Pakhtunkhwa",
    "state_code": "03",
    "province": "",
    "province_code": "",
    "community": "",
    "community_code": "",
    "latitude": "32.5607",
    "longitude": "70.9172"
  },
  {
    "country_code": "PK",
    "zipcode": "19210",
    "place": "Rahim Abad",
    "state": "Khyber Pakhtunkhwa",
    "state_code": "03",
    "province": "",
    "province_code": "",
    "community": "",
    "community_code": "",
    "latitude": "28.4336",
    "longitude": "67.9158"
  },
  {
    "country_code": "PK",
    "zipcode": "19220",
    "place": "Hodigram",
    "state": "Khyber Pakhtunkhwa",
    "state_code": "03",
    "province": "",
    "province_code": "",
    "community": "",
    "community_code": "",
    "latitude": "32.5607",
    "longitude": "70.9172"
  },
  {
    "country_code": "PK",
    "zipcode": "19230",
    "place": "Ghalegi",
    "state": "Khyber Pakhtunkhwa",
    "state_code": "03",
    "province": "",
    "province_code": "",
    "community": "",
    "community_code": "",
    "latitude": "32.5607",
    "longitude": "70.9172"
  },
  {
    "country_code": "PK",
    "zipcode": "19240",
    "place": "Barikot",
    "state": "Khyber Pakhtunkhwa",
    "state_code": "03",
    "province": "",
    "province_code": "",
    "community": "",
    "community_code": "",
    "latitude": "34.7734",
    "longitude": "71.9048"
  },
  {
    "country_code": "PK",
    "zipcode": "19250",
    "place": "Zara Khela",
    "state": "Khyber Pakhtunkhwa",
    "state_code": "03",
    "province": "",
    "province_code": "",
    "community": "",
    "community_code": "",
    "latitude": "32.5607",
    "longitude": "70.9172"
  },
  {
    "country_code": "PK",
    "zipcode": "19260",
    "place": "Jewar",
    "state": "Khyber Pakhtunkhwa",
    "state_code": "03",
    "province": "",
    "province_code": "",
    "community": "",
    "community_code": "",
    "latitude": "34.4751",
    "longitude": "72.9311"
  },
  {
    "country_code": "PK",
    "zipcode": "19270",
    "place": "Tor Warsak",
    "state": "Khyber Pakhtunkhwa",
    "state_code": "03",
    "province": "",
    "province_code": "",
    "community": "",
    "community_code": "",
    "latitude": "32.5607",
    "longitude": "70.9172"
  },
  {
    "country_code": "PK",
    "zipcode": "19280",
    "place": "Pipal Bazar",
    "state": "Khyber Pakhtunkhwa",
    "state_code": "03",
    "province": "",
    "province_code": "",
    "community": "",
    "community_code": "",
    "latitude": "32.5607",
    "longitude": "70.9172"
  },
  {
    "country_code": "PK",
    "zipcode": "20100",
    "place": "Dassu",
    "state": "Khyber Pakhtunkhwa",
    "state_code": "03",
    "province": "",
    "province_code": "",
    "community": "",
    "community_code": "",
    "latitude": "35.72",
    "longitude": "75.5208"
  },
  {
    "country_code": "PK",
    "zipcode": "20200",
    "place": "Pattan",
    "state": "Khyber Pakhtunkhwa",
    "state_code": "03",
    "province": "",
    "province_code": "",
    "community": "",
    "community_code": "",
    "latitude": "34.6866",
    "longitude": "73.4848"
  },
  {
    "country_code": "PK",
    "zipcode": "20300",
    "place": "Ranolia",
    "state": "Khyber Pakhtunkhwa",
    "state_code": "03",
    "province": "",
    "province_code": "",
    "community": "",
    "community_code": "",
    "latitude": "35.0492",
    "longitude": "72.8906"
  },
  {
    "country_code": "PK",
    "zipcode": "20400",
    "place": "Sholgaraha",
    "state": "Khyber Pakhtunkhwa",
    "state_code": "03",
    "province": "",
    "province_code": "",
    "community": "",
    "community_code": "",
    "latitude": "35.0963",
    "longitude": "73.6938"
  },
  {
    "country_code": "PK",
    "zipcode": "20500",
    "place": "Besham",
    "state": "Khyber Pakhtunkhwa",
    "state_code": "03",
    "province": "",
    "province_code": "",
    "community": "",
    "community_code": "",
    "latitude": "34.9294",
    "longitude": "72.8791"
  },
  {
    "country_code": "PK",
    "zipcode": "21010",
    "place": "Biari Ayub Khan",
    "state": "Khyber Pakhtunkhwa",
    "state_code": "03",
    "province": "",
    "province_code": "",
    "community": "",
    "community_code": "",
    "latitude": "34.6627",
    "longitude": "72.9425"
  },
  {
    "country_code": "PK",
    "zipcode": "21020",
    "place": "Muslim Abad",
    "state": "Khyber Pakhtunkhwa",
    "state_code": "03",
    "province": "",
    "province_code": "",
    "community": "",
    "community_code": "",
    "latitude": "34.4002",
    "longitude": "71.9018"
  },
  {
    "country_code": "PK",
    "zipcode": "21030",
    "place": "Thakot",
    "state": "Khyber Pakhtunkhwa",
    "state_code": "03",
    "province": "",
    "province_code": "",
    "community": "",
    "community_code": "",
    "latitude": "34.75",
    "longitude": "72.9167"
  },
  {
    "country_code": "PK",
    "zipcode": "21032",
    "place": "Banna",
    "state": "Khyber Pakhtunkhwa",
    "state_code": "03",
    "province": "",
    "province_code": "",
    "community": "",
    "community_code": "",
    "latitude": "34.8307",
    "longitude": "73.0648"
  },
  {
    "country_code": "PK",
    "zipcode": "21036",
    "place": "Rashang",
    "state": "Khyber Pakhtunkhwa",
    "state_code": "03",
    "province": "",
    "province_code": "",
    "community": "",
    "community_code": "",
    "latitude": "34.8198",
    "longitude": "73.1196"
  },
  {
    "country_code": "PK",
    "zipcode": "21040",
    "place": "Battagram",
    "state": "Khyber Pakhtunkhwa",
    "state_code": "03",
    "province": "",
    "province_code": "",
    "community": "",
    "community_code": "",
    "latitude": "34.6772",
    "longitude": "73.0233"
  },
  {
    "country_code": "PK",
    "zipcode": "21042",
    "place": "Peshora",
    "state": "Khyber Pakhtunkhwa",
    "state_code": "03",
    "province": "",
    "province_code": "",
    "community": "",
    "community_code": "",
    "latitude": "34.6772",
    "longitude": "73.0233"
  },
  {
    "country_code": "PK",
    "zipcode": "21044",
    "place": "Batamohri",
    "state": "Khyber Pakhtunkhwa",
    "state_code": "03",
    "province": "",
    "province_code": "",
    "community": "",
    "community_code": "",
    "latitude": "34.6772",
    "longitude": "73.0233"
  },
  {
    "country_code": "PK",
    "zipcode": "21046",
    "place": "Saden Mira",
    "state": "Khyber Pakhtunkhwa",
    "state_code": "03",
    "province": "",
    "province_code": "",
    "community": "",
    "community_code": "",
    "latitude": "34.6772",
    "longitude": "73.0233"
  },
  {
    "country_code": "PK",
    "zipcode": "21050",
    "place": "Bansair",
    "state": "Khyber Pakhtunkhwa",
    "state_code": "03",
    "province": "",
    "province_code": "",
    "community": "",
    "community_code": "",
    "latitude": "34.6627",
    "longitude": "72.9425"
  },
  {
    "country_code": "PK",
    "zipcode": "21060",
    "place": "Koza Banda",
    "state": "Khyber Pakhtunkhwa",
    "state_code": "03",
    "province": "",
    "province_code": "",
    "community": "",
    "community_code": "",
    "latitude": "34.5962",
    "longitude": "73.062"
  },
  {
    "country_code": "PK",
    "zipcode": "21062",
    "place": "Chohan",
    "state": "Khyber Pakhtunkhwa",
    "state_code": "03",
    "province": "",
    "province_code": "",
    "community": "",
    "community_code": "",
    "latitude": "34.5962",
    "longitude": "73.062"
  },
  {
    "country_code": "PK",
    "zipcode": "21070",
    "place": "Chatar Plain",
    "state": "Khyber Pakhtunkhwa",
    "state_code": "03",
    "province": "",
    "province_code": "",
    "community": "",
    "community_code": "",
    "latitude": "34.6627",
    "longitude": "72.9425"
  },
  {
    "country_code": "PK",
    "zipcode": "21080",
    "place": "Bali Mang",
    "state": "Khyber Pakhtunkhwa",
    "state_code": "03",
    "province": "",
    "province_code": "",
    "community": "",
    "community_code": "",
    "latitude": "34.6627",
    "longitude": "72.9425"
  },
  {
    "country_code": "PK",
    "zipcode": "21090",
    "place": "Battal",
    "state": "Khyber Pakhtunkhwa",
    "state_code": "03",
    "province": "",
    "province_code": "",
    "community": "",
    "community_code": "",
    "latitude": "34.5879",
    "longitude": "73.1478"
  },
  {
    "country_code": "PK",
    "zipcode": "21100",
    "place": "Haji Abad",
    "state": "Khyber Pakhtunkhwa",
    "state_code": "03",
    "province": "",
    "province_code": "",
    "community": "",
    "community_code": "",
    "latitude": "34.7391",
    "longitude": "71.473"
  },
  {
    "country_code": "PK",
    "zipcode": "21110",
    "place": "Baffa",
    "state": "Khyber Pakhtunkhwa",
    "state_code": "03",
    "province": "",
    "province_code": "",
    "community": "",
    "community_code": "",
    "latitude": "34.291",
    "longitude": "72.888"
  },
  {
    "country_code": "PK",
    "zipcode": "21120",
    "place": "Hazara University",
    "state": "Khyber Pakhtunkhwa",
    "state_code": "03",
    "province": "",
    "province_code": "",
    "community": "",
    "community_code": "",
    "latitude": "34.5156",
    "longitude": "72.901"
  },
  {
    "country_code": "PK",
    "zipcode": "21130",
    "place": "Dhudial (Mansehra)",
    "state": "Khyber Pakhtunkhwa",
    "state_code": "03",
    "province": "",
    "province_code": "",
    "community": "",
    "community_code": "",
    "latitude": "34.4352",
    "longitude": "73.2561"
  },
  {
    "country_code": "PK",
    "zipcode": "21140",
    "place": "Shinkiari",
    "state": "Khyber Pakhtunkhwa",
    "state_code": "03",
    "province": "",
    "province_code": "",
    "community": "",
    "community_code": "",
    "latitude": "34.4711",
    "longitude": "73.2707"
  },
  {
    "country_code": "PK",
    "zipcode": "21150",
    "place": "Shinkiari Camp",
    "state": "Khyber Pakhtunkhwa",
    "state_code": "03",
    "province": "",
    "province_code": "",
    "community": "",
    "community_code": "",
    "latitude": "34.5156",
    "longitude": "72.901"
  },
  {
    "country_code": "PK",
    "zipcode": "21160",
    "place": "Dadar",
    "state": "Khyber Pakhtunkhwa",
    "state_code": "03",
    "province": "",
    "province_code": "",
    "community": "",
    "community_code": "",
    "latitude": "34.5523",
    "longitude": "73.259"
  },
  {
    "country_code": "PK",
    "zipcode": "21170",
    "place": "Jabori",
    "state": "Khyber Pakhtunkhwa",
    "state_code": "03",
    "province": "",
    "province_code": "",
    "community": "",
    "community_code": "",
    "latitude": "34.6048",
    "longitude": "73.2592"
  },
  {
    "country_code": "PK",
    "zipcode": "21200",
    "place": "Naran",
    "state": "Khyber Pakhtunkhwa",
    "state_code": "03",
    "province": "",
    "province_code": "",
    "community": "",
    "community_code": "",
    "latitude": "34.9053",
    "longitude": "73.6486"
  },
  {
    "country_code": "PK",
    "zipcode": "21210",
    "place": "Kaghan",
    "state": "Khyber Pakhtunkhwa",
    "state_code": "03",
    "province": "",
    "province_code": "",
    "community": "",
    "community_code": "",
    "latitude": "34.7768",
    "longitude": "73.5253"
  },
  {
    "country_code": "PK",
    "zipcode": "21220",
    "place": "Mohandri Bazar",
    "state": "Khyber Pakhtunkhwa",
    "state_code": "03",
    "province": "",
    "province_code": "",
    "community": "",
    "community_code": "",
    "latitude": "34.6374",
    "longitude": "73.4424"
  },
  {
    "country_code": "PK",
    "zipcode": "21230",
    "place": "Balakot",
    "state": "Khyber Pakhtunkhwa",
    "state_code": "03",
    "province": "",
    "province_code": "",
    "community": "",
    "community_code": "",
    "latitude": "34.5544",
    "longitude": "73.3479"
  },
  {
    "country_code": "PK",
    "zipcode": "21240",
    "place": "Ghari Habibullah",
    "state": "Khyber Pakhtunkhwa",
    "state_code": "03",
    "province": "",
    "province_code": "",
    "community": "",
    "community_code": "",
    "latitude": "34.6374",
    "longitude": "73.4424"
  },
  {
    "country_code": "PK",
    "zipcode": "21250",
    "place": "Batrasi Camp",
    "state": "Khyber Pakhtunkhwa",
    "state_code": "03",
    "province": "",
    "province_code": "",
    "community": "",
    "community_code": "",
    "latitude": "34.6374",
    "longitude": "73.4424"
  },
  {
    "country_code": "PK",
    "zipcode": "21270",
    "place": "Chakia",
    "state": "Khyber Pakhtunkhwa",
    "state_code": "03",
    "province": "",
    "province_code": "",
    "community": "",
    "community_code": "",
    "latitude": "34.3133",
    "longitude": "73.2476"
  },
  {
    "country_code": "PK",
    "zipcode": "21300",
    "place": "Mansehra Gpo",
    "state": "Khyber Pakhtunkhwa",
    "state_code": "03",
    "province": "",
    "province_code": "",
    "community": "",
    "community_code": "",
    "latitude": "34.366",
    "longitude": "73.2614"
  },
  {
    "country_code": "PK",
    "zipcode": "21304",
    "place": "Chitta Batta",
    "state": "Khyber Pakhtunkhwa",
    "state_code": "03",
    "province": "",
    "province_code": "",
    "community": "",
    "community_code": "",
    "latitude": "34.366",
    "longitude": "73.2614"
  },
  {
    "country_code": "PK",
    "zipcode": "21310",
    "place": "Mansehra City",
    "state": "Khyber Pakhtunkhwa",
    "state_code": "03",
    "province": "",
    "province_code": "",
    "community": "",
    "community_code": "",
    "latitude": "34.3772",
    "longitude": "73.1524"
  },
  {
    "country_code": "PK",
    "zipcode": "21330",
    "place": "Manglore",
    "state": "Khyber Pakhtunkhwa",
    "state_code": "03",
    "province": "",
    "province_code": "",
    "community": "",
    "community_code": "",
    "latitude": "34.3772",
    "longitude": "73.1524"
  },
  {
    "country_code": "PK",
    "zipcode": "21340",
    "place": "Bher Kund",
    "state": "Khyber Pakhtunkhwa",
    "state_code": "03",
    "province": "",
    "province_code": "",
    "community": "",
    "community_code": "",
    "latitude": "34.3772",
    "longitude": "73.1524"
  },
  {
    "country_code": "PK",
    "zipcode": "21350",
    "place": "Khaki",
    "state": "Khyber Pakhtunkhwa",
    "state_code": "03",
    "province": "",
    "province_code": "",
    "community": "",
    "community_code": "",
    "latitude": "34.4081",
    "longitude": "73.1281"
  },
  {
    "country_code": "PK",
    "zipcode": "21360",
    "place": "Muradpur",
    "state": "Khyber Pakhtunkhwa",
    "state_code": "03",
    "province": "",
    "province_code": "",
    "community": "",
    "community_code": "",
    "latitude": "34.4389",
    "longitude": "73.1357"
  },
  {
    "country_code": "PK",
    "zipcode": "21370",
    "place": "Parhena",
    "state": "Khyber Pakhtunkhwa",
    "state_code": "03",
    "province": "",
    "province_code": "",
    "community": "",
    "community_code": "",
    "latitude": "34.3772",
    "longitude": "73.1524"
  },
  {
    "country_code": "PK",
    "zipcode": "21380",
    "place": "Phulra",
    "state": "Khyber Pakhtunkhwa",
    "state_code": "03",
    "province": "",
    "province_code": "",
    "community": "",
    "community_code": "",
    "latitude": "34.3352",
    "longitude": "73.0556"
  },
  {
    "country_code": "PK",
    "zipcode": "21390",
    "place": "Lassan Nawab",
    "state": "Khyber Pakhtunkhwa",
    "state_code": "03",
    "province": "",
    "province_code": "",
    "community": "",
    "community_code": "",
    "latitude": "34.3486",
    "longitude": "73.0723"
  },
  {
    "country_code": "PK",
    "zipcode": "21400",
    "place": "Oghi",
    "state": "Khyber Pakhtunkhwa",
    "state_code": "03",
    "province": "",
    "province_code": "",
    "community": "",
    "community_code": "",
    "latitude": "34.4985",
    "longitude": "73.014"
  },
  {
    "country_code": "PK",
    "zipcode": "21410",
    "place": "Sham Dhera",
    "state": "Khyber Pakhtunkhwa",
    "state_code": "03",
    "province": "",
    "province_code": "",
    "community": "",
    "community_code": "",
    "latitude": "34.452",
    "longitude": "72.9524"
  },
  {
    "country_code": "PK",
    "zipcode": "21420",
    "place": "Qilagay",
    "state": "Khyber Pakhtunkhwa",
    "state_code": "03",
    "province": "",
    "province_code": "",
    "community": "",
    "community_code": "",
    "latitude": "34.452",
    "longitude": "72.9524"
  },
  {
    "country_code": "PK",
    "zipcode": "21430",
    "place": "Dilbori",
    "state": "Khyber Pakhtunkhwa",
    "state_code": "03",
    "province": "",
    "province_code": "",
    "community": "",
    "community_code": "",
    "latitude": "34.452",
    "longitude": "72.9524"
  },
  {
    "country_code": "PK",
    "zipcode": "21440",
    "place": "Belian",
    "state": "Khyber Pakhtunkhwa",
    "state_code": "03",
    "province": "",
    "province_code": "",
    "community": "",
    "community_code": "",
    "latitude": "34.5286",
    "longitude": "72.9765"
  },
  {
    "country_code": "PK",
    "zipcode": "21450",
    "place": "Sher Garh (Mansehra)",
    "state": "Khyber Pakhtunkhwa",
    "state_code": "03",
    "province": "",
    "province_code": "",
    "community": "",
    "community_code": "",
    "latitude": "34.452",
    "longitude": "72.9524"
  },
  {
    "country_code": "PK",
    "zipcode": "21460",
    "place": "Darband",
    "state": "Khyber Pakhtunkhwa",
    "state_code": "03",
    "province": "",
    "province_code": "",
    "community": "",
    "community_code": "",
    "latitude": "34.3289",
    "longitude": "72.8667"
  },
  {
    "country_code": "PK",
    "zipcode": "22000",
    "place": "Qalanderabad",
    "state": "Khyber Pakhtunkhwa",
    "state_code": "03",
    "province": "",
    "province_code": "",
    "community": "",
    "community_code": "",
    "latitude": "34.2524",
    "longitude": "73.2475"
  },
  {
    "country_code": "PK",
    "zipcode": "22010",
    "place": "Abbottabad Gpo",
    "state": "Khyber Pakhtunkhwa",
    "state_code": "03",
    "province": "",
    "province_code": "",
    "community": "",
    "community_code": "",
    "latitude": "34.2524",
    "longitude": "73.2475"
  },
  {
    "country_code": "PK",
    "zipcode": "22030",
    "place": "Abbottabad Public School",
    "state": "Khyber Pakhtunkhwa",
    "state_code": "03",
    "province": "",
    "province_code": "",
    "community": "",
    "community_code": "",
    "latitude": "34.2524",
    "longitude": "73.2475"
  },
  {
    "country_code": "PK",
    "zipcode": "22040",
    "place": "Ayub Medical College Abbottabad",
    "state": "Khyber Pakhtunkhwa",
    "state_code": "03",
    "province": "",
    "province_code": "",
    "community": "",
    "community_code": "",
    "latitude": "34.3491",
    "longitude": "73.2313"
  },
  {
    "country_code": "PK",
    "zipcode": "22044",
    "place": "Mandian",
    "state": "Khyber Pakhtunkhwa",
    "state_code": "03",
    "province": "",
    "province_code": "",
    "community": "",
    "community_code": "",
    "latitude": "34.3491",
    "longitude": "73.2313"
  },
  {
    "country_code": "PK",
    "zipcode": "22050",
    "place": "Jhangi",
    "state": "Khyber Pakhtunkhwa",
    "state_code": "03",
    "province": "",
    "province_code": "",
    "community": "",
    "community_code": "",
    "latitude": "34.1954",
    "longitude": "73.2267"
  },
  {
    "country_code": "PK",
    "zipcode": "22060",
    "place": "Toba Camp",
    "state": "Khyber Pakhtunkhwa",
    "state_code": "03",
    "province": "",
    "province_code": "",
    "community": "",
    "community_code": "",
    "latitude": "34.2524",
    "longitude": "73.2475"
  },
  {
    "country_code": "PK",
    "zipcode": "22070",
    "place": "Kakul",
    "state": "Khyber Pakhtunkhwa",
    "state_code": "03",
    "province": "",
    "province_code": "",
    "community": "",
    "community_code": "",
    "latitude": "34.2036",
    "longitude": "73.2827"
  },
  {
    "country_code": "PK",
    "zipcode": "22080",
    "place": "Nawan Shahr",
    "state": "Khyber Pakhtunkhwa",
    "state_code": "03",
    "province": "",
    "province_code": "",
    "community": "",
    "community_code": "",
    "latitude": "34.1648",
    "longitude": "73.2655"
  },
  {
    "country_code": "PK",
    "zipcode": "22090",
    "place": "Sheikhul Bandi",
    "state": "Khyber Pakhtunkhwa",
    "state_code": "03",
    "province": "",
    "province_code": "",
    "community": "",
    "community_code": "",
    "latitude": "34.2524",
    "longitude": "73.2475"
  },
  {
    "country_code": "PK",
    "zipcode": "22100",
    "place": "Kuthiala",
    "state": "Khyber Pakhtunkhwa",
    "state_code": "03",
    "province": "",
    "province_code": "",
    "community": "",
    "community_code": "",
    "latitude": "34.2834",
    "longitude": "73.4308"
  },
  {
    "country_code": "PK",
    "zipcode": "22106",
    "place": "Richh Bhan",
    "state": "Khyber Pakhtunkhwa",
    "state_code": "03",
    "province": "",
    "province_code": "",
    "community": "",
    "community_code": "",
    "latitude": "34.2834",
    "longitude": "73.4308"
  },
  {
    "country_code": "PK",
    "zipcode": "22110",
    "place": "Pind Kargo Khan",
    "state": "Khyber Pakhtunkhwa",
    "state_code": "03",
    "province": "",
    "province_code": "",
    "community": "",
    "community_code": "",
    "latitude": "34.2868",
    "longitude": "73.3528"
  },
  {
    "country_code": "PK",
    "zipcode": "22120",
    "place": "Sherwan",
    "state": "Khyber Pakhtunkhwa",
    "state_code": "03",
    "province": "",
    "province_code": "",
    "community": "",
    "community_code": "",
    "latitude": "34.2038",
    "longitude": "73.0699"
  },
  {
    "country_code": "PK",
    "zipcode": "22130",
    "place": "Chamatti",
    "state": "Khyber Pakhtunkhwa",
    "state_code": "03",
    "province": "",
    "province_code": "",
    "community": "",
    "community_code": "",
    "latitude": "34.2868",
    "longitude": "73.3528"
  },
  {
    "country_code": "PK",
    "zipcode": "22150",
    "place": "Thandayani",
    "state": "Khyber Pakhtunkhwa",
    "state_code": "03",
    "province": "",
    "province_code": "",
    "community": "",
    "community_code": "",
    "latitude": "34.2868",
    "longitude": "73.3528"
  },
  {
    "country_code": "PK",
    "zipcode": "22160",
    "place": "Chamyali",
    "state": "Khyber Pakhtunkhwa",
    "state_code": "03",
    "province": "",
    "province_code": "",
    "community": "",
    "community_code": "",
    "latitude": "34.2868",
    "longitude": "73.3528"
  },
  {
    "country_code": "PK",
    "zipcode": "22170",
    "place": "Gamang",
    "state": "Khyber Pakhtunkhwa",
    "state_code": "03",
    "province": "",
    "province_code": "",
    "community": "",
    "community_code": "",
    "latitude": "34.2868",
    "longitude": "73.3528"
  },
  {
    "country_code": "PK",
    "zipcode": "22180",
    "place": "Boi",
    "state": "Khyber Pakhtunkhwa",
    "state_code": "03",
    "province": "",
    "province_code": "",
    "community": "",
    "community_code": "",
    "latitude": "34.3054",
    "longitude": "73.4335"
  },
  {
    "country_code": "PK",
    "zipcode": "22190",
    "place": "Dalola",
    "state": "Khyber Pakhtunkhwa",
    "state_code": "03",
    "province": "",
    "province_code": "",
    "community": "",
    "community_code": "",
    "latitude": "34.3579",
    "longitude": "73.399"
  },
  {
    "country_code": "PK",
    "zipcode": "22200",
    "place": "Dhamtaur",
    "state": "Khyber Pakhtunkhwa",
    "state_code": "03",
    "province": "",
    "province_code": "",
    "community": "",
    "community_code": "",
    "latitude": "34.1352",
    "longitude": "73.2751"
  },
  {
    "country_code": "PK",
    "zipcode": "22210",
    "place": "Bagnotar",
    "state": "Khyber Pakhtunkhwa",
    "state_code": "03",
    "province": "",
    "province_code": "",
    "community": "",
    "community_code": "",
    "latitude": "34.1258",
    "longitude": "73.341"
  },
  {
    "country_code": "PK",
    "zipcode": "22220",
    "place": "Tharyati",
    "state": "Khyber Pakhtunkhwa",
    "state_code": "03",
    "province": "",
    "province_code": "",
    "community": "",
    "community_code": "",
    "latitude": "34.0978",
    "longitude": "73.347"
  },
  {
    "country_code": "PK",
    "zipcode": "22230",
    "place": "Biran Gali",
    "state": "Khyber Pakhtunkhwa",
    "state_code": "03",
    "province": "",
    "province_code": "",
    "community": "",
    "community_code": "",
    "latitude": "34.1814",
    "longitude": "73.362"
  },
  {
    "country_code": "PK",
    "zipcode": "22250",
    "place": "Namli Maira",
    "state": "Khyber Pakhtunkhwa",
    "state_code": "03",
    "province": "",
    "province_code": "",
    "community": "",
    "community_code": "",
    "latitude": "34.098",
    "longitude": "73.3768"
  },
  {
    "country_code": "PK",
    "zipcode": "22260",
    "place": "Nagri Bala",
    "state": "Khyber Pakhtunkhwa",
    "state_code": "03",
    "province": "",
    "province_code": "",
    "community": "",
    "community_code": "",
    "latitude": "34.0476",
    "longitude": "73.3369"
  },
  {
    "country_code": "PK",
    "zipcode": "22270",
    "place": "Kala Bagh (Hazara)",
    "state": "Khyber Pakhtunkhwa",
    "state_code": "03",
    "province": "",
    "province_code": "",
    "community": "",
    "community_code": "",
    "latitude": "34.0978",
    "longitude": "73.347"
  },
  {
    "country_code": "PK",
    "zipcode": "22280",
    "place": "Nathia Gali",
    "state": "Khyber Pakhtunkhwa",
    "state_code": "03",
    "province": "",
    "province_code": "",
    "community": "",
    "community_code": "",
    "latitude": "34.0688",
    "longitude": "73.3967"
  },
  {
    "country_code": "PK",
    "zipcode": "22290",
    "place": "Bagan",
    "state": "Khyber Pakhtunkhwa",
    "state_code": "03",
    "province": "",
    "province_code": "",
    "community": "",
    "community_code": "",
    "latitude": "34.0277",
    "longitude": "73.3405"
  },
  {
    "country_code": "PK",
    "zipcode": "22300",
    "place": "Dunga Gali",
    "state": "Khyber Pakhtunkhwa",
    "state_code": "03",
    "province": "",
    "province_code": "",
    "community": "",
    "community_code": "",
    "latitude": "34.0547",
    "longitude": "73.4121"
  },
  {
    "country_code": "PK",
    "zipcode": "22310",
    "place": "Ayubia",
    "state": "Khyber Pakhtunkhwa",
    "state_code": "03",
    "province": "",
    "province_code": "",
    "community": "",
    "community_code": "",
    "latitude": "34.0287",
    "longitude": "73.4074"
  },
  {
    "country_code": "PK",
    "zipcode": "22320",
    "place": "Changla Gali",
    "state": "Khyber Pakhtunkhwa",
    "state_code": "03",
    "province": "",
    "province_code": "",
    "community": "",
    "community_code": "",
    "latitude": "33.9956",
    "longitude": "73.3767"
  },
  {
    "country_code": "PK",
    "zipcode": "22330",
    "place": "Khaira Gali",
    "state": "Khyber Pakhtunkhwa",
    "state_code": "03",
    "province": "",
    "province_code": "",
    "community": "",
    "community_code": "",
    "latitude": "33.982",
    "longitude": "73.3997"
  },
  {
    "country_code": "PK",
    "zipcode": "22350",
    "place": "Nagri Totlial",
    "state": "Khyber Pakhtunkhwa",
    "state_code": "03",
    "province": "",
    "province_code": "",
    "community": "",
    "community_code": "",
    "latitude": "33.9902",
    "longitude": "73.3758"
  },
  {
    "country_code": "PK",
    "zipcode": "22360",
    "place": "Lora",
    "state": "Khyber Pakhtunkhwa",
    "state_code": "03",
    "province": "",
    "province_code": "",
    "community": "",
    "community_code": "",
    "latitude": "33.8901",
    "longitude": "73.283"
  },
  {
    "country_code": "PK",
    "zipcode": "22370",
    "place": "Gambeer",
    "state": "Khyber Pakhtunkhwa",
    "state_code": "03",
    "province": "",
    "province_code": "",
    "community": "",
    "community_code": "",
    "latitude": "33.9902",
    "longitude": "73.3758"
  },
  {
    "country_code": "PK",
    "zipcode": "22500",
    "place": "Havelian",
    "state": "Khyber Pakhtunkhwa",
    "state_code": "03",
    "province": "",
    "province_code": "",
    "community": "",
    "community_code": "",
    "latitude": "34.0535",
    "longitude": "73.1599"
  },
  {
    "country_code": "PK",
    "zipcode": "22510",
    "place": "Pak Ordinance Factories Havilian",
    "state": "Khyber Pakhtunkhwa",
    "state_code": "03",
    "province": "",
    "province_code": "",
    "community": "",
    "community_code": "",
    "latitude": "34.2481",
    "longitude": "73.0972"
  },
  {
    "country_code": "PK",
    "zipcode": "22520",
    "place": "Havelian Ammunation Depot",
    "state": "Khyber Pakhtunkhwa",
    "state_code": "03",
    "province": "",
    "province_code": "",
    "community": "",
    "community_code": "",
    "latitude": "34.2481",
    "longitude": "73.0972"
  },
  {
    "country_code": "PK",
    "zipcode": "22530",
    "place": "Rajoya",
    "state": "Khyber Pakhtunkhwa",
    "state_code": "03",
    "province": "",
    "province_code": "",
    "community": "",
    "community_code": "",
    "latitude": "34.0779",
    "longitude": "73.2263"
  },
  {
    "country_code": "PK",
    "zipcode": "22540",
    "place": "Chando Maira",
    "state": "Khyber Pakhtunkhwa",
    "state_code": "03",
    "province": "",
    "province_code": "",
    "community": "",
    "community_code": "",
    "latitude": "34.0069",
    "longitude": "73.2064"
  },
  {
    "country_code": "PK",
    "zipcode": "22550",
    "place": "Nara",
    "state": "Khyber Pakhtunkhwa",
    "state_code": "03",
    "province": "",
    "province_code": "",
    "community": "",
    "community_code": "",
    "latitude": "34.368",
    "longitude": "72.9118"
  },
  {
    "country_code": "PK",
    "zipcode": "22560",
    "place": "Maira Bala",
    "state": "Khyber Pakhtunkhwa",
    "state_code": "03",
    "province": "",
    "province_code": "",
    "community": "",
    "community_code": "",
    "latitude": "34.3142",
    "longitude": "72.9291"
  },
  {
    "country_code": "PK",
    "zipcode": "22570",
    "place": "Satura",
    "state": "Khyber Pakhtunkhwa",
    "state_code": "03",
    "province": "",
    "province_code": "",
    "community": "",
    "community_code": "",
    "latitude": "33.9567",
    "longitude": "73.243"
  },
  {
    "country_code": "PK",
    "zipcode": "22580",
    "place": "Halli",
    "state": "Khyber Pakhtunkhwa",
    "state_code": "03",
    "province": "",
    "province_code": "",
    "community": "",
    "community_code": "",
    "latitude": "35.4624",
    "longitude": "73.1258"
  },
  {
    "country_code": "PK",
    "zipcode": "22584",
    "place": "Baldher",
    "state": "Khyber Pakhtunkhwa",
    "state_code": "03",
    "province": "",
    "province_code": "",
    "community": "",
    "community_code": "",
    "latitude": "34.0052",
    "longitude": "73.0901"
  },
  {
    "country_code": "PK",
    "zipcode": "22590",
    "place": "Sarai Saleh",
    "state": "Khyber Pakhtunkhwa",
    "state_code": "03",
    "province": "",
    "province_code": "",
    "community": "",
    "community_code": "",
    "latitude": "33.9878",
    "longitude": "72.9826"
  },
  {
    "country_code": "PK",
    "zipcode": "22600",
    "place": "Rehana",
    "state": "Khyber Pakhtunkhwa",
    "state_code": "03",
    "province": "",
    "province_code": "",
    "community": "",
    "community_code": "",
    "latitude": "33.9452",
    "longitude": "73.0255"
  },
  {
    "country_code": "PK",
    "zipcode": "22610",
    "place": "Hattar Industrial Estate",
    "state": "Khyber Pakhtunkhwa",
    "state_code": "03",
    "province": "",
    "province_code": "",
    "community": "",
    "community_code": "",
    "latitude": "33.9056",
    "longitude": "72.9514"
  },
  {
    "country_code": "PK",
    "zipcode": "22620",
    "place": "Haripur Gpo",
    "state": "Khyber Pakhtunkhwa",
    "state_code": "03",
    "province": "",
    "province_code": "",
    "community": "",
    "community_code": "",
    "latitude": "33.9056",
    "longitude": "72.9514"
  },
  {
    "country_code": "PK",
    "zipcode": "22630",
    "place": "Haripur Telephone Factory",
    "state": "Khyber Pakhtunkhwa",
    "state_code": "03",
    "province": "",
    "province_code": "",
    "community": "",
    "community_code": "",
    "latitude": "33.9056",
    "longitude": "72.9514"
  },
  {
    "country_code": "PK",
    "zipcode": "22640",
    "place": "Haripur Central Jail",
    "state": "Khyber Pakhtunkhwa",
    "state_code": "03",
    "province": "",
    "province_code": "",
    "community": "",
    "community_code": "",
    "latitude": "33.9056",
    "longitude": "72.9514"
  },