[
  {
    "country_code": "CA",
    "zipcode": "T0A",
    "place": "Eastern Alberta (St. Paul)",
    "state": "Alberta",
    "state_code": "AB",
    "province": "",
    "province_code": "",
    "community": "",
    "community_code": "",
    "latitude": "54.766",
    "longitude": "-111.7174"
  },
  {
    "country_code": "CA",
    "zipcode": "T0B",
    "place": "Wainwright Region (Tofield)",
    "state": "Alberta",
    "state_code": "AB",
    "province": "",
    "province_code": "",
    "community": "",
    "community_code": "",
    "latitude": "53.0727",
    "longitude": "-111.5816"
  },
  {
    "country_code": "CA",
    "zipcode": "T0C",
    "place": "Central Alberta (Stettler)",
    "state": "Alberta",
    "state_code": "AB",
    "province": "",
    "province_code": "",
    "community": "",
    "community_code": "",
    "latitude": "52.1431",
    "longitude": "-111.6941"
  },
  {
    "country_code": "CA",
    "zipcode": "T0E",
    "place": "Western Alberta (Jasper)",
    "state": "Alberta",
    "state_code": "AB",
    "province": "",
    "province_code": "",
    "community": "",
    "community_code": "",
    "latitude": "53.6758",
    "longitude": "-115.0948"
  },
  {
    "country_code": "CA",
    "zipcode": "T0G",
    "place": "North Central Alberta (Slave Lake)",
    "state": "Alberta",
    "state_code": "AB",
    "province": "",
    "province_code": "",
    "community": "",
    "community_code": "",
    "latitude": "55.6993",
    "longitude": "-114.4529"
  },
  {
    "country_code": "CA",
    "zipcode": "T0H",
    "place": "Northwestern Alberta (High Level)",
    "state": "Alberta",
    "state_code": "AB",
    "province": "",
    "province_code": "",
    "community": "",
    "community_code": "",
    "latitude": "57.5403",
    "longitude": "-116.9153"
  },
  {
    "country_code": "CA",
    "zipcode": "T0J",
    "place": "Southeastern Alberta (Drumheller)",
    "state": "Alberta",
    "state_code": "AB",
    "province": "",
    "province_code": "",
    "community": "",
    "community_code": "",
    "latitude": "50.9944",
    "longitude": "-111.4632"
  },
  {
    "country_code": "CA",
    "zipcode": "T0K",
    "place": "International Border Region (Cardston)",
    "state": "Alberta",
    "state_code": "AB",
    "province": "",
    "province_code": "",
    "community": "",
    "community_code": "",
    "latitude": "49.4721",
    "longitude": "-112.2408"
  },
  {
    "country_code": "CA",
    "zipcode": "T0L",
    "place": "Kananaskis Country (Claresholm)",
    "state": "Alberta",
    "state_code": "AB",
    "province": "",
    "province_code": "",
    "community": "",
    "community_code": "",
    "latitude": "50.6314",
    "longitude": "-114.4089"
  },
  {
    "country_code": "CA",
    "zipcode": "T0M",
    "place": "Central Foothills (Sundre)",
    "state": "Alberta",
    "state_code": "AB",
    "province": "",
    "province_code": "",
    "community": "",
    "community_code": "",
    "latitude": "51.9552",
    "longitude": "-114.8691"
  },
  {
    "country_code": "CA",
    "zipcode": "T0P",
    "place": "Northeastern Alberta (Fort Chipewyan)",
    "state": "Alberta",
    "state_code": "AB",
    "province": "",
    "province_code": "",
    "community": "",
    "community_code": "",
    "latitude": "58.2626",
    "longitude": "-110.7467"
  },
  {
    "country_code": "CA",
    "zipcode": "T0V",
    "place": "Remote Northeast (Fitzgerald)",
    "state": "Alberta",
    "state_code": "AB",
    "province": "",
    "province_code": "",
    "community": "",
    "community_code": "",
    "latitude": "59.9049",
    "longitude": "-111.6717"
  },
  {
    "country_code": "CA",
    "zipcode": "T1A",
    "place": "Medicine Hat Central",
    "state": "Alberta",
    "state_code": "AB",
    "province": "Medicine Hat ",
    "province_code": "",
    "community": "",
    "community_code": "",
    "latitude": "50.0816",
    "longitude": "-110.5788"
  },
  {
    "country_code": "CA",
    "zipcode": "T1B",
    "place": "Medicine Hat South",
    "state": "Alberta",
    "state_code": "AB",
    "province": "Medicine Hat ",
    "province_code": "",
    "community": "",
    "community_code": "",
    "latitude": "49.835",
    "longitude": "-110.5203"
  },
  {
    "country_code": "CA",
    "zipcode": "T1C",
    "place": "Medicine Hat North",
    "state": "Alberta",
    "state_code": "AB",
    "province": "Medicine Hat ",
    "province_code": "",
    "community": "",
    "community_code": "",
    "latitude": "50.0774",
    "longitude": "-110.6911"
  },
  {
    "country_code": "CA",
    "zipcode": "T1G",
    "place": "Taber",
    "state": "Alberta",
    "state_code": "AB",
    "province": "",
    "province_code": "",
    "community": "",
    "community_code": "",
    "latitude": "49.787",
    "longitude": "-112.146"
  },
  {
    "country_code": "CA",
    "zipcode": "T1H",
    "place": "Lethbridge North",
    "state": "Alberta",
    "state_code": "AB",
    "province": "Lethbridge",
    "province_code": "",
    "community": "",
    "community_code": "",
    "latitude": "49.7",
    "longitude": "-112.8186"
  },
  {
    "country_code": "CA",
    "zipcode": "T1J",
    "place": "Lethbridge West and Central",
    "state": "Alberta",
    "state_code": "AB",
    "province": "Lethbridge",
    "province_code": "",
    "community": "",
    "community_code": "",
    "latitude": "49.6581",
    "longitude": "-112.7484"
  },
  {
    "country_code": "CA",
    "zipcode": "T1K",
    "place": "Lethbridge Southeast",
    "state": "Alberta",
    "state_code": "AB",
    "province": "Lethbridge",
    "province_code": "",
    "community": "",
    "community_code": "",
    "latitude": "49.6511",
    "longitude": "-112.8351"
  },
  {
    "country_code": "CA",
    "zipcode": "T1L",
    "place": "Banff",
    "state": "Alberta",
    "state_code": "AB",
    "province": "",
    "province_code": "",
    "community": "",
    "community_code": "",
    "latitude": "51.1762",
    "longitude": "-115.5698"
  },
  {
    "country_code": "CA",
    "zipcode": "T1M",
    "place": "Coaldale",
    "state": "Alberta",
    "state_code": "AB",
    "province": "",
    "province_code": "",
    "community": "",
    "community_code": "",
    "latitude": "49.7167",
    "longitude": "-112.6185"
  },
  {
    "country_code": "CA",
    "zipcode": "T1P",
    "place": "Strathmore",
    "state": "Alberta",
    "state_code": "AB",
    "province": "",
    "province_code": "",
    "community": "",
    "community_code": "",
    "latitude": "51.0501",
    "longitude": "-113.3852"
  },
  {
    "country_code": "CA",
    "zipcode": "T1R",
    "place": "Brooks",
    "state": "Alberta",
    "state_code": "AB",
    "province": "",
    "province_code": "",
    "community": "",
    "community_code": "",
    "latitude": "50.5834",
    "longitude": "-111.8851"
  },
  {
    "country_code": "CA",
    "zipcode": "T1S",
    "place": "Okotoks",
    "state": "Alberta",
    "state_code": "AB",
    "province": "",
    "province_code": "",
    "community": "",
    "community_code": "",
    "latitude": "50.7362",
    "longitude": "-113.9695"
  },
  {
    "country_code": "CA",
    "zipcode": "T1V",
    "place": "High River",
    "state": "Alberta",
    "state_code": "AB",
    "province": "",
    "province_code": "",
    "community": "",
    "community_code": "",
    "latitude": "50.5834",
    "longitude": "-113.8687"
  },
  {
    "country_code": "CA",
    "zipcode": "T1W",
    "place": "Canmore",
    "state": "Alberta",
    "state_code": "AB",
    "province": "",
    "province_code": "",
    "community": "",
    "community_code": "",
    "latitude": "51.0876",
    "longitude": "-115.3461"
  },
  {
    "country_code": "CA",
    "zipcode": "T1X",
    "place": "Chestermere",
    "state": "Alberta",
    "state_code": "AB",
    "province": "",
    "province_code": "",
    "community": "",
    "community_code": "",
    "latitude": "51.0334",
    "longitude": "-113.8187"
  },
  {
    "country_code": "CA",
    "zipcode": "T1Y",
    "place": "Calgary (Rundle / Whitehorn / Monterey Park)",
    "state": "Alberta",
    "state_code": "AB",
    "province": "Calgary",
    "province_code": "",
    "community": "",
    "community_code": "",
    "latitude": "51.0823",
    "longitude": "-113.9578"
  },
  {
    "country_code": "CA",
    "zipcode": "T1Z",
    "place": "Rocky View",
    "state": "Alberta",
    "state_code": "AB",
    "province": "",
    "province_code": "",
    "community": "",
    "community_code": "",
    "latitude": "51.1834",
    "longitude": "-113.9353"
  },
  {
    "country_code": "CA",
    "zipcode": "T2A",
    "place": "Calgary (Penbrooke Meadows / Marlborough)",
    "state": "Alberta",
    "state_code": "AB",
    "province": "Calgary",
    "province_code": "",
    "community": "",
    "community_code": "",
    "latitude": "51.0494",
    "longitude": "-113.9564"
  },
  {
    "country_code": "CA",
    "zipcode": "T2B",
    "place": "Calgary (Forest Lawn / Dover / Erin Woods)",
    "state": "Alberta",
    "state_code": "AB",
    "province": "Calgary",
    "province_code": "",
    "community": "",
    "community_code": "",
    "latitude": "51.0209",
    "longitude": "-113.981"
  },
  {
    "country_code": "CA",
    "zipcode": "T2C",
    "place": "Calgary (Lynnwood Ridge / Ogden / Foothills Industrial / Great Plains)",
    "state": "Alberta",
    "state_code": "AB",
    "province": "Calgary",
    "province_code": "",
    "community": "",
    "community_code": "",
    "latitude": "50.987",
    "longitude": "-113.9634"
  },
  {
    "country_code": "CA",
    "zipcode": "T2E",
    "place": "Calgary (Bridgeland / Greenview / Zoo / YYC)",
    "state": "Alberta",
    "state_code": "AB",
    "province": "Calgary",
    "province_code": "",
    "community": "",
    "community_code": "",
    "latitude": "51.0876",
    "longitude": "-114.0214"
  },
  {
    "country_code": "CA",
    "zipcode": "T2G",
    "place": "Calgary (Inglewood / Burnsland / Chinatown / East Victoria Park / Saddledome)",
    "state": "Alberta",
    "state_code": "AB",
    "province": "Calgary",
    "province_code": "",
    "community": "",
    "community_code": "",
    "latitude": "51.0272",
    "longitude": "-114.0349"
  },
  {
    "country_code": "CA",
    "zipcode": "T2H",
    "place": "Calgary (Highfield / Burns Industrial)",
    "state": "Alberta",
    "state_code": "AB",
    "province": "Calgary",
    "province_code": "",
    "community": "",
    "community_code": "",
    "latitude": "50.9894",
    "longitude": "-114.052"
  },
  {
    "country_code": "CA",
    "zipcode": "T2J",
    "place": "Calgary (Queensland Downs / Lake Bonavista / Willow Park / Acadia)",
    "state": "Alberta",
    "state_code": "AB",
    "province": "Calgary",
    "province_code": "",
    "community": "",
    "community_code": "",
    "latitude": "50.8476",
    "longitude": "-114.1958"
  },
  {
    "country_code": "CA",
    "zipcode": "T2K",
    "place": "Calgary (Thornecliffe / Tuxedo)",
    "state": "Alberta",
    "state_code": "AB",
    "province": "Calgary",
    "province_code": "",
    "community": "",
    "community_code": "",
    "latitude": "51.1111",
    "longitude": "-114.0477"
  },
  {
    "country_code": "CA",
    "zipcode": "T2L",
    "place": "Calgary (Brentwood / Collingwood / Nose Hill)",
    "state": "Alberta",
    "state_code": "AB",
    "province": "Calgary",
    "province_code": "",
    "community": "",
    "community_code": "",
    "latitude": "51.1047",
    "longitude": "-114.1148"
  },
  {
    "country_code": "CA",
    "zipcode": "T2M",
    "place": "Calgary (Mount Pleasant / Capitol Hill / Banff Trail)",
    "state": "Alberta",
    "state_code": "AB",
    "province": "Calgary",
    "province_code": "",
    "community": "",
    "community_code": "",
    "latitude": "51.133",
    "longitude": "-113.856"
  },
  {
    "country_code": "CA",
    "zipcode": "T2N",
    "place": "Calgary (Kensington / Westmont / Parkdale / University)",
    "state": "Alberta",
    "state_code": "AB",
    "province": "Calgary",
    "province_code": "",
    "community": "",
    "community_code": "",
    "latitude": "51.0621",
    "longitude": "-114.1159"
  },
  {
    "country_code": "CA",
    "zipcode": "T2P",
    "place": "Calgary (City Centre / Calgary Tower)",
    "state": "Alberta",
    "state_code": "AB",
    "province": "Calgary",
    "province_code": "",
    "community": "",
    "community_code": "",
    "latitude": "51.0708",
    "longitude": "-113.6931"
  },
  {
    "country_code": "CA",
    "zipcode": "T2R",
    "place": "Calgary (Connaught / West Victoria Park)",
    "state": "Alberta",
    "state_code": "AB",
    "province": "Calgary",
    "province_code": "",
    "community": "",
    "community_code": "",
    "latitude": "51.0412",
    "longitude": "-114.0762"
  },
  {
    "country_code": "CA",
    "zipcode": "T2S",
    "place": "Calgary (Elbow Park / Britannia / Parkhill / Mission)",
    "state": "Alberta",
    "state_code": "AB",
    "province": "Calgary",
    "province_code": "",
    "community": "",
    "community_code": "",
    "latitude": "51.0233",
    "longitude": "-114.071"
  },
  {
    "country_code": "CA",
    "zipcode": "T2T",
    "place": "Calgary South (Altadore / Bankview / Richmond)",
    "state": "Alberta",
    "state_code": "AB",
    "province": "Calgary",
    "province_code": "",
    "community": "",
    "community_code": "",
    "latitude": "51.0242",
    "longitude": "-114.1004"
  },
  {
    "country_code": "CA",
    "zipcode": "T2V",
    "place": "Calgary (Oak Ridge / Haysboro / Kingsland / Windsor Park)",
    "state": "Alberta",
    "state_code": "AB",
    "province": "Calgary",
    "province_code": "",
    "community": "",
    "community_code": "",
    "latitude": "50.9819",
    "longitude": "-114.1004"
  },
  {
    "country_code": "CA",
    "zipcode": "T2W",
    "place": "Calgary (Braeside / Woodbine)",
    "state": "Alberta",
    "state_code": "AB",
    "province": "Calgary",
    "province_code": "",
    "community": "",
    "community_code": "",
    "latitude": "50.9514",
    "longitude": "-114.3591"
  },
  {
    "country_code": "CA",
    "zipcode": "T2X",
    "place": "Calgary (Midnapore / Sundance)",
    "state": "Alberta",
    "state_code": "AB",
    "province": "Calgary",
    "province_code": "",
    "community": "",
    "community_code": "",
    "latitude": "50.8837",
    "longitude": "-114.0326"
  },
  {
    "country_code": "CA",
    "zipcode": "T2Y",
    "place": "Calgary (Millrise / Somerset / Bridlewood / Evergreen)",
    "state": "Alberta",
    "state_code": "AB",
    "province": "Calgary",
    "province_code": "",
    "community": "",
    "community_code": "",
    "latitude": "50.9093",
    "longitude": "-114.1028"
  },
  {
    "country_code": "CA",
    "zipcode": "T2Z",
    "place": "Calgary (Douglas Glen / McKenzie Lake / Copperfield / East Shepard)",
    "state": "Alberta",
    "state_code": "AB",
    "province": "Calgary",
    "province_code": "",
    "community": "",
    "community_code": "",
    "latitude": "50.9278",
    "longitude": "-113.9682"
  },
  {
    "country_code": "CA",
    "zipcode": "T3A",
    "place": "Calgary (Dalhousie / Edgemont / Hamptons / Hidden Valley)",
    "state": "Alberta",
    "state_code": "AB",
    "province": "Calgary",
    "province_code": "",
    "community": "",
    "community_code": "",
    "latitude": "51.1264",
    "longitude": "-114.1419"
  },
  {
    "country_code": "CA",
    "zipcode": "T3B",
    "place": "Calgary (Montgomery / Bowness / Silver Springs / Greenwood)",
    "state": "Alberta",
    "state_code": "AB",
    "province": "Calgary",
    "province_code": "",
    "community": "",
    "community_code": "",
    "latitude": "51.0915",
    "longitude": "-114.2073"
  },
  {
    "country_code": "CA",
    "zipcode": "T3C",
    "place": "Calgary (Rosscarrock / Wildwood / Shaganappi / Sunalta)",
    "state": "Alberta",
    "state_code": "AB",
    "province": "Calgary",
    "province_code": "",
    "community": "",
    "community_code": "",
    "latitude": "51.0497",
    "longitude": "-114.1394"
  },
  {
    "country_code": "CA",
    "zipcode": "T3E",
    "place": "Calgary (Lakeview / Glendale / Killarney / Glamorgan)",
    "state": "Alberta",
    "state_code": "AB",
    "province": "Calgary",
    "province_code": "",
    "community": "",
    "community_code": "",
    "latitude": "50.9899",
    "longitude": "-114.1574"
  },
  {
    "country_code": "CA",
    "zipcode": "T3G",
    "place": "Calgary (Hawkwood / Arbour Lake / Royal Oak / Rocky Ridge)",
    "state": "Alberta",
    "state_code": "AB",
    "province": "Calgary",
    "province_code": "",
    "community": "",
    "community_code": "",
    "latitude": "51.1387",
    "longitude": "-114.2015"
  },
  {
    "country_code": "CA",
    "zipcode": "T3H",
    "place": "Calgary (Discovery Ridge / Signal Hill / Aspen Woods / Patterson / Cougar Ridge)",
    "state": "Alberta",
    "state_code": "AB",
    "province": "Calgary",
    "province_code": "",
    "community": "",
    "community_code": "",
    "latitude": "51.0419",
    "longitude": "-114.2"
  },
  {
    "country_code": "CA",
    "zipcode": "T3J",
    "place": "Calgary (Martindale / Taradale / Falconridge / Saddle Ridge)",
    "state": "Alberta",
    "state_code": "AB",
    "province": "Calgary",
    "province_code": "",
    "community": "",
    "community_code": "",
    "latitude": "51.1188",
    "longitude": "-113.9471"
  },
  {
    "country_code": "CA",
    "zipcode": "T3K",
    "place": "Calgary (Sandstone / Harvest Hills / Coventry Hills / Panorama Hills / Beddington)",
    "state": "Alberta",
    "state_code": "AB",
    "province": "Calgary",
    "province_code": "",
    "community": "",
    "community_code": "",
    "latitude": "51.1563",
    "longitude": "-114.0572"
  },
  {
    "country_code": "CA",
    "zipcode": "T3L",
    "place": "Calgary (Tuscany / Scenic Acres)",
    "state": "Alberta",
    "state_code": "AB",
    "province": "Calgary",
    "province_code": "",
    "community": "",
    "community_code": "",
    "latitude": "51.1467",
    "longitude": "-114.3133"
  },
  {
    "country_code": "CA",
    "zipcode": "T3M",
    "place": "Calgary (Cranston)",
    "state": "Alberta",
    "state_code": "AB",
    "province": "Calgary",
    "province_code": "",
    "community": "",
    "community_code": "",
    "latitude": "50.8796",
    "longitude": "-113.9555"
  },
  {
    "country_code": "CA",
    "zipcode": "T3N",
    "place": "Calgary Northeast",
    "state": "Alberta",
    "state_code": "AB",
    "province": "Calgary",
    "province_code": "",
    "community": "",
    "community_code": "",
    "latitude": "51.1626",
    "longitude": "-113.9537"
  },
  {
    "country_code": "CA",
    "zipcode": "T3P",
    "place": "Calgary (Symons Valley)",
    "state": "Alberta",
    "state_code": "AB",
    "province": "Calgary",
    "province_code": "",
    "community": "",
    "community_code": "",
    "latitude": "51.2074",
    "longitude": "-114.1348"
  },
  {
    "country_code": "CA",
    "zipcode": "T3R",
    "place": "Calgary Northwest",
    "state": "Alberta",
    "state_code": "AB",
    "province": "Calgary",
    "province_code": "",
    "community": "",
    "community_code": "",
    "latitude": "51.2021",
    "longitude": "-114.2453"
  },
  {
    "country_code": "CA",
    "zipcode": "T3S",
    "place": "Calgary",
    "state": "Alberta",
    "state_code": "AB",
    "province": "Calgary",
    "province_code": "",
    "community": "",
    "community_code": "",
    "latitude": "50.9153",
    "longitude": "-113.8932"
  },
  {
    "country_code": "CA",
    "zipcode": "T3Z",
    "place": "Redwood Meadows",
    "state": "Alberta",
    "state_code": "AB",
    "province": "",
    "province_code": "",
    "community": "",
    "community_code": "",
    "latitude": "51.0691",
    "longitude": "-114.4727"
  },
  {
    "country_code": "CA",
    "zipcode": "T4A",
    "place": "Airdrie East",
    "state": "Alberta",
    "state_code": "AB",
    "province": "Airdrie",
    "province_code": "",
    "community": "",
    "community_code": "",
    "latitude": "51.2799",
    "longitude": "-113.988"
  },
  {
    "country_code": "CA",
    "zipcode": "T4B",
    "place": "Airdrie West",
    "state": "Alberta",
    "state_code": "AB",
    "province": "Airdrie",
    "province_code": "",
    "community": "",
    "community_code": "",
    "latitude": "51.3082",
    "longitude": "-114.0398"
  },
  {
    "country_code": "CA",
    "zipcode": "T4C",
    "place": "Cochrane",
    "state": "Alberta",
    "state_code": "AB",
    "province": "",
    "province_code": "",
    "community": "",
    "community_code": "",
    "latitude": "51.1834",
    "longitude": "-114.4687"
  },
  {
    "country_code": "CA",
    "zipcode": "T4E",
    "place": "Red Deer County",
    "state": "Alberta",
    "state_code": "AB",
    "province": "Red Deer ",
    "province_code": "",
    "community": "",
    "community_code": "",
    "latitude": "52.2765",
    "longitude": "-113.7063"
  },
  {
    "country_code": "CA",
    "zipcode": "T4G",
    "place": "Innisfail",
    "state": "Alberta",
    "state_code": "AB",
    "province": "",
    "province_code": "",
    "community": "",
    "community_code": "",
    "latitude": "52.0269",
    "longitude": "-113.9507"
  },
  {
    "country_code": "CA",
    "zipcode": "T4H",
    "place": "Olds",
    "state": "Alberta",
    "state_code": "AB",
    "province": "",
    "province_code": "",
    "community": "",
    "community_code": "",
    "latitude": "51.7834",
    "longitude": "-114.102"
  },
  {
    "country_code": "CA",
    "zipcode": "T4J",
    "place": "Ponoka",
    "state": "Alberta",
    "state_code": "AB",
    "province": "",
    "province_code": "",
    "community": "",
    "community_code": "",
    "latitude": "52.6768",
    "longitude": "-113.5815"
  },
  {
    "country_code": "CA",
    "zipcode": "T4L",
    "place": "Lacombe",
    "state": "Alberta",
    "state_code": "AB",
    "province": "",
    "province_code": "",
    "community": "",
    "community_code": "",
    "latitude": "52.4668",
    "longitude": "-113.7353"
  },
  {
    "country_code": "CA",
    "zipcode": "T4M",
    "place": "Blackfalds",
    "state": "Alberta",
    "state_code": "AB",
    "province": "",
    "province_code": "",
    "community": "",
    "community_code": "",
    "latitude": "52.3834",
    "longitude": "-113.7853"
  },
  {
    "country_code": "CA",
    "zipcode": "T4N",
    "place": "Red Deer Central",
    "state": "Alberta",
    "state_code": "AB",
    "province": "Red Deer ",
    "province_code": "",
    "community": "",
    "community_code": "",
    "latitude": "52.2316",
    "longitude": "-113.8358"
  },
  {
    "country_code": "CA",
    "zipcode": "T4P",
    "place": "Red Deer North",
    "state": "Alberta",
    "state_code": "AB",
    "province": "Red Deer ",
    "province_code": "",
    "community": "",
    "community_code": "",
    "latitude": "52.2954",
    "longitude": "-113.8073"
  },
  {
    "country_code": "CA",
    "zipcode": "T4R",
    "place": "Red Deer South",
    "state": "Alberta",
    "state_code": "AB",
    "province": "Red Deer ",
    "province_code": "",
    "community": "",
    "community_code": "",
    "latitude": "52.2424",
    "longitude": "-113.7784"
  },
  {
    "country_code": "CA",
    "zipcode": "T4S",
    "place": "Sylvan Lake",
    "state": "Alberta",
    "state_code": "AB",
    "province": "",
    "province_code": "",
    "community": "",
    "community_code": "",
    "latitude": "52.3168",
    "longitude": "-114.0853"
  },
  {
    "country_code": "CA",
    "zipcode": "T4T",
    "place": "Rocky Mountain House",
    "state": "Alberta",
    "state_code": "AB",
    "province": "",
    "province_code": "",
    "community": "",
    "community_code": "",
    "latitude": "52.3668",
    "longitude": "-114.9188"
  },
  {
    "country_code": "CA",
    "zipcode": "T4V",
    "place": "Camrose",
    "state": "Alberta",
    "state_code": "AB",
    "province": "",
    "province_code": "",
    "community": "",
    "community_code": "",
    "latitude": "53.0168",
    "longitude": "-112.8353"
  },
  {
    "country_code": "CA",
    "zipcode": "T4X",
    "place": "Beaumont",
    "state": "Alberta",
    "state_code": "AB",
    "province": "",
    "province_code": "",
    "community": "",
    "community_code": "",
    "latitude": "53.3501",
    "longitude": "-113.4187"
  },
  {
    "country_code": "CA",
    "zipcode": "T5A",
    "place": "Edmonton (West Clareview / East Londonderry)",
    "state": "Alberta",
    "state_code": "AB",
    "province": "Edmonton",
    "province_code": "",
    "community": "",
    "community_code": "",
    "latitude": "53.5931",
    "longitude": "-113.4077"
  },
  {
    "country_code": "CA",
    "zipcode": "T5B",
    "place": "Edmonton (East North Central / West Beverly)",
    "state": "Alberta",
    "state_code": "AB",
    "province": "Edmonton",
    "province_code": "",
    "community": "",
    "community_code": "",
    "latitude": "53.7353",
    "longitude": "-113.3369"
  },
  {
    "country_code": "CA",
    "zipcode": "T5C",
    "place": "Edmonton (Central Londonderry)",
    "state": "Alberta",
    "state_code": "AB",
    "province": "Edmonton",
    "province_code": "",
    "community": "",
    "community_code": "",
    "latitude": "53.5996",
    "longitude": "-113.4549"
  },
  {
    "country_code": "CA",
    "zipcode": "T5E",
    "place": "Edmonton (West Londonderry / East Calder)",
    "state": "Alberta",
    "state_code": "AB",
    "province": "Edmonton",
    "province_code": "",
    "community": "",
    "community_code": "",
    "latitude": "53.7454",
    "longitude": "-113.4465"
  },
  {
    "country_code": "CA",
    "zipcode": "T5G",
    "place": "Edmonton (North Central / Queen Mary Park / YXD)",
    "state": "Alberta",
    "state_code": "AB",
    "province": "Edmonton",
    "province_code": "",
    "community": "",
    "community_code": "",
    "latitude": "53.5705",
    "longitude": "-113.5051"
  },
  {
    "country_code": "CA",
    "zipcode": "T5H",
    "place": "Edmonton (North and East Downtown Fringe)",
    "state": "Alberta",
    "state_code": "AB",
    "province": "Edmonton",
    "province_code": "",
    "community": "",
    "community_code": "",
    "latitude": "53.5514",
    "longitude": "-113.4916"
  },
  {
    "country_code": "CA",
    "zipcode": "T5J",
    "place": "Edmonton (North Downtown)",
    "state": "Alberta",
    "state_code": "AB",
    "province": "Edmonton",
    "province_code": "",
    "community": "",
    "community_code": "",
    "latitude": "53.5428",
    "longitude": "-113.4974"
  },
  {
    "country_code": "CA",
    "zipcode": "T5K",
    "place": "Edmonton (South Downtown / South Downtown Fringe)",
    "state": "Alberta",
    "state_code": "AB",
    "province": "Edmonton",
    "province_code": "",
    "community": "",
    "community_code": "",
    "latitude": "53.5366",
    "longitude": "-113.5103"
  },
  {
    "country_code": "CA",
    "zipcode": "T5L",
    "place": "Edmonton (North Westmount / West Calder / East Mistatim)",
    "state": "Alberta",
    "state_code": "AB",
    "province": "Edmonton",
    "province_code": "",
    "community": "",
    "community_code": "",
    "latitude": "53.585",
    "longitude": "-113.5526"
  },
  {
    "country_code": "CA",
    "zipcode": "T5M",
    "place": "Edmonton (South Westmount / Groat Estate / East Northwest Industrial)",
    "state": "Alberta",
    "state_code": "AB",
    "province": "Edmonton",
    "province_code": "",
    "community": "",
    "community_code": "",
    "latitude": "53.563",
    "longitude": "-113.5662"
  },
  {
    "country_code": "CA",
    "zipcode": "T5N",
    "place": "Edmonton (Glenora / SW Downtown Fringe)",
    "state": "Alberta",
    "state_code": "AB",
    "province": "Edmonton",
    "province_code": "",
    "community": "",
    "community_code": "",
    "latitude": "53.5436",
    "longitude": "-113.5574"
  },
  {
    "country_code": "CA",
    "zipcode": "T5P",
    "place": "Edmonton (North Jasper Place)",
    "state": "Alberta",
    "state_code": "AB",
    "province": "Edmonton",
    "province_code": "",
    "community": "",
    "community_code": "",
    "latitude": "53.5463",
    "longitude": "-113.5957"
  },
  {
    "country_code": "CA",
    "zipcode": "T5R",
    "place": "Edmonton (Central Jasper Place / Buena Vista)",
    "state": "Alberta",
    "state_code": "AB",
    "province": "Edmonton",
    "province_code": "",
    "community": "",
    "community_code": "",
    "latitude": "53.5181",
    "longitude": "-113.5797"
  },
  {
    "country_code": "CA",
    "zipcode": "T5S",
    "place": "Edmonton (West Northwest Industrial / Winterburn)",
    "state": "Alberta",
    "state_code": "AB",
    "province": "Edmonton",
    "province_code": "",
    "community": "",
    "community_code": "",
    "latitude": "53.5634",
    "longitude": "-113.6697"
  },
  {
    "country_code": "CA",
    "zipcode": "T5T",
    "place": "Edmonton West (West Jasper Place / West Edmonton Mall)",
    "state": "Alberta",
    "state_code": "AB",
    "province": "Edmonton",
    "province_code": "",
    "community": "",
    "community_code": "",
    "latitude": "53.5185",
    "longitude": "-113.6579"
  },
  {
    "country_code": "CA",
    "zipcode": "T5V",
    "place": "Edmonton (Central Mistatim)",
    "state": "Alberta",
    "state_code": "AB",
    "province": "Edmonton",
    "province_code": "",
    "community": "",
    "community_code": "",
    "latitude": "53.5848",
    "longitude": "-113.6224"
  },
  {
    "country_code": "CA",
    "zipcode": "T5W",
    "place": "Edmonton (Central Beverly)",
    "state": "Alberta",
    "state_code": "AB",
    "province": "Edmonton",
    "province_code": "",
    "community": "",
    "community_code": "",
    "latitude": "53.5645",
    "longitude": "-113.4022"
  },
  {
    "country_code": "CA",
    "zipcode": "T5X",
    "place": "Edmonton (East Castledowns)",
    "state": "Alberta",
    "state_code": "AB",
    "province": "Edmonton",
    "province_code": "",
    "community": "",
    "community_code": "",
    "latitude": "53.6313",
    "longitude": "-113.5245"
  },
  {
    "country_code": "CA",
    "zipcode": "T5Y",
    "place": "Edmonton (Landbank / Oliver / East Lake District)",
    "state": "Alberta",
    "state_code": "AB",
    "province": "Edmonton",
    "province_code": "",
    "community": "",
    "community_code": "",
    "latitude": "53.6585",
    "longitude": "-113.3614"
  },
  {
    "country_code": "CA",
    "zipcode": "T5Z",
    "place": "Edmonton (West Lake District)",
    "state": "Alberta",
    "state_code": "AB",
    "province": "Edmonton",
    "province_code": "",
    "community": "",
    "community_code": "",
    "latitude": "53.6365",
    "longitude": "-113.4673"
  },
  {
    "country_code": "CA",
    "zipcode": "T6A",
    "place": "Edmonton (North Capilano)",
    "state": "Alberta",
    "state_code": "AB",
    "province": "Edmonton",
    "province_code": "",
    "community": "",
    "community_code": "",
    "latitude": "53.5482",
    "longitude": "-113.4318"
  },
  {
    "country_code": "CA",
    "zipcode": "T6B",
    "place": "Edmonton (SE Capilano / West Southeast Industrial / East Bonnie Doon)",
    "state": "Alberta",
    "state_code": "AB",
    "province": "Edmonton",
    "province_code": "",
    "community": "",
    "community_code": "",
    "latitude": "53.5128",
    "longitude": "-113.4194"
  },
  {
    "country_code": "CA",
    "zipcode": "T6C",
    "place": "Edmonton (Central Bonnie Doon)",
    "state": "Alberta",
    "state_code": "AB",
    "province": "Edmonton",
    "province_code": "",
    "community": "",
    "community_code": "",
    "latitude": "53.522",
    "longitude": "-113.459"
  },
  {
    "country_code": "CA",
    "zipcode": "T6E",
    "place": "Edmonton (South Bonnie Doon / East University)",
    "state": "Alberta",
    "state_code": "AB",
    "province": "Edmonton",
    "province_code": "",
    "community": "",
    "community_code": "",
    "latitude": "53.4914",
    "longitude": "-113.4802"
  },
  {
    "country_code": "CA",
    "zipcode": "T6G",
    "place": "Edmonton (West University / Strathcona Place)",
    "state": "Alberta",
    "state_code": "AB",
    "province": "Edmonton",
    "province_code": "",
    "community": "",
    "community_code": "",
    "latitude": "53.521",
    "longitude": "-113.5324"
  },
  {
    "country_code": "CA",
    "zipcode": "T6H",
    "place": "Edmonton (Southgate / North Riverbend)",
    "state": "Alberta",
    "state_code": "AB",
    "province": "Edmonton",
    "province_code": "",
    "community": "",
    "community_code": "",
    "latitude": "53.3753",
    "longitude": "-113.4585"
  },
  {
    "country_code": "CA",
    "zipcode": "T6J",
    "place": "Edmonton (Kaskitayo)",
    "state": "Alberta",
    "state_code": "AB",
    "province": "Edmonton",
    "province_code": "",
    "community": "",
    "community_code": "",
    "latitude": "53.4564",
    "longitude": "-113.521"
  },
  {
    "country_code": "CA",
    "zipcode": "T6K",
    "place": "Edmonton (West Mill Woods)",
    "state": "Alberta",
    "state_code": "AB",
    "province": "Edmonton",
    "province_code": "",
    "community": "",
    "community_code": "",
    "latitude": "53.4609",
    "longitude": "-113.4519"
  },
  {
    "country_code": "CA",
    "zipcode": "T6L",
    "place": "Edmonton (East Mill Woods)",
    "state": "Alberta",
    "state_code": "AB",
    "province": "Edmonton",
    "province_code": "",
    "community": "",
    "community_code": "",
    "latitude": "53.4593",
    "longitude": "-113.4145"
  },
  {
    "country_code": "CA",
    "zipcode": "T6M",
    "place": "Edmonton Southwest",
    "state": "Alberta",
    "state_code": "AB",
    "province": "Edmonton",
    "province_code": "",
    "community": "",
    "community_code": "",
    "latitude": "53.4593",
    "longitude": "-113.6546"
  },
  {
    "country_code": "CA",
    "zipcode": "T6N",
    "place": "Edmonton (South Industrial)",
    "state": "Alberta",
    "state_code": "AB",
    "province": "Edmonton",
    "province_code": "",
    "community": "",
    "community_code": "",
    "latitude": "53.465",
    "longitude": "-113.4776"
  },
  {
    "country_code": "CA",
    "zipcode": "T6P",
    "place": "Edmonton (East Southeast Industrial / South Clover Bar)",
    "state": "Alberta",
    "state_code": "AB",
    "province": "Edmonton",
    "province_code": "",
    "community": "",
    "community_code": "",
    "latitude": "53.5078",
    "longitude": "-113.3723"
  },
  {
    "country_code": "CA",
    "zipcode": "T6R",
    "place": "Edmonton (Riverbend)",
    "state": "Alberta",
    "state_code": "AB",
    "province": "Edmonton",
    "province_code": "",
    "community": "",
    "community_code": "",
    "latitude": "53.4567",
    "longitude": "-113.5801"
  },
  {
    "country_code": "CA",
    "zipcode": "T6S",
    "place": "Edmonton (North Clover Bar)",
    "state": "Alberta",
    "state_code": "AB",
    "province": "Edmonton",
    "province_code": "",
    "community": "",
    "community_code": "",
    "latitude": "53.5806",
    "longitude": "-113.3374"
  },
  {
    "country_code": "CA",
    "zipcode": "T6T",
    "place": "Edmonton (Meadows)",
    "state": "Alberta",
    "state_code": "AB",
    "province": "Edmonton",
    "province_code": "",
    "community": "",
    "community_code": "",
    "latitude": "53.4617",
    "longitude": "-113.371"
  },
  {
    "country_code": "CA",
    "zipcode": "T6V",
    "place": "Edmonton (West Castledowns)",
    "state": "Alberta",
    "state_code": "AB",
    "province": "Edmonton",
    "province_code": "",
    "community": "",
    "community_code": "",
    "latitude": "53.6112",
    "longitude": "-113.5746"
  },
  {
    "country_code": "CA",
    "zipcode": "T6W",
    "place": "Edmonton (Heritage Valley)",
    "state": "Alberta",
    "state_code": "AB",
    "province": "Edmonton",
    "province_code": "",
    "community": "",
    "community_code": "",
    "latitude": "53.4179",
    "longitude": "-113.5785"
  },
  {
    "country_code": "CA",
    "zipcode": "T6X",
    "place": "Edmonton (Ellerslie)",
    "state": "Alberta",
    "state_code": "AB",
    "province": "Edmonton",
    "province_code": "",
    "community": "",
    "community_code": "",
    "latitude": "53.4154",
    "longitude": "-113.4178"
  },
  {
    "country_code": "CA",
    "zipcode": "T7A",
    "place": "Drayton Valley",
    "state": "Alberta",
    "state_code": "AB",
    "province": "",
    "province_code": "",
    "community": "",
    "community_code": "",
    "latitude": "53.2168",
    "longitude": "-114.9854"
  },
  {
    "country_code": "CA",
    "zipcode": "T7E",
    "place": "Edson",
    "state": "Alberta",
    "state_code": "AB",
    "province": "",
    "province_code": "",
    "community": "",
    "community_code": "",
    "latitude": "53.5834",
    "longitude": "-116.4356"
  },
  {
    "country_code": "CA",
    "zipcode": "T7N",
    "place": "Barrhead",
    "state": "Alberta",
    "state_code": "AB",
    "province": "",
    "province_code": "",
    "community": "",
    "community_code": "",
    "latitude": "54.1334",
    "longitude": "-114.4021"
  },
  {
    "country_code": "CA",
    "zipcode": "T7P",
    "place": "Westlock",
    "state": "Alberta",
    "state_code": "AB",
    "province": "",
    "province_code": "",
    "community": "",
    "community_code": "",
    "latitude": "54.1502",
    "longitude": "-113.8688"
  },
  {
    "country_code": "CA",
    "zipcode": "T7S",
    "place": "Whitecourt",
    "state": "Alberta",
    "state_code": "AB",
    "province": "",
    "province_code": "",
    "community": "",
    "community_code": "",
    "latitude": "54.1501",
    "longitude": "-115.6855"
  },
  {
    "country_code": "CA",
    "zipcode": "T7V",
    "place": "Hinton",
    "state": "Alberta",
    "state_code": "AB",
    "province": "",
    "province_code": "",
    "community": "",
    "community_code": "",
    "latitude": "53.4001",
    "longitude": "-117.5857"
  },
  {
    "country_code": "CA",
    "zipcode": "T7X",
    "place": "Spruce Grove North",
    "state": "Alberta",
    "state_code": "AB",
    "province": "Spruce Grove ",
    "province_code": "",
    "community": "",
    "community_code": "",
    "latitude": "53.5334",
    "longitude": "-113.9187"
  },
  {
    "country_code": "CA",
    "zipcode": "T7Y",
    "place": "Spruce Grove South",
    "state": "Alberta",
    "state_code": "AB",
    "province": "Spruce Grove ",
    "province_code": "",
    "community": "",
    "community_code": "",
    "latitude": "53.4184",
    "longitude": "-113.8097"
  },
  {
    "country_code": "CA",
    "zipcode": "T7Z",
    "place": "Stony Plain",
    "state": "Alberta",
    "state_code": "AB",
    "province": "",
    "province_code": "",
    "community": "",
    "community_code": "",
    "latitude": "53.5334",
    "longitude": "-114.0021"
  },
  {
    "country_code": "CA",
    "zipcode": "T8A",
    "place": "Sherwood Park West",
    "state": "Alberta",
    "state_code": "AB",
    "province": "Sherwood Park ",
    "province_code": "",
    "community": "",
    "community_code": "",
    "latitude": "53.528",
    "longitude": "-113.2512"
  },
  {
    "country_code": "CA",
    "zipcode": "T8B",
    "place": "Sherwood Park Outer Southwest",
    "state": "Alberta",
    "state_code": "AB",
    "province": "Sherwood Park ",
    "province_code": "",
    "community": "",
    "community_code": "",
    "latitude": "53.4397",
    "longitude": "-113.2952"
  },
  {
    "country_code": "CA",
    "zipcode": "T8C",
    "place": "Sherwood Park Inner Southwest",
    "state": "Alberta",
    "state_code": "AB",
    "province": "Sherwood Park ",
    "province_code": "",
    "community": "",
    "community_code": "",
    "latitude": "53.4391",
    "longitude": "-113.1903"
  },
  {
    "country_code": "CA",
    "zipcode": "T8E",
    "place": "Sherwood Park Central",
    "state": "Alberta",
    "state_code": "AB",
    "province": "Sherwood Park ",
    "province_code": "",
    "community": "",
    "community_code": "",
    "latitude": "53.5225",
    "longitude": "-113.1022"
  },
  {
    "country_code": "CA",
    "zipcode": "T8G",
    "place": "Sherwood Park East",
    "state": "Alberta",
    "state_code": "AB",
    "province": "Sherwood Park ",
    "province_code": "",
    "community": "",
    "community_code": "",
    "latitude": "53.5052",
    "longitude": "-112.9529"
  },
  {
    "country_code": "CA",
    "zipcode": "T8H",
    "place": "Sherwood Park Northwest",
    "state": "Alberta",
    "state_code": "AB",
    "province": "Sherwood Park ",
    "province_code": "",
    "community": "",
    "community_code": "",
    "latitude": "53.556",
    "longitude": "-113.2952"
  },
  {
    "country_code": "CA",
    "zipcode": "T8L",
    "place": "Fort Saskatchewan",
    "state": "Alberta",
    "state_code": "AB",
    "province": "",
    "province_code": "",
    "community": "",
    "community_code": "",
    "latitude": "53.7168",
    "longitude": "-113.2187"
  },
  {
    "country_code": "CA",
    "zipcode": "T8N",
    "place": "St. Albert",
    "state": "Alberta",
    "state_code": "AB",
    "province": "",
    "province_code": "",
    "community": "",
    "community_code": "",
    "latitude": "53.6334",
    "longitude": "-113.6353"
  },
  {
    "country_code": "CA",
    "zipcode": "T8R",
    "place": "Morinville",
    "state": "Alberta",
    "state_code": "AB",
    "province": "",
    "province_code": "",
    "community": "",
    "community_code": "",
    "latitude": "53.8001",
    "longitude": "-113.652"
  },
  {
    "country_code": "CA",
    "zipcode": "T8S",
    "place": "Peace River",
    "state": "Alberta",
    "state_code": "AB",
    "province": "",
    "province_code": "",
    "community": "",
    "community_code": "",
    "latitude": "56.2501",
    "longitude": "-117.286"
  },
  {
    "country_code": "CA",
    "zipcode": "T8T",
    "place": "St. Albert",
    "state": "Alberta",
    "state_code": "AB",
    "province": "",
    "province_code": "",
    "community": "",
    "community_code": "",
    "latitude": "53.6867",
    "longitude": "-113.7102"
  },
  {
    "country_code": "CA",
    "zipcode": "T8V",
    "place": "Grande Prairie Central",
    "state": "Alberta",
    "state_code": "AB",
    "province": "Grande Prairie ",
    "province_code": "",
    "community": "",
    "community_code": "",
    "latitude": "55.1808",
    "longitude": "-118.9103"
  },
  {
    "country_code": "CA",
    "zipcode": "T8W",
    "place": "Grande Prairie South",
    "state": "Alberta",
    "state_code": "AB",
    "province": "Grande Prairie ",
    "province_code": "",
    "community": "",
    "community_code": "",
    "latitude": "55.1303",
    "longitude": "-118.7946"
  },
  {
    "country_code": "CA",
    "zipcode": "T8X",
    "place": "Grande Prairie East",
    "state": "Alberta",
    "state_code": "AB",
    "province": "Grande Prairie ",
    "province_code": "",
    "community": "",
    "community_code": "",
    "latitude": "55.1834",
    "longitude": "-118.7457"
  },
  {
    "country_code": "CA",
    "zipcode": "T9A",
    "place": "Wetaskiwin",
    "state": "Alberta",
    "state_code": "AB",
    "province": "",
    "province_code": "",
    "community": "",
    "community_code": "",
    "latitude": "52.9668",
    "longitude": "-113.3687"
  },
  {
    "country_code": "CA",
    "zipcode": "T9C",
    "place": "Vegreville",
    "state": "Alberta",
    "state_code": "AB",
    "province": "",
    "province_code": "",
    "community": "",
    "community_code": "",
    "latitude": "53.5001",
    "longitude": "-112.0518"
  },
  {
    "country_code": "CA",
    "zipcode": "T9E",
    "place": "Leduc",
    "state": "Alberta",
    "state_code": "AB",
    "province": "",
    "province_code": "",
    "community": "",
    "community_code": "",
    "latitude": "53.2668",
    "longitude": "-113.552"
  },
  {
    "country_code": "CA",
    "zipcode": "T9G",
    "place": "Devon",
    "state": "Alberta",
    "state_code": "AB",
    "province": "",
    "province_code": "",
    "community": "",
    "community_code": "",
    "latitude": "53.3668",
    "longitude": "-113.7353"
  },
  {
    "country_code": "CA",
    "zipcode": "T9H",
    "place": "Fort McMurray Outer Central",
    "state": "Alberta",
    "state_code": "AB",
    "province": "Fort McMurray ",
    "province_code": "",
    "community": "",
    "community_code": "",
    "latitude": "56.664",
    "longitude": "-111.1357"
  },
  {
    "country_code": "CA",
    "zipcode": "T9J",
    "place": "Fort McMurray Inner Central",
    "state": "Alberta",
    "state_code": "AB",
    "province": "Fort McMurray ",
    "province_code": "",
    "community": "",
    "community_code": "",
    "latitude": "56.707",
    "longitude": "-111.3771"
  },
  {
    "country_code": "CA",
    "zipcode": "T9K",
    "place": "Fort McMurray Northwest",
    "state": "Alberta",
    "state_code": "AB",
    "province": "Fort McMurray ",
    "province_code": "",
    "community": "",
    "community_code": "",
    "latitude": "56.7538",
    "longitude": "-111.435"
  },
  {
    "country_code": "CA",
    "zipcode": "T9M",
    "place": "Cold Lake",
    "state": "Alberta",
    "state_code": "AB",
    "province": "",
    "province_code": "",
    "community": "",
    "community_code": "",
    "latitude": "54.4502",
    "longitude": "-110.2017"
  },
  {
    "country_code": "CA",
    "zipcode": "T9N",
    "place": "Bonnyville",
    "state": "Alberta",
    "state_code": "AB",
    "province": "",
    "province_code": "",
    "community": "",
    "community_code": "",
    "latitude": "54.2668",
    "longitude": "-110.7351"
  },
  {
    "country_code": "CA",
    "zipcode": "T9S",
    "place": "Athabasca",
    "state": "Alberta",
    "state_code": "AB",
    "province": "",
    "province_code": "",
    "community": "",
    "community_code": "",
    "latitude": "54.7169",
    "longitude": "-113.2854"
  },
  {
    "country_code": "CA",
    "zipcode": "T9V",
    "place": "Lloydminster",
    "state": "Alberta",
    "state_code": "AB",
    "province": "",
    "province_code": "",
    "community": "",
    "community_code": "",
    "latitude": "53.2717",
    "longitude": "-110.0853"
  },
  {
    "country_code": "CA",
    "zipcode": "T9W",
    "place": "Wainwright",
    "state": "Alberta",
    "state_code": "AB",
    "province": "",
    "province_code": "",
    "community": "",
    "community_code": "",
    "latitude": "52.839",
    "longitude": "-110.8572"
  },
  {
    "country_code": "CA",
    "zipcode": "T9X",
    "place": "Vermilion",
    "state": "Alberta",
    "state_code": "AB",
    "province": "",
    "province_code": "",
    "community": "",
    "community_code": "",
    "latitude": "53.3669",
    "longitude": "-110.8517"
  },
  {
    "country_code": "CA",
    "zipcode": "V5K",
    "place": "Vancouver (North Hastings-Sunrise)",
    "state": "British Columbia",
    "state_code": "BC",
    "province": "Vancouver",
    "province_code": "5965814",
    "community": "",
    "community_code": "",
    "latitude": "49.2807",
    "longitude": "-123.0397"
  },
  {
    "country_code": "CA",
    "zipcode": "V5L",
    "place": "Vancouver (North Grandview-Woodlands)",
    "state": "British Columbia",
    "state_code": "BC",
    "province": "Vancouver",
    "province_code": "5965814",
    "community": "",
    "community_code": "",
    "latitude": "49.2795",
    "longitude": "-123.0667"
  },
  {
    "country_code": "CA",
    "zipcode": "V5M",
    "place": "Vancouver (South Hastings-Sunrise / North Renfrew-Collingwood)",
    "state": "British Columbia",
    "state_code": "BC",
    "province": "Vancouver",
    "province_code": "5965814",
    "community": "",
    "community_code": "",
    "latitude": "49.26",
    "longitude": "-123.0398"
  },
  {
    "country_code": "CA",
    "zipcode": "V5N",
    "place": "Vancouver (South Grandview-Woodlands / NE Kensington)",
    "state": "British Columbia",
    "state_code": "BC",
    "province": "Vancouver",
    "province_code": "5965814",
    "community": "",
    "community_code": "",
    "latitude": "49.2551",
    "longitude": "-123.0667"
  },
  {
    "country_code": "CA",
    "zipcode": "V5P",
    "place": "Vancouver (SE Kensington / Victoria-Fraserview)",
    "state": "British Columbia",
    "state_code": "BC",
    "province": "Vancouver",
    "province_code": "5965814",
    "community": "",
    "community_code": "",
    "latitude": "49.222",
    "longitude": "-123.0683"
  },
  {
    "country_code": "CA",
    "zipcode": "V5R",
    "place": "Vancouver (South Renfrew-Collingwood)",
    "state": "British Columbia",
    "state_code": "BC",
    "province": "Vancouver",
    "province_code": "5965814",
    "community": "",
    "community_code": "",
    "latitude": "49.2397",
    "longitude": "-123.0407"
  },
  {
    "country_code": "CA",
    "zipcode": "V5S",
    "place": "Vancouver (Killarney)",
    "state": "British Columbia",
    "state_code": "BC",
    "province": "Vancouver",
    "province_code": "5965814",
    "community": "",
    "community_code": "",
    "latitude": "49.2175",
    "longitude": "-123.038"
  },
  {
    "country_code": "CA",
    "zipcode": "V5T",
    "place": "Vancouver (East Mount Pleasant)",
    "state": "British Columbia",
    "state_code": "BC",
    "province": "Vancouver",
    "province_code": "5965814",
    "community": "",
    "community_code": "",
    "latitude": "49.262",
    "longitude": "-123.0923"
  },
  {
    "country_code": "CA",
    "zipcode": "V5V",
    "place": "Vancouver (West Kensington / NE Riley Park-Little Mountain)",
    "state": "British Columbia",
    "state_code": "BC",
    "province": "Vancouver",
    "province_code": "5965814",
    "community": "",
    "community_code": "",
    "latitude": "49.248",
    "longitude": "-123.0913"
  },
  {
    "country_code": "CA",
    "zipcode": "V5W",
    "place": "Vancouver (SE Riley Park-Little Mountain / SW Kensington / NE Oakridge / North Sunset)",
    "state": "British Columbia",
    "state_code": "BC",
    "province": "Vancouver",
    "province_code": "5965814",
    "community": "",
    "community_code": "",
    "latitude": "49.2327",
    "longitude": "-123.0917"
  },
  {
    "country_code": "CA",
    "zipcode": "V5X",
    "place": "Vancouver (SE Oakridge / East Marpole / South Sunset)",
    "state": "British Columbia",
    "state_code": "BC",
    "province": "Vancouver",
    "province_code": "5965814",
    "community": "",
    "community_code": "",
    "latitude": "49.2156",
    "longitude": "-123.0979"
  },
  {
    "country_code": "CA",
    "zipcode": "V5Y",
    "place": "Vancouver (West Mount Pleasant / West Riley Park-Little Mountain)",
    "state": "British Columbia",
    "state_code": "BC",
    "province": "Vancouver",
    "province_code": "5965814",
    "community": "",
    "community_code": "",
    "latitude": "49.2492",
    "longitude": "-123.1104"
  },
  {
    "country_code": "CA",
    "zipcode": "V5Z",
    "place": "Vancouver (East Fairview / South Cambie)",
    "state": "British Columbia",
    "state_code": "BC",
    "province": "Vancouver",
    "province_code": "5965814",
    "community": "",
    "community_code": "",
    "latitude": "49.2475",
    "longitude": "-123.121"
  },
  {
    "country_code": "CA",
    "zipcode": "V6A",
    "place": "Vancouver (Strathcona / Chinatown / Downtown Eastside)",
    "state": "British Columbia",
    "state_code": "BC",
    "province": "Vancouver",
    "province_code": "5965814",
    "community": "",
    "community_code": "",
    "latitude": "49.2779",
    "longitude": "-123.0908"
  },
  {
    "country_code": "CA",
    "zipcode": "V6B",
    "place": "Vancouver (NE Downtown / Harbour Centre / Gastown / Yaletown)",
    "state": "British Columbia",
    "state_code": "BC",
    "province": "Vancouver",
    "province_code": "5965814",
    "community": "",
    "community_code": "",
    "latitude": "49.2788",
    "longitude": "-123.1139"
  },
  {
    "country_code": "CA",
    "zipcode": "V6C",
    "place": "Vancouver (Waterfront / Coal Harbour / Canada Place)",
    "state": "British Columbia",
    "state_code": "BC",
    "province": "Vancouver",
    "province_code": "5965814",
    "community": "",
    "community_code": "",
    "latitude": "49.2866",
    "longitude": "-123.1158"
  },
  {
    "country_code": "CA",
    "zipcode": "V6E",
    "place": "Vancouver (South West End)",
    "state": "British Columbia",
    "state_code": "BC",
    "province": "Vancouver",
    "province_code": "5965814",
    "community": "",
    "community_code": "",
    "latitude": "49.2833",
    "longitude": "-123.1298"
  },
  {
    "country_code": "CA",
    "zipcode": "V6G",
    "place": "Vancouver (North West End / Stanley Park)",
    "state": "British Columbia",
    "state_code": "BC",
    "province": "Vancouver",
    "province_code": "5965814",
    "community": "",
    "community_code": "",
    "latitude": "49.299",
    "longitude": "-123.1408"
  },
  {
    "country_code": "CA",
    "zipcode": "V6H",
    "place": "Vancouver (West Fairview / Granville Island / NE Shaughnessy)",
    "state": "British Columbia",
    "state_code": "BC",
    "province": "Vancouver",
    "province_code": "5965814",
    "community": "",
    "community_code": "",
    "latitude": "49.2559",
    "longitude": "-123.1322"
  },
  {
    "country_code": "CA",
    "zipcode": "V6J",
    "place": "Vancouver (NW Shaughnessy / East Kitsilano / Quilchena)",
    "state": "British Columbia",
    "state_code": "BC",
    "province": "Vancouver",
    "province_code": "5965814",
    "community": "",
    "community_code": "",
    "latitude": "49.2603",
    "longitude": "-123.146"
  },
  {
    "country_code": "CA",
    "zipcode": "V6K",
    "place": "Vancouver (Central Kitsilano)",
    "state": "British Columbia",
    "state_code": "BC",
    "province": "Vancouver",
    "province_code": "5965814",
    "community": "",
    "community_code": "",
    "latitude": "49.2646",
    "longitude": "-123.1648"
  },
  {
    "country_code": "CA",
    "zipcode": "V6L",
    "place": "Vancouver (NW Arbutus Ridge)",
    "state": "British Columbia",
    "state_code": "BC",
    "province": "Vancouver",
    "province_code": "5965814",
    "community": "",
    "community_code": "",
    "latitude": "49.2497",
    "longitude": "-123.166"
  },
  {
    "country_code": "CA",
    "zipcode": "V6M",
    "place": "Vancouver (South Shaughnessy / NW Oakridge / NE Kerrisdale / SE Arbutus Ridge)",
    "state": "British Columbia",
    "state_code": "BC",
    "province": "Vancouver",
    "province_code": "5965814",
    "community": "",
    "community_code": "",
    "latitude": "49.2344",
    "longitude": "-123.1451"
  },
  {
    "country_code": "CA",
    "zipcode": "V6N",
    "place": "Vancouver (Dunbar-Southlands / Musqueam)",
    "state": "British Columbia",
    "state_code": "BC",
    "province": "Vancouver",
    "province_code": "5965814",
    "community": "",
    "community_code": "",
    "latitude": "49.2302",
    "longitude": "-123.189"
  },
  {
    "country_code": "CA",
    "zipcode": "V6P",
    "place": "Vancouver (SE Kerrisdale / SW Oakridge / West Marpole)",
    "state": "British Columbia",
    "state_code": "BC",
    "province": "Vancouver",
    "province_code": "5965814",
    "community": "",
    "community_code": "",
    "latitude": "49.2151",
    "longitude": "-123.1396"
  },
  {
    "country_code": "CA",
    "zipcode": "V6R",
    "place": "Vancouver (West Kitsilano / Jericho)",
    "state": "British Columbia",
    "state_code": "BC",
    "province": "Vancouver",
    "province_code": "5965814",
    "community": "",
    "community_code": "",
    "latitude": "49.2666",
    "longitude": "-123.1976"
  },
  {
    "country_code": "CA",
    "zipcode": "V6S",
    "place": "Vancouver (Chaldecutt / South University Endowment Lands)",
    "state": "British Columbia",
    "state_code": "BC",
    "province": "Vancouver",
    "province_code": "5965814",
    "community": "",
    "community_code": "",
    "latitude": "49.2491",
    "longitude": "-123.2088"
  },
  {
    "country_code": "CA",
    "zipcode": "V6T",
    "place": "Vancouver (UBC)",
    "state": "British Columbia",
    "state_code": "BC",
    "province": "Vancouver",
    "province_code": "5965814",
    "community": "",
    "community_code": "",
    "latitude": "49.4635",
    "longitude": "-122.822"
  },
  {
    "country_code": "CA",
    "zipcode": "V6Z",
    "place": "Vancouver (SW Downtown)",
    "state": "British Columbia",
    "state_code": "BC",
    "province": "Vancouver",
    "province_code": "5965814",
    "community": "",
    "community_code": "",
    "latitude": "49.2767",
    "longitude": "-123.13"
  },
  {
    "country_code": "CA",
    "zipcode": "V7G",
    "place": "North Vancouver Outer East",
    "state": "British Columbia",
    "state_code": "BC",
    "province": "Vancouver",
    "province_code": "5965814",
    "community": "",
    "community_code": "",
    "latitude": "49.3678",
    "longitude": "-122.9278"
  },
  {
    "country_code": "CA",
    "zipcode": "V7H",
    "place": "North Vancouver Inner East",
    "state": "British Columbia",
    "state_code": "BC",
    "province": "Vancouver",
    "province_code": "5965814",
    "community": "",
    "community_code": "",
    "latitude": "49.3551",
    "longitude": "-122.9802"
  },
  {
    "country_code": "CA",
    "zipcode": "V7J",
    "place": "North Vancouver East Central",
    "state": "British Columbia",
    "state_code": "BC",
    "province": "Vancouver",
    "province_code": "5965814",
    "community": "",
    "community_code": "",
    "latitude": "49.3622",
    "longitude": "-123.0178"
  },
  {
    "country_code": "CA",
    "zipcode": "V7K",
    "place": "North Vancouver North Central",
    "state": "British Columbia",
    "state_code": "BC",
    "province": "Vancouver",
    "province_code": "5965814",
    "community": "",
    "community_code": "",
    "latitude": "49.3597",
    "longitude": "-123.0377"
  },
  {
    "country_code": "CA",
    "zipcode": "V7L",
    "place": "North Vancouver South Central",
    "state": "British Columbia",
    "state_code": "BC",
    "province": "Vancouver",
    "province_code": "5965814",
    "community": "",
    "community_code": "",
    "latitude": "49.316",
    "longitude": "-123.0576"
  },
  {
    "country_code": "CA",
    "zipcode": "V7M",
    "place": "North Vancouver Southwest Central",
    "state": "British Columbia",
    "state_code": "BC",
    "province": "Vancouver",
    "province_code": "5965814",
    "community": "",
    "community_code": "",
    "latitude": "49.3222",
    "longitude": "-123.0834"
  },
  {
    "country_code": "CA",
    "zipcode": "V7N",
    "place": "North Vancouver Northwest Central",
    "state": "British Columbia",
    "state_code": "BC",
    "province": "Vancouver",
    "province_code": "5965814",
    "community": "",
    "community_code": "",
    "latitude": "49.35",
    "longitude": "-123.0679"
  },
  {
    "country_code": "CA",
    "zipcode": "V7P",
    "place": "North Vancouver Southwest",
    "state": "British Columbia",
    "state_code": "BC",
    "province": "Vancouver",
    "province_code": "5965814",
    "community": "",
    "community_code": "",
    "latitude": "49.322",
    "longitude": "-123.1149"
  },
  {
    "country_code": "CA",
    "zipcode": "V7R",
    "place": "North Vancouver Northwest",
    "state": "British Columbia",
    "state_code": "BC",
    "province": "Vancouver",
    "province_code": "5965814",
    "community": "",
    "community_code": "",
    "latitude": "49.3775",
    "longitude": "-123.0862"
  },
  {
    "country_code": "CA",
    "zipcode": "V7S",
    "place": "West Vancouver North",
    "state": "British Columbia",
    "state_code": "BC",
    "province": "Vancouver",
    "province_code": "5965814",
    "community": "",
    "community_code": "",
    "latitude": "49.3745",
    "longitude": "-123.1864"
  },
  {
    "country_code": "CA",
    "zipcode": "V7T",
    "place": "West Vancouver Southeast",
    "state": "British Columbia",
    "state_code": "BC",
    "province": "Vancouver",
    "province_code": "5965814",
    "community": "",
    "community_code": "",
    "latitude": "49.3322",
    "longitude": "-123.1417"
  },
  {
    "country_code": "CA",
    "zipcode": "V7V",
    "place": "West Vancouver South",
    "state": "British Columbia",
    "state_code": "BC",
    "province": "Vancouver",
    "province_code": "5965814",
    "community": "",
    "community_code": "",
    "latitude": "49.3397",
    "longitude": "-123.1912"
  },
  {
    "country_code": "CA",
    "zipcode": "V7W",
    "place": "West Vancouver West",
    "state": "British Columbia",
    "state_code": "BC",
    "province": "Vancouver",
    "province_code": "5965814",
    "community": "",
    "community_code": "",
    "latitude": "49.3615",
    "longitude": "-123.2627"
  },
  {
    "country_code": "CA",
    "zipcode": "V7X",
    "place": "Vancouver (Bentall Centre)",
    "state": "British Columbia",
    "state_code": "BC",
    "province": "Vancouver",
    "province_code": "5965814",
    "community": "",
    "community_code": "",
    "latitude": "49.2935",
    "longitude": "-123.1162"
  },
  {
    "country_code": "CA",
    "zipcode": "V7Y",
    "place": "Vancouver (Pacific Centre)",
    "state": "British Columbia",
    "state_code": "BC",
    "province": "Vancouver",
    "province_code": "5965814",
    "community": "",
    "community_code": "",
    "latitude": "49.2819",
    "longitude": "-123.119"
  },
  {
    "country_code": "CA",
    "zipcode": "V0A",
    "place": "Upper Columbia Region (Golden)",
    "state": "British Columbia",
    "state_code": "BC",
    "province": "",
    "province_code": "",
    "community": "",
    "community_code": "",
    "latitude": "51.2994",
    "longitude": "-116.939"
  },
  {
    "country_code": "CA",
    "zipcode": "V0B",
    "place": "East Kootenays (Fernie)",
    "state": "British Columbia",
    "state_code": "BC",
    "province": "",
    "province_code": "",
    "community": "",
    "community_code": "",
    "latitude": "49.6775",
    "longitude": "-115.5636"
  },
  {
    "country_code": "CA",
    "zipcode": "V0C",
    "place": "Northern British Columbia (Fort Nelson)",
    "state": "British Columbia",
    "state_code": "BC",
    "province": "",
    "province_code": "",
    "community": "",
    "community_code": "",
    "latitude": "58.3874",
    "longitude": "-125.7167"
  },
  {
    "country_code": "CA",
    "zipcode": "V0E",
    "place": "Central Okanagan and High Country (Revelstoke)",
    "state": "British Columbia",
    "state_code": "BC",
    "province": "",
    "province_code": "",
    "community": "",
    "community_code": "",
    "latitude": "51.505",
    "longitude": "-119.2034"
  },
  {
    "country_code": "CA",
    "zipcode": "V0G",
    "place": "West Kootenays (Rossland)",
    "state": "British Columbia",
    "state_code": "BC",
    "province": "",
    "province_code": "",
    "community": "",
    "community_code": "",
    "latitude": "50.053",
    "longitude": "-117.4291"
  },
  {
    "country_code": "CA",
    "zipcode": "V0H",
    "place": "South Okanagan (Summerland)",
    "state": "British Columbia",
    "state_code": "BC",
    "province": "",
    "province_code": "",
    "community": "",
    "community_code": "",
    "latitude": "49.4089",
    "longitude": "-119.0054"
  },
  {
    "country_code": "CA",
    "zipcode": "V0J",
    "place": "Omineca and Yellowhead (Smithers)",
    "state": "British Columbia",
    "state_code": "BC",
    "province": "",
    "province_code": "",
    "community": "",
    "community_code": "",
    "latitude": "55.9964",
    "longitude": "-126.8574"
  },
  {
    "country_code": "CA",
    "zipcode": "V0K",
    "place": "Cariboo and West Okanagan (100 Mile House)",
    "state": "British Columbia",
    "state_code": "BC",
    "province": "",
    "province_code": "",
    "community": "",
    "community_code": "",
    "latitude": "51.4367",
    "longitude": "-121.6384"
  },
  {
    "country_code": "CA",
    "zipcode": "V0L",
    "place": "Chilcotin (Alexis Creek)",
    "state": "British Columbia",
    "state_code": "BC",
    "province": "",
    "province_code": "",
    "community": "",
    "community_code": "",
    "latitude": "52.0993",
    "longitude": "-123.6526"
  },
  {
    "country_code": "CA",
    "zipcode": "V0M",
    "place": "Harrison Lake Region (Agassiz)",
    "state": "British Columbia",
    "state_code": "BC",
    "province": "",
    "province_code": "",
    "community": "",
    "community_code": "",
    "latitude": "49.6346",
    "longitude": "-122.038"
  },
  {
    "country_code": "CA",
    "zipcode": "V0N",
    "place": "North Island, Sunshine Coast, and Southern Gulf Islands (Whistler)",
    "state": "British Columbia",
    "state_code": "BC",
    "province": "",
    "province_code": "",
    "community": "",
    "community_code": "",
    "latitude": "51.2944",
    "longitude": "-126.0745"
  },
  {
    "country_code": "CA",
    "zipcode": "V0P",
    "place": "North Central Island and Bute Inlet Region (Gold River)",
    "state": "British Columbia",
    "state_code": "BC",
    "province": "",
    "province_code": "",
    "community": "",
    "community_code": "",
    "latitude": "49.8866",
    "longitude": "-126.2673"
  },
  {
    "country_code": "CA",
    "zipcode": "V0R",
    "place": "Central Island (Chemainus)",
    "state": "British Columbia",
    "state_code": "BC",
    "province": "",
    "province_code": "",
    "community": "",
    "community_code": "",
    "latitude": "49.027",
    "longitude": "-124.8461"
  },
  {
    "country_code": "CA",
    "zipcode": "V0S",
    "place": "Juan de Fuca Shore (Sooke)",
    "state": "British Columbia",
    "state_code": "BC",
    "province": "",
    "province_code": "",
    "community": "",
    "community_code": "",
    "latitude": "48.5432",
    "longitude": "-123.672"
  },
  {
    "country_code": "CA",
    "zipcode": "V0T",
    "place": "Inside Passage and the Queen Charlottes (Queen Charlotte City)",
    "state": "British Columbia",
    "state_code": "BC",
    "province": "",
    "province_code": "",
    "community": "",
    "community_code": "",
    "latitude": "52.2338",
    "longitude": "-126.2134"
  },
  {
    "country_code": "CA",
    "zipcode": "V0V",
    "place": "Lower Skeena (Port Edward)",
    "state": "British Columbia",
    "state_code": "BC",
    "province": "",
    "province_code": "",
    "community": "",
    "community_code": "",
    "latitude": "53.9725",
    "longitude": "-129.8986"
  },
  {
    "country_code": "CA",
    "zipcode": "V0W",
    "place": "Atlin Region (Atlin)",
    "state": "British Columbia",
    "state_code": "BC",
    "province": "",
    "province_code": "",
    "community": "",
    "community_code": "",
    "latitude": "59.6378",
    "longitude": "-133.5433"
  },
  {
    "country_code": "CA",
    "zipcode": "V0X",
    "place": "Similkameen (Hope)",
    "state": "British Columbia",
    "state_code": "BC",
    "province": "",
    "province_code": "",
    "community": "",
    "community_code": "",
    "latitude": "49.3688",
    "longitude": "-120.6569"
  },
  {
    "country_code": "CA",
    "zipcode": "V1A",
    "place": "Kimberley",
    "state": "British Columbia",
    "state_code": "BC",
    "province": "",
    "province_code": "",
    "community": "",
    "community_code": "",
    "latitude": "49.6832",
    "longitude": "-115.9855"
  },
  {
    "country_code": "CA",
    "zipcode": "V1B",
    "place": "Vernon East",
    "state": "British Columbia",
    "state_code": "BC",
    "province": "Vernon",
    "province_code": "",
    "community": "",
    "community_code": "",
    "latitude": "50.084",
    "longitude": "-118.938"
  },
  {
    "country_code": "CA",
    "zipcode": "V1C",
    "place": "Cranbrook",
    "state": "British Columbia",
    "state_code": "BC",
    "province": "",
    "province_code": "",
    "community": "",
    "community_code": "",
    "latitude": "49.4999",
    "longitude": "-115.7688"
  },
  {
    "country_code": "CA",
    "zipcode": "V1E",
    "place": "Salmon Arm",
    "state": "British Columbia",
    "state_code": "BC",
    "province": "",
    "province_code": "",
    "community": "",
    "community_code": "",
    "latitude": "50.6998",
    "longitude": "-119.2691"
  },
  {
    "country_code": "CA",
    "zipcode": "V1G",
    "place": "Dawson Creek",
    "state": "British Columbia",
    "state_code": "BC",
    "province": "",
    "province_code": "",
    "community": "",
    "community_code": "",
    "latitude": "55.7666",
    "longitude": "-120.2362"
  },
  {
    "country_code": "CA",
    "zipcode": "V1H",
    "place": "Vernon West",
    "state": "British Columbia",
    "state_code": "BC",
    "province": "Vernon",
    "province_code": "",
    "community": "",
    "community_code": "",
    "latitude": "50.2868",
    "longitude": "-119.4975"
  },
  {
    "country_code": "CA",
    "zipcode": "V1J",
    "place": "Fort St. John",
    "state": "British Columbia",
    "state_code": "BC",
    "province": "",
    "province_code": "",
    "community": "",
    "community_code": "",
    "latitude": "56.2499",
    "longitude": "-120.8529"
  },
  {
    "country_code": "CA",
    "zipcode": "V1K",
    "place": "Merritt",
    "state": "British Columbia",
    "state_code": "BC",
    "province": "",
    "province_code": "",
    "community": "",
    "community_code": "",
    "latitude": "50.1122",
    "longitude": "-120.7942"
  },
  {
    "country_code": "CA",
    "zipcode": "V1L",
    "place": "Nelson",
    "state": "British Columbia",
    "state_code": "BC",
    "province": "",
    "province_code": "",
    "community": "",
    "community_code": "",
    "latitude": "49.4999",
    "longitude": "-117.2855"
  },
  {
    "country_code": "CA",
    "zipcode": "V1M",
    "place": "Langley Township North",
    "state": "British Columbia",
    "state_code": "BC",
    "province": "",
    "province_code": "",
    "community": "",
    "community_code": "",
    "latitude": "49.1661",
    "longitude": "-122.5792"
  },
  {
    "country_code": "CA",
    "zipcode": "V1N",
    "place": "Castlegar",
    "state": "British Columbia",
    "state_code": "BC",
    "province": "",
    "province_code": "",
    "community": "",
    "community_code": "",
    "latitude": "49.2998",
    "longitude": "-117.6689"
  },
  {
    "country_code": "CA",
    "zipcode": "V1P",
    "place": "Kelowna East",
    "state": "British Columbia",
    "state_code": "BC",
    "province": "Kelowna",
    "province_code": "",
    "community": "",
    "community_code": "",
    "latitude": "49.8959",
    "longitude": "-119.1724"
  },
  {
    "country_code": "CA",
    "zipcode": "V1R",
    "place": "Trail",
    "state": "British Columbia",
    "state_code": "BC",
    "province": "",
    "province_code": "",
    "community": "",
    "community_code": "",
    "latitude": "49.0998",
    "longitude": "-117.7022"
  },
  {
    "country_code": "CA",
    "zipcode": "V1S",
    "place": "Kamloops Southwest",
    "state": "British Columbia",
    "state_code": "BC",
    "province": "",
    "province_code": "",
    "community": "",
    "community_code": "",
    "latitude": "50.5583",
    "longitude": "-120.5477"
  },
  {
    "country_code": "CA",
    "zipcode": "V1T",
    "place": "Vernon Central",
    "state": "British Columbia",
    "state_code": "BC",
    "province": "Vernon",
    "province_code": "",
    "community": "",
    "community_code": "",
    "latitude": "50.2604",
    "longitude": "-119.2774"
  },
  {
    "country_code": "CA",
    "zipcode": "V1V",
    "place": "Kelowna North",
    "state": "British Columbia",
    "state_code": "BC",
    "province": "Kelowna",
    "province_code": "",
    "community": "",
    "community_code": "",
    "latitude": "49.9497",
    "longitude": "-119.4339"
  },
  {
    "country_code": "CA",
    "zipcode": "V1W",
    "place": "Kelowna Southwest",
    "state": "British Columbia",
    "state_code": "BC",
    "province": "Kelowna",
    "province_code": "",
    "community": "",
    "community_code": "",
    "latitude": "49.812",
    "longitude": "-119.5076"
  },
  {
    "country_code": "CA",
    "zipcode": "V1X",
    "place": "Kelowna East Central",
    "state": "British Columbia",
    "state_code": "BC",
    "province": "Kelowna",
    "province_code": "",
    "community": "",
    "community_code": "",
    "latitude": "50.0528",
    "longitude": "-119.2858"
  },
  {
    "country_code": "CA",
    "zipcode": "V1Y",
    "place": "Kelowna Central",
    "state": "British Columbia",
    "state_code": "BC",
    "province": "Kelowna",
    "province_code": "",
    "community": "",
    "community_code": "",
    "latitude": "49.8928",
    "longitude": "-119.4852"
  },
  {
    "country_code": "CA",
    "zipcode": "V1Z",
    "place": "Kelowna West",
    "state": "British Columbia",
    "state_code": "BC",
    "province": "Kelowna",
    "province_code": "",
    "community": "",
    "community_code": "",
    "latitude": "49.8625",
    "longitude": "-119.5833"
  },
  {
    "country_code": "CA",
    "zipcode": "V2A",
    "place": "Penticton",
    "state": "British Columbia",
    "state_code": "BC",
    "province": "",
    "province_code": "",
    "community": "",
    "community_code": "",
    "latitude": "49.4806",
    "longitude": "-119.5858"
  },
  {
    "country_code": "CA",
    "zipcode": "V2B",
    "place": "Kamloops Northwest",
    "state": "British Columbia",
    "state_code": "BC",
    "province": "Kamloops",
    "province_code": "",
    "community": "",
    "community_code": "",
    "latitude": "50.8869",
    "longitude": "-120.7357"
  },
  {
    "country_code": "CA",
    "zipcode": "V2C",
    "place": "Kamloops Central and Southeast",
    "state": "British Columbia",
    "state_code": "BC",
    "province": "Kamloops",
    "province_code": "",
    "community": "",
    "community_code": "",
    "latitude": "50.5437",
    "longitude": "-120.0937"
  },
  {
    "country_code": "CA",
    "zipcode": "V2E",
    "place": "Kamloops South and West",
    "state": "British Columbia",
    "state_code": "BC",
    "province": "Kamloops",
    "province_code": "",
    "community": "",
    "community_code": "",
    "latitude": "50.6736",
    "longitude": "-120.4212"
  },
  {
    "country_code": "CA",
    "zipcode": "V2G",
    "place": "Williams Lake",
    "state": "British Columbia",
    "state_code": "BC",
    "province": "",
    "province_code": "",
    "community": "",
    "community_code": "",
    "latitude": "52.1415",
    "longitude": "-122.1445"
  },
  {
    "country_code": "CA",
    "zipcode": "V2H",
    "place": "Kamloops North",
    "state": "British Columbia",
    "state_code": "BC",
    "province": "Kamloops",
    "province_code": "",
    "community": "",
    "community_code": "",
    "latitude": "50.7262",
    "longitude": "-120.1659"
  },
  {
    "country_code": "CA",
    "zipcode": "V2J",
    "place": "Quesnel",
    "state": "British Columbia",
    "state_code": "BC",
    "province": "",
    "province_code": "",
    "community": "",
    "community_code": "",
    "latitude": "52.9784",
    "longitude": "-122.4931"
  },
  {
    "country_code": "CA",
    "zipcode": "V2K",
    "place": "Prince George North",
    "state": "British Columbia",
    "state_code": "BC",
    "province": "Prince George ",
    "province_code": "",
    "community": "",
    "community_code": "",
    "latitude": "54.0508",
    "longitude": "-122.9221"
  },
  {
    "country_code": "CA",
    "zipcode": "V2L",
    "place": "Prince George East Central",
    "state": "British Columbia",
    "state_code": "BC",
    "province": "Prince George ",
    "province_code": "",
    "community": "",
    "community_code": "",
    "latitude": "53.9078",
    "longitude": "-122.7473"
  },
  {
    "country_code": "CA",
    "zipcode": "V2M",
    "place": "Prince George West Central",
    "state": "British Columbia",
    "state_code": "BC",
    "province": "Prince George ",
    "province_code": "",
    "community": "",
    "community_code": "",
    "latitude": "53.9127",
    "longitude": "-122.8708"
  },
  {
    "country_code": "CA",
    "zipcode": "V2N",
    "place": "Prince George South",
    "state": "British Columbia",
    "state_code": "BC",
    "province": "Prince George ",
    "province_code": "",
    "community": "",
    "community_code": "",
    "latitude": "53.6408",
    "longitude": "-122.954"
  },
  {
    "country_code": "CA",
    "zipcode": "V2P",
    "place": "Chilliwack Central",
    "state": "British Columbia",
    "state_code": "BC",
    "province": "Chilliwack",
    "province_code": "",
    "community": "",
    "community_code": "",
    "latitude": "49.1838",
    "longitude": "-121.9046"
  },
  {
    "country_code": "CA",
    "zipcode": "V2R",
    "place": "Chilliwack West",
    "state": "British Columbia",
    "state_code": "BC",
    "province": "Chilliwack",
    "province_code": "",
    "community": "",
    "community_code": "",
    "latitude": "49.076",
    "longitude": "-121.9883"
  },
  {
    "country_code": "CA",
    "zipcode": "V2S",
    "place": "Abbotsford Southeast",
    "state": "British Columbia",
    "state_code": "BC",
    "province": "Abbotsford",
    "province_code": "",
    "community": "",
    "community_code": "",
    "latitude": "49.0423",
    "longitude": "-122.2835"
  },
  {
    "country_code": "CA",
    "zipcode": "V2T",
    "place": "Abbotsford Southwest",
    "state": "British Columbia",
    "state_code": "BC",
    "province": "Abbotsford",
    "province_code": "",
    "community": "",
    "community_code": "",
    "latitude": "49.0384",
    "longitude": "-122.3485"
  },
  {
    "country_code": "CA",
    "zipcode": "V2V",
    "place": "Mission East",
    "state": "British Columbia",
    "state_code": "BC",
    "province": "",
    "province_code": "",
    "community": "",
    "community_code": "",
    "latitude": "49.6463",
    "longitude": "-122.5047"
  },
  {
    "country_code": "CA",
    "zipcode": "V2W",
    "place": "Maple Ridge East",
    "state": "British Columbia",
    "state_code": "BC",
    "province": "Maple Ridge ",
    "province_code": "",
    "community": "",
    "community_code": "",
    "latitude": "49.2068",
    "longitude": "-122.4851"
  },
  {
    "country_code": "CA",
    "zipcode": "V2X",
    "place": "Maple Ridge West",
    "state": "British Columbia",
    "state_code": "BC",
    "province": "Maple Ridge ",
    "province_code": "",
    "community": "",
    "community_code": "",
    "latitude": "49.2196",
    "longitude": "-122.6164"
  },
  {
    "country_code": "CA",
    "zipcode": "V2Y",
    "place": "Langley Township Northwest",
    "state": "British Columbia",
    "state_code": "BC",
    "province": "Langley Township ",
    "province_code": "",
    "community": "",
    "community_code": "",
    "latitude": "49.1285",
    "longitude": "-122.6236"
  },
  {
    "country_code": "CA",
    "zipcode": "V2Z",
    "place": "Langley Township Southwest",
    "state": "British Columbia",
    "state_code": "BC",
    "province": "Langley Township ",
    "province_code": "",
    "community": "",
    "community_code": "",
    "latitude": "49.0483",
    "longitude": "-122.5997"
  },
  {
    "country_code": "CA",
    "zipcode": "V3A",
    "place": "Langley City",
    "state": "British Columbia",
    "state_code": "BC",
    "province": "",
    "province_code": "",
    "community": "",
    "community_code": "",
    "latitude": "49.0997",
    "longitude": "-122.6526"
  },
  {
    "country_code": "CA",
    "zipcode": "V3B",
    "place": "Port Coquitlam Central",
    "state": "British Columbia",
    "state_code": "BC",
    "province": "Port Coquitlam ",
    "province_code": "",
    "community": "",
    "community_code": "",
    "latitude": "49.274",
    "longitude": "-122.7649"
  },
  {
    "country_code": "CA",
    "zipcode": "V3C",
    "place": "Port Coquitlam South",
    "state": "British Columbia",
    "state_code": "BC",
    "province": "Port Coquitlam ",
    "province_code": "",
    "community": "",
    "community_code": "",
    "latitude": "49.2436",
    "longitude": "-122.7865"
  },
  {
    "country_code": "CA",
    "zipcode": "V3E",
    "place": "Port Coquitlam North",
    "state": "British Columbia",
    "state_code": "BC",
    "province": "Port Coquitlam ",
    "province_code": "",
    "community": "",
    "community_code": "",
    "latitude": "49.3167",
    "longitude": "-122.7384"
  },
  {
    "country_code": "CA",
    "zipcode": "V3G",
    "place": "Abbotsford East",
    "state": "British Columbia",
    "state_code": "BC",
    "province": "",
    "province_code": "",
    "community": "",
    "community_code": "",
    "latitude": "49.0754",
    "longitude": "-122.178"
  },
  {
    "country_code": "CA",
    "zipcode": "V3H",
    "place": "Port Moody",
    "state": "British Columbia",
    "state_code": "BC",
    "province": "",
    "province_code": "",
    "community": "",
    "community_code": "",
    "latitude": "49.3231",
    "longitude": "-122.8626"
  },
  {
    "country_code": "CA",
    "zipcode": "V3J",
    "place": "Coquitlam North",
    "state": "British Columbia",
    "state_code": "BC",
    "province": "Coquitlam",
    "province_code": "",
    "community": "",
    "community_code": "",
    "latitude": "49.265",
    "longitude": "-122.8716"
  },
  {
    "country_code": "CA",
    "zipcode": "V3K",
    "place": "Coquitlam South",
    "state": "British Columbia",
    "state_code": "BC",
    "province": "Coquitlam",
    "province_code": "",
    "community": "",
    "community_code": "",
    "latitude": "49.2366",
    "longitude": "-122.8521"
  },
  {
    "country_code": "CA",
    "zipcode": "V3L",
    "place": "New Westminster Northeast",
    "state": "British Columbia",
    "state_code": "BC",
    "province": "New Westminster ",
    "province_code": "",
    "community": "",
    "community_code": "",
    "latitude": "49.2201",
    "longitude": "-122.8998"
  },
  {
    "country_code": "CA",
    "zipcode": "V3M",
    "place": "New Westminster Southwest (Includes Annacis Island)",
    "state": "British Columbia",
    "state_code": "BC",
    "province": "New Westminster ",
    "province_code": "",
    "community": "",
    "community_code": "",
    "latitude": "49.1886",
    "longitude": "-122.9384"
  },
  {
    "country_code": "CA",
    "zipcode": "V3N",
    "place": "Burnaby (East Big Bend / Stride Avenue / Edmonds / Cariboo-Armstrong)",
    "state": "British Columbia",
    "state_code": "BC",
    "province": "",
    "province_code": "",
    "community": "",
    "community_code": "",
    "latitude": "49.2275",
    "longitude": "-122.9301"
  },
  {
    "country_code": "CA",
    "zipcode": "V3R",
    "place": "Surrey North",
    "state": "British Columbia",
    "state_code": "BC",
    "province": "Surrey",
    "province_code": "",
    "community": "",
    "community_code": "",
    "latitude": "49.1948",
    "longitude": "-122.8131"
  },
  {
    "country_code": "CA",
    "zipcode": "V3S",
    "place": "Surrey East",
    "state": "British Columbia",
    "state_code": "BC",
    "province": "Surrey",
    "province_code": "",
    "community": "",
    "community_code": "",
    "latitude": "49.0791",
    "longitude": "-122.7553"
  },
  {
    "country_code": "CA",
    "zipcode": "V3T",
    "place": "Surrey Inner Northwest",
    "state": "British Columbia",
    "state_code": "BC",
    "province": "Surrey",
    "province_code": "",
    "community": "",
    "community_code": "",
    "latitude": "49.1894",
    "longitude": "-122.8454"
  },
  {
    "country_code": "CA",
    "zipcode": "V3V",
    "place": "Surrey Outer Northwest",
    "state": "British Columbia",
    "state_code": "BC",
    "province": "Surrey",
    "province_code": "",
    "community": "",
    "community_code": "",
    "latitude": "49.1889",
    "longitude": "-122.873"
  },
  {
    "country_code": "CA",
    "zipcode": "V3W",
    "place": "Surrey Upper West",
    "state": "British Columbia",
    "state_code": "BC",
    "province": "Surrey",
    "province_code": "",
    "community": "",
    "community_code": "",
    "latitude": "49.141",
    "longitude": "-122.8569"
  },
  {
    "country_code": "CA",
    "zipcode": "V3X",
    "place": "Surrey Lower West",
    "state": "British Columbia",
    "state_code": "BC",
    "province": "Surrey",
    "province_code": "",
    "community": "",
    "community_code": "",
    "latitude": "49.1067",
    "longitude": "-122.8576"
  },
  {
    "country_code": "CA",
    "zipcode": "V3Y",
    "place": "Pitt Meadows",
    "state": "British Columbia",
    "state_code": "BC",
    "province": "",
    "province_code": "",
    "community": "",
    "community_code": "",
    "latitude": "49.2212",
    "longitude": "-122.6896"
  },
  {
    "country_code": "CA",
    "zipcode": "V3Z",
    "place": "Surrey",
    "state": "British Columbia",
    "state_code": "BC",
    "province": "",
    "province_code": "",
    "community": "",
    "community_code": "",
    "latitude": "49.1064",
    "longitude": "-122.8251"
  },
  {
    "country_code": "CA",
    "zipcode": "V4A",
    "place": "Surrey Southwest",
    "state": "British Columbia",
    "state_code": "BC",
    "province": "Surrey",
    "province_code": "",
    "community": "",
    "community_code": "",
    "latitude": "49.0374",
    "longitude": "-122.8299"
  },
  {
    "country_code": "CA",
    "zipcode": "V4B",
    "place": "White Rock",
    "state": "British Columbia",
    "state_code": "BC",
    "province": "",
    "province_code": "",
    "community": "",
    "community_code": "",
    "latitude": "49.0259",
    "longitude": "-122.8058"
  },
  {
    "country_code": "CA",
    "zipcode": "V4C",
    "place": "Delta Northeast",
    "state": "British Columbia",
    "state_code": "BC",
    "province": "Delta",
    "province_code": "",
    "community": "",
    "community_code": "",
    "latitude": "49.1551",
    "longitude": "-122.9124"
  },
  {
    "country_code": "CA",
    "zipcode": "V4E",
    "place": "Delta East",
    "state": "British Columbia",
    "state_code": "BC",
    "province": "Delta",
    "province_code": "",
    "community": "",
    "community_code": "",
    "latitude": "49.1197",
    "longitude": "-122.9056"
  },
  {
    "country_code": "CA",
    "zipcode": "V4G",
    "place": "Delta East Central",
    "state": "British Columbia",
    "state_code": "BC",
    "province": "Delta",
    "province_code": "",
    "community": "",
    "community_code": "",
    "latitude": "49.1464",
    "longitude": "-123.0137"
  },
  {
    "country_code": "CA",
    "zipcode": "V4K",
    "place": "Delta Central",
    "state": "British Columbia",
    "state_code": "BC",
    "province": "Delta",
    "province_code": "",
    "community": "",
    "community_code": "",
    "latitude": "49.0986",
    "longitude": "-123.0318"
  },
  {
    "country_code": "CA",
    "zipcode": "V4L",
    "place": "Delta Southeast",
    "state": "British Columbia",
    "state_code": "BC",
    "province": "Delta",
    "province_code": "",
    "community": "",
    "community_code": "",
    "latitude": "49.0418",
    "longitude": "-123.0591"
  },
  {
    "country_code": "CA",
    "zipcode": "V4M",
    "place": "Delta Southwest",
    "state": "British Columbia",
    "state_code": "BC",
    "province": "Delta",
    "province_code": "",
    "community": "",
    "community_code": "",
    "latitude": "49.0331",
    "longitude": "-123.0877"
  },
  {
    "country_code": "CA",
    "zipcode": "V4N",
    "place": "Surrey Northeast",
    "state": "British Columbia",
    "state_code": "BC",
    "province": "Surrey",
    "province_code": "",
    "community": "",
    "community_code": "",
    "latitude": "49.1707",
    "longitude": "-122.7326"
  },
  {
    "country_code": "CA",
    "zipcode": "V4P",
    "place": "Surrey South",
    "state": "British Columbia",
    "state_code": "BC",
    "province": "Surrey",
    "province_code": "",
    "community": "",
    "community_code": "",
    "latitude": "49.0561",
    "longitude": "-122.8302"
  },
  {
    "country_code": "CA",
    "zipcode": "V4R",
    "place": "Maple Ridge Northwest",
    "state": "British Columbia",
    "state_code": "BC",
    "province": "",
    "province_code": "",
    "community": "",
    "community_code": "",
    "latitude": "49.2903",
    "longitude": "-122.5169"
  },
  {
    "country_code": "CA",
    "zipcode": "V4S",
    "place": "Mission West",
    "state": "British Columbia",
    "state_code": "BC",
    "province": "",
    "province_code": "",
    "community": "",
    "community_code": "",
    "latitude": "49.2528",
    "longitude": "-122.3574"
  },
  {
    "country_code": "CA",
    "zipcode": "V4T",
    "place": "Westbank",
    "state": "British Columbia",
    "state_code": "BC",
    "province": "",
    "province_code": "",
    "community": "",
    "community_code": "",
    "latitude": "49.866",
    "longitude": "-119.7387"
  },
  {
    "country_code": "CA",
    "zipcode": "V4V",
    "place": "Winfield",
    "state": "British Columbia",
    "state_code": "BC",
    "province": "",
    "province_code": "",
    "community": "",
    "community_code": "",
    "latitude": "50.0221",
    "longitude": "-119.4054"
  },
  {
    "country_code": "CA",
    "zipcode": "V4W",
    "place": "Langley Township East",
    "state": "British Columbia",
    "state_code": "BC",
    "province": "",
    "province_code": "",
    "community": "",
    "community_code": "",
    "latitude": "49.0713",
    "longitude": "-122.4977"
  },
  {
    "country_code": "CA",
    "zipcode": "V4X",
    "place": "Abbotsford West",
    "state": "British Columbia",
    "state_code": "BC",
    "province": "",
    "province_code": "",
    "community": "",
    "community_code": "",
    "latitude": "49.0861",
    "longitude": "-122.4026"
  },
  {
    "country_code": "CA",
    "zipcode": "V4Z",
    "place": "Chilliwack East",
    "state": "British Columbia",
    "state_code": "BC",
    "province": "",
    "province_code": "",
    "community": "",
    "community_code": "",
    "latitude": "49.0787",
    "longitude": "-121.6098"
  },
  {
    "country_code": "CA",
    "zipcode": "V5A",
    "place": "Burnaby (Government Road / Lake City / SFU / Burnaby Mountain)",
    "state": "British Columbia",
    "state_code": "BC",
    "province": "Burnaby",
    "province_code": "",
    "community": "",
    "community_code": "",
    "latitude": "49.264",
    "longitude": "-122.9369"
  },
  {
    "country_code": "CA",
    "zipcode": "V5B",
    "place": "Burnaby (Parkcrest-Aubrey / Ardingley-Sprott)",
    "state": "British Columbia",
    "state_code": "BC",
    "province": "Burnaby",
    "province_code": "",
    "community": "",
    "community_code": "",
    "latitude": "49.2769",
    "longitude": "-122.9761"
  },
  {
    "country_code": "CA",
    "zipcode": "V5C",
    "place": "Burnaby (Burnaby Heights / Willingdon Heights / West Central Valley)",
    "state": "British Columbia",
    "state_code": "BC",
    "province": "Burnaby",
    "province_code": "",
    "community": "",
    "community_code": "",
    "latitude": "49.274",
    "longitude": "-123.0074"
  },
  {
    "country_code": "CA",
    "zipcode": "V5E",
    "place": "Burnaby (Lakeview-Mayfield / Richmond Park / Kingsway-Beresford)",
    "state": "British Columbia",
    "state_code": "BC",
    "province": "Burnaby",
    "province_code": "",
    "community": "",
    "community_code": "",
    "latitude": "49.2272",
    "longitude": "-122.9574"
  },
  {
    "country_code": "CA",
    "zipcode": "V5G",
    "place": "Burnaby (Cascade-Schou / Douglas-Gilpin)",
    "state": "British Columbia",
    "state_code": "BC",
    "province": "Burnaby",
    "province_code": "",
    "community": "",
    "community_code": "",
    "latitude": "49.2478",
    "longitude": "-122.9938"
  },
  {
    "country_code": "CA",
    "zipcode": "V5H",
    "place": "Burnaby (Maywood / Marlborough / Oakalla / Windsor)",
    "state": "British Columbia",
    "state_code": "BC",
    "province": "Burnaby",
    "province_code": "",
    "community": "",
    "community_code": "",
    "latitude": "49.2302",
    "longitude": "-122.9952"
  },
  {
    "country_code": "CA",
    "zipcode": "V5J",
    "place": "Burnaby (Suncrest / Sussex-Nelson / Clinton-Glenwood / West Big Bend)",
    "state": "British Columbia",
    "state_code": "BC",
    "province": "Burnaby",
    "province_code": "",
    "community": "",
    "community_code": "",
    "latitude": "49.2038",
    "longitude": "-122.9921"
  },
  {
    "country_code": "CA",
    "zipcode": "V6V",
    "place": "Richmond Northeast",
    "state": "British Columbia",
    "state_code": "BC",
    "province": "Richmond",
    "province_code": "",
    "community": "",
    "community_code": "",
    "latitude": "49.1853",
    "longitude": "-123.0386"
  },
  {
    "country_code": "CA",
    "zipcode": "V6W",
    "place": "Richmond Southeast",
    "state": "British Columbia",
    "state_code": "BC",
    "province": "Richmond",
    "province_code": "",
    "community": "",
    "community_code": "",
    "latitude": "49.1534",
    "longitude": "-123.048"
  },
  {
    "country_code": "CA",
    "zipcode": "V6X",
    "place": "Richmond North",
    "state": "British Columbia",
    "state_code": "BC",
    "province": "Richmond",
    "province_code": "",
    "community": "",
    "community_code": "",
    "latitude": "49.1836",
    "longitude": "-123.1168"
  },
  {
    "country_code": "CA",
    "zipcode": "V6Y",
    "place": "Richmond Central",
    "state": "British Columbia",
    "state_code": "BC",
    "province": "Richmond",
    "province_code": "",
    "community": "",
    "community_code": "",
    "latitude": "49.17",
    "longitude": "-123.1368"
  },
  {
    "country_code": "CA",
    "zipcode": "V7A",
    "place": "Richmond South",
    "state": "British Columbia",
    "state_code": "BC",
    "province": "Richmond",
    "province_code": "",
    "community": "",
    "community_code": "",
    "latitude": "49.1205",
    "longitude": "-123.1171"
  },
  {
    "country_code": "CA",
    "zipcode": "V7B",
    "place": "Richmond (Sea Island / YVR)",
    "state": "British Columbia",
    "state_code": "BC",
    "province": "Richmond",
    "province_code": "",
    "community": "",
    "community_code": "",
    "latitude": "49.1988",
    "longitude": "-123.1799"
  },
  {
    "country_code": "CA",
    "zipcode": "V7C",
    "place": "Richmond West",
    "state": "British Columbia",
    "state_code": "BC",
    "province": "Richmond",
    "province_code": "",
    "community": "",
    "community_code": "",
    "latitude": "49.1626",
    "longitude": "-123.1721"
  },
  {
    "country_code": "CA",
    "zipcode": "V7E",
    "place": "Richmond Southwest",
    "state": "British Columbia",
    "state_code": "BC",
    "province": "Richmond",
    "province_code": "",
    "community": "",
    "community_code": "",
    "latitude": "49.1323",
    "longitude": "-123.1705"
  },
  {
    "country_code": "CA",
    "zipcode": "V8A",
    "place": "Powell River",
    "state": "British Columbia",
    "state_code": "BC",
    "province": "",
    "province_code": "",
    "community": "",
    "community_code": "",
    "latitude": "50.0163",
    "longitude": "-124.3226"
  },
  {
    "country_code": "CA",
    "zipcode": "V8B",
    "place": "Squamish",
    "state": "British Columbia",
    "state_code": "BC",
    "province": "",
    "province_code": "",
    "community": "",
    "community_code": "",
    "latitude": "49.7002",
    "longitude": "-123.156"
  },
  {
    "country_code": "CA",
    "zipcode": "V8C",
    "place": "Kitimat",
    "state": "British Columbia",
    "state_code": "BC",
    "province": "",
    "province_code": "",
    "community": "",
    "community_code": "",
    "latitude": "54.0524",
    "longitude": "-128.6534"
  },
  {
    "country_code": "CA",
    "zipcode": "V8E",
    "place": "Whistler",
    "state": "British Columbia",
    "state_code": "BC",
    "province": "",
    "province_code": "",
    "community": "",
    "community_code": "",
    "latitude": "50.1182",
    "longitude": "-122.954"
  },
  {
    "country_code": "CA",
    "zipcode": "V8G",
    "place": "Terrace",
    "state": "British Columbia",
    "state_code": "BC",
    "province": "",
    "province_code": "",
    "community": "",
    "community_code": "",
    "latitude": "54.5163",
    "longitude": "-128.6035"
  },
  {
    "country_code": "CA",
    "zipcode": "V8J",
    "place": "Prince Rupert",
    "state": "British Columbia",
    "state_code": "BC",
    "province": "",
    "province_code": "",
    "community": "",
    "community_code": "",
    "latitude": "54.3161",
    "longitude": "-130.3201"
  },
  {
    "country_code": "CA",
    "zipcode": "V8K",
    "place": "Saltspring Island",
    "state": "British Columbia",
    "state_code": "BC",
    "province": "",
    "province_code": "",
    "community": "",
    "community_code": "",
    "latitude": "48.8138",
    "longitude": "-123.4973"
  },
  {
    "country_code": "CA",
    "zipcode": "V8L",
    "place": "Sidney",
    "state": "British Columbia",
    "state_code": "BC",
    "province": "",
    "province_code": "",
    "community": "",
    "community_code": "",
    "latitude": "48.6496",
    "longitude": "-123.4026"
  },
  {
    "country_code": "CA",
    "zipcode": "V8M",
    "place": "Central Saanich",
    "state": "British Columbia",
    "state_code": "BC",
    "province": "",
    "province_code": "",
    "community": "",
    "community_code": "",
    "latitude": "48.5663",
    "longitude": "-123.4193"
  },
  {
    "country_code": "CA",
    "zipcode": "V8N",
    "place": "Saanich East",
    "state": "British Columbia",
    "state_code": "BC",
    "province": "Saanich",
    "province_code": "",
    "community": "",
    "community_code": "",
    "latitude": "48.4765",
    "longitude": "-123.3145"
  },
  {
    "country_code": "CA",
    "zipcode": "V8P",
    "place": "Saanich Southeast",
    "state": "British Columbia",
    "state_code": "BC",
    "province": "Saanich",
    "province_code": "",
    "community": "",
    "community_code": "",
    "latitude": "48.4583",
    "longitude": "-123.3325"
  },
  {
    "country_code": "CA",
    "zipcode": "V8R",
    "place": "Oak Bay North",
    "state": "British Columbia",
    "state_code": "BC",
    "province": "Oak Bay ",
    "province_code": "",
    "community": "",
    "community_code": "",
    "latitude": "48.4496",
    "longitude": "-123.3026"
  },
  {
    "country_code": "CA",
    "zipcode": "V8S",
    "place": "Oak Bay South",
    "state": "British Columbia",
    "state_code": "BC",
    "province": "Oak Bay ",
    "province_code": "",
    "community": "",
    "community_code": "",
    "latitude": "48.42",
    "longitude": "-123.3047"
  },
  {
    "country_code": "CA",
    "zipcode": "V8T",
    "place": "Victoria North",
    "state": "British Columbia",
    "state_code": "BC",
    "province": "Victoria",
    "province_code": "",
    "community": "",
    "community_code": "",
    "latitude": "48.4392",
    "longitude": "-123.3566"
  },
  {
    "country_code": "CA",
    "zipcode": "V8V",
    "place": "Victoria South",
    "state": "British Columbia",
    "state_code": "BC",
    "province": "Victoria",
    "province_code": "",
    "community": "",
    "community_code": "",
    "latitude": "48.4167",
    "longitude": "-123.365"
  },
  {
    "country_code": "CA",
    "zipcode": "V8W",
    "place": "Victoria Central British Columbia Provincial Government",
    "state": "British Columbia",
    "state_code": "BC",
    "province": "Victoria",
    "province_code": "",
    "community": "",
    "community_code": "",
    "latitude": "48.4267",
    "longitude": "-123.3655"
  },
  {
    "country_code": "CA",
    "zipcode": "V8X",
    "place": "Saanich South",
    "state": "British Columbia",
    "state_code": "BC",
    "province": "Saanich",
    "province_code": "",
    "community": "",
    "community_code": "",
    "latitude": "48.4777",
    "longitude": "-123.3658"
  },