<?xml version="1.0" encoding="UTF-8"?>
<zipcodes>
  <object>
    <country_code>CA</country_code>
    <zipcode>T0A</zipcode>
    <place>Eastern Alberta (St. Paul)</place>
    <state>Alberta</state>
    <state_code>AB</state_code>
    <province></province>
    <province_code></province_code>
    <community></community>
    <community_code></community_code>
    <latitude>54.766</latitude>
    <longitude>-111.7174</longitude>
  </object>
  <object>
    <country_code>CA</country_code>
    <zipcode>T0B</zipcode>
    <place>Wainwright Region (Tofield)</place>
    <state>Alberta</state>
    <state_code>AB</state_code>
    <province></province>
    <province_code></province_code>
    <community></community>
    <community_code></community_code>
    <latitude>53.0727</latitude>
    <longitude>-111.5816</longitude>
  </object>
  <object>
    <country_code>CA</country_code>
    <zipcode>T0C</zipcode>
    <place>Central Alberta (Stettler)</place>
    <state>Alberta</state>
    <state_code>AB</state_code>
    <province></province>
    <province_code></province_code>
    <community></community>
    <community_code></community_code>
    <latitude>52.1431</latitude>
    <longitude>-111.6941</longitude>
  </object>
  <object>
    <country_code>CA</country_code>
    <zipcode>T0E</zipcode>
    <place>Western Alberta (Jasper)</place>
    <state>Alberta</state>
    <state_code>AB</state_code>
    <province></province>
    <province_code></province_code>
    <community></community>
    <community_code></community_code>
    <latitude>53.6758</latitude>
    <longitude>-115.0948</longitude>
  </object>
  <object>
    <country_code>CA</country_code>
    <zipcode>T0G</zipcode>
    <place>North Central Alberta (Slave Lake)</place>
    <state>Alberta</state>
    <state_code>AB</state_code>
    <province></province>
    <province_code></province_code>
    <community></community>
    <community_code></community_code>
    <latitude>55.6993</latitude>
    <longitude>-114.4529</longitude>
  </object>
  <object>
    <country_code>CA</country_code>
    <zipcode>T0H</zipcode>
    <place>Northwestern Alberta (High Level)</place>
    <state>Alberta</state>
    <state_code>AB</state_code>
    <province></province>
    <province_code></province_code>
    <community></community>
    <community_code></community_code>
    <latitude>57.5403</latitude>
    <longitude>-116.9153</longitude>
  </object>
  <object>
    <country_code>CA</country_code>
    <zipcode>T0J</zipcode>
    <place>Southeastern Alberta (Drumheller)</place>
    <state>Alberta</state>
    <state_code>AB</state_code>
    <province></province>
    <province_code></province_code>
    <community></community>
    <community_code></community_code>
    <latitude>50.9944</latitude>
    <longitude>-111.4632</longitude>
  </object>
  <object>
    <country_code>CA</country_code>
    <zipcode>T0K</zipcode>
    <place>International Border Region (Cardston)</place>
    <state>Alberta</state>
    <state_code>AB</state_code>
    <province></province>
    <province_code></province_code>
    <community></community>
    <community_code></community_code>
    <latitude>49.4721</latitude>
    <longitude>-112.2408</longitude>
  </object>
  <object>
    <country_code>CA</country_code>
    <zipcode>T0L</zipcode>
    <place>Kananaskis Country (Claresholm)</place>
    <state>Alberta</state>
    <state_code>AB</state_code>
    <province></province>
    <province_code></province_code>
    <community></community>
    <community_code></community_code>
    <latitude>50.6314</latitude>
    <longitude>-114.4089</longitude>
  </object>
  <object>
    <country_code>CA</country_code>
    <zipcode>T0M</zipcode>
    <place>Central Foothills (Sundre)</place>
    <state>Alberta</state>
    <state_code>AB</state_code>
    <province></province>
    <province_code></province_code>
    <community></community>
    <community_code></community_code>
    <latitude>51.9552</latitude>
    <longitude>-114.8691</longitude>
  </object>
  <object>
    <country_code>CA</country_code>
    <zipcode>T0P</zipcode>
    <place>Northeastern Alberta (Fort Chipewyan)</place>
    <state>Alberta</state>
    <state_code>AB</state_code>
    <province></province>
    <province_code></province_code>
    <community></community>
    <community_code></community_code>
    <latitude>58.2626</latitude>
    <longitude>-110.7467</longitude>
  </object>
  <object>
    <country_code>CA</country_code>
    <zipcode>T0V</zipcode>
    <place>Remote Northeast (Fitzgerald)</place>
    <state>Alberta</state>
    <state_code>AB</state_code>
    <province></province>
    <province_code></province_code>
    <community></community>
    <community_code></community_code>
    <latitude>59.9049</latitude>
    <longitude>-111.6717</longitude>
  </object>
  <object>
    <country_code>CA</country_code>
    <zipcode>T1A</zipcode>
    <place>Medicine Hat Central</place>
    <state>Alberta</state>
    <state_code>AB</state_code>
    <province>Medicine Hat </province>
    <province_code></province_code>
    <community></community>
    <community_code></community_code>
    <latitude>50.0816</latitude>
    <longitude>-110.5788</longitude>
  </object>
  <object>
    <country_code>CA</country_code>
    <zipcode>T1B</zipcode>
    <place>Medicine Hat South</place>
    <state>Alberta</state>
    <state_code>AB</state_code>
    <province>Medicine Hat </province>
    <province_code></province_code>
    <community></community>
    <community_code></community_code>
    <latitude>49.835</latitude>
    <longitude>-110.5203</longitude>
  </object>
  <object>
    <country_code>CA</country_code>
    <zipcode>T1C</zipcode>
    <place>Medicine Hat North</place>
    <state>Alberta</state>
    <state_code>AB</state_code>
    <province>Medicine Hat </province>
    <province_code></province_code>
    <community></community>
    <community_code></community_code>
    <latitude>50.0774</latitude>
    <longitude>-110.6911</longitude>
  </object>
  <object>
    <country_code>CA</country_code>
    <zipcode>T1G</zipcode>
    <place>Taber</place>
    <state>Alberta</state>
    <state_code>AB</state_code>
    <province></province>
    <province_code></province_code>
    <community></community>
    <community_code></community_code>
    <latitude>49.787</latitude>
    <longitude>-112.146</longitude>
  </object>
  <object>
    <country_code>CA</country_code>
    <zipcode>T1H</zipcode>
    <place>Lethbridge North</place>
    <state>Alberta</state>
    <state_code>AB</state_code>
    <province>Lethbridge</province>
    <province_code></province_code>
    <community></community>
    <community_code></community_code>
    <latitude>49.7</latitude>
    <longitude>-112.8186</longitude>
  </object>
  <object>
    <country_code>CA</country_code>
    <zipcode>T1J</zipcode>
    <place>Lethbridge West and Central</place>
    <state>Alberta</state>
    <state_code>AB</state_code>
    <province>Lethbridge</province>
    <province_code></province_code>
    <community></community>
    <community_code></community_code>
    <latitude>49.6581</latitude>
    <longitude>-112.7484</longitude>
  </object>
  <object>
    <country_code>CA</country_code>
    <zipcode>T1K</zipcode>
    <place>Lethbridge Southeast</place>
    <state>Alberta</state>
    <state_code>AB</state_code>
    <province>Lethbridge</province>
    <province_code></province_code>
    <community></community>
    <community_code></community_code>
    <latitude>49.6511</latitude>
    <longitude>-112.8351</longitude>
  </object>
  <object>
    <country_code>CA</country_code>
    <zipcode>T1L</zipcode>
    <place>Banff</place>
    <state>Alberta</state>
    <state_code>AB</state_code>
    <province></province>
    <province_code></province_code>
    <community></community>
    <community_code></community_code>
    <latitude>51.1762</latitude>
    <longitude>-115.5698</longitude>
  </object>
  <object>
    <country_code>CA</country_code>
    <zipcode>T1M</zipcode>
    <place>Coaldale</place>
    <state>Alberta</state>
    <state_code>AB</state_code>
    <province></province>
    <province_code></province_code>
    <community></community>
    <community_code></community_code>
    <latitude>49.7167</latitude>
    <longitude>-112.6185</longitude>
  </object>
  <object>
    <country_code>CA</country_code>
    <zipcode>T1P</zipcode>
    <place>Strathmore</place>
    <state>Alberta</state>
    <state_code>AB</state_code>
    <province></province>
    <province_code></province_code>
    <community></community>
    <community_code></community_code>
    <latitude>51.0501</latitude>
    <longitude>-113.3852</longitude>
  </object>
  <object>
    <country_code>CA</country_code>
    <zipcode>T1R</zipcode>
    <place>Brooks</place>
    <state>Alberta</state>
    <state_code>AB</state_code>
    <province></province>
    <province_code></province_code>
    <community></community>
    <community_code></community_code>
    <latitude>50.5834</latitude>
    <longitude>-111.8851</longitude>
  </object>
  <object>
    <country_code>CA</country_code>
    <zipcode>T1S</zipcode>
    <place>Okotoks</place>
    <state>Alberta</state>
    <state_code>AB</state_code>
    <province></province>
    <province_code></province_code>
    <community></community>
    <community_code></community_code>
    <latitude>50.7362</latitude>
    <longitude>-113.9695</longitude>
  </object>
  <object>
    <country_code>CA</country_code>
    <zipcode>T1V</zipcode>
    <place>High River</place>
    <state>Alberta</state>
    <state_code>AB</state_code>
    <province></province>
    <province_code></province_code>
    <community></community>
    <community_code></community_code>
    <latitude>50.5834</latitude>
    <longitude>-113.8687</longitude>
  </object>
  <object>
    <country_code>CA</country_code>
    <zipcode>T1W</zipcode>
    <place>Canmore</place>
    <state>Alberta</state>
    <state_code>AB</state_code>
    <province></province>
    <province_code></province_code>
    <community></community>
    <community_code></community_code>
    <latitude>51.0876</latitude>
    <longitude>-115.3461</longitude>
  </object>
  <object>
    <country_code>CA</country_code>
    <zipcode>T1X</zipcode>
    <place>Chestermere</place>
    <state>Alberta</state>
    <state_code>AB</state_code>
    <province></province>
    <province_code></province_code>
    <community></community>
    <community_code></community_code>
    <latitude>51.0334</latitude>
    <longitude>-113.8187</longitude>
  </object>
  <object>
    <country_code>CA</country_code>
    <zipcode>T1Y</zipcode>
    <place>Calgary (Rundle / Whitehorn / Monterey Park)</place>
    <state>Alberta</state>
    <state_code>AB</state_code>
    <province>Calgary</province>
    <province_code></province_code>
    <community></community>
    <community_code></community_code>
    <latitude>51.0823</latitude>
    <longitude>-113.9578</longitude>
  </object>
  <object>
    <country_code>CA</country_code>
    <zipcode>T1Z</zipcode>
    <place>Rocky View</place>
    <state>Alberta</state>
    <state_code>AB</state_code>
    <province></province>
    <province_code></province_code>
    <community></community>
    <community_code></community_code>
    <latitude>51.1834</latitude>
    <longitude>-113.9353</longitude>
  </object>
  <object>
    <country_code>CA</country_code>
    <zipcode>T2A</zipcode>
    <place>Calgary (Penbrooke Meadows / Marlborough)</place>
    <state>Alberta</state>
    <state_code>AB</state_code>
    <province>Calgary</province>
    <province_code></province_code>
    <community></community>
    <community_code></community_code>
    <latitude>51.0494</latitude>
    <longitude>-113.9564</longitude>
  </object>
  <object>
    <country_code>CA</country_code>
    <zipcode>T2B</zipcode>
    <place>Calgary (Forest Lawn / Dover / Erin Woods)</place>
    <state>Alberta</state>
    <state_code>AB</state_code>
    <province>Calgary</province>
    <province_code></province_code>
    <community></community>
    <community_code></community_code>
    <latitude>51.0209</latitude>
    <longitude>-113.981</longitude>
  </object>
  <object>
    <country_code>CA</country_code>
    <zipcode>T2C</zipcode>
    <place>Calgary (Lynnwood Ridge / Ogden / Foothills Industrial / Great Plains)</place>
    <state>Alberta</state>
    <state_code>AB</state_code>
    <province>Calgary</province>
    <province_code></province_code>
    <community></community>
    <community_code></community_code>
    <latitude>50.987</latitude>
    <longitude>-113.9634</longitude>
  </object>
  <object>
    <country_code>CA</country_code>
    <zipcode>T2E</zipcode>
    <place>Calgary (Bridgeland / Greenview / Zoo / YYC)</place>
    <state>Alberta</state>
    <state_code>AB</state_code>
    <province>Calgary</province>
    <province_code></province_code>
    <community></community>
    <community_code></community_code>
    <latitude>51.0876</latitude>
    <longitude>-114.0214</longitude>
  </object>
  <object>
    <country_code>CA</country_code>
    <zipcode>T2G</zipcode>
    <place>Calgary (Inglewood / Burnsland / Chinatown / East Victoria Park / Saddledome)</place>
    <state>Alberta</state>
    <state_code>AB</state_code>
    <province>Calgary</province>
    <province_code></province_code>
    <community></community>
    <community_code></community_code>
    <latitude>51.0272</latitude>
    <longitude>-114.0349</longitude>
  </object>
  <object>
    <country_code>CA</country_code>
    <zipcode>T2H</zipcode>
    <place>Calgary (Highfield / Burns Industrial)</place>
    <state>Alberta</state>
    <state_code>AB</state_code>
    <province>Calgary</province>
    <province_code></province_code>
    <community></community>
    <community_code></community_code>
    <latitude>50.9894</latitude>
    <longitude>-114.052</longitude>
  </object>
  <object>
    <country_code>CA</country_code>
    <zipcode>T2J</zipcode>
    <place>Calgary (Queensland Downs / Lake Bonavista / Willow Park / Acadia)</place>
    <state>Alberta</state>
    <state_code>AB</state_code>
    <province>Calgary</province>
    <province_code></province_code>
    <community></community>
    <community_code></community_code>
    <latitude>50.8476</latitude>
    <longitude>-114.1958</longitude>
  </object>
  <object>
    <country_code>CA</country_code>
    <zipcode>T2K</zipcode>
    <place>Calgary (Thornecliffe / Tuxedo)</place>
    <state>Alberta</state>
    <state_code>AB</state_code>
    <province>Calgary</province>
    <province_code></province_code>
    <community></community>
    <community_code></community_code>
    <latitude>51.1111</latitude>
    <longitude>-114.0477</longitude>
  </object>
  <object>
    <country_code>CA</country_code>
    <zipcode>T2L</zipcode>
    <place>Calgary (Brentwood / Collingwood / Nose Hill)</place>
    <state>Alberta</state>
    <state_code>AB</state_code>
    <province>Calgary</province>
    <province_code></province_code>
    <community></community>
    <community_code></community_code>
    <latitude>51.1047</latitude>
    <longitude>-114.1148</longitude>
  </object>
  <object>
    <country_code>CA</country_code>
    <zipcode>T2M</zipcode>
    <place>Calgary (Mount Pleasant / Capitol Hill / Banff Trail)</place>
    <state>Alberta</state>
    <state_code>AB</state_code>
    <province>Calgary</province>
    <province_code></province_code>
    <community></community>
    <community_code></community_code>
    <latitude>51.133</latitude>
    <longitude>-113.856</longitude>
  </object>
  <object>
    <country_code>CA</country_code>
    <zipcode>T2N</zipcode>
    <place>Calgary (Kensington / Westmont / Parkdale / University)</place>
    <state>Alberta</state>
    <state_code>AB</state_code>
    <province>Calgary</province>
    <province_code></province_code>
    <community></community>
    <community_code></community_code>
    <latitude>51.0621</latitude>
    <longitude>-114.1159</longitude>
  </object>
  <object>
    <country_code>CA</country_code>
    <zipcode>T2P</zipcode>
    <place>Calgary (City Centre / Calgary Tower)</place>
    <state>Alberta</state>
    <state_code>AB</state_code>
    <province>Calgary</province>
    <province_code></province_code>
    <community></community>
    <community_code></community_code>
    <latitude>51.0708</latitude>
    <longitude>-113.6931</longitude>
  </object>
  <object>
    <country_code>CA</country_code>
    <zipcode>T2R</zipcode>
    <place>Calgary (Connaught / West Victoria Park)</place>
    <state>Alberta</state>
    <state_code>AB</state_code>
    <province>Calgary</province>
    <province_code></province_code>
    <community></community>
    <community_code></community_code>
    <latitude>51.0412</latitude>
    <longitude>-114.0762</longitude>
  </object>
  <object>
    <country_code>CA</country_code>
    <zipcode>T2S</zipcode>
    <place>Calgary (Elbow Park / Britannia / Parkhill / Mission)</place>
    <state>Alberta</state>
    <state_code>AB</state_code>
    <province>Calgary</province>
    <province_code></province_code>
    <community></community>
    <community_code></community_code>
    <latitude>51.0233</latitude>
    <longitude>-114.071</longitude>
  </object>
  <object>
    <country_code>CA</country_code>
    <zipcode>T2T</zipcode>
    <place>Calgary South (Altadore / Bankview / Richmond)</place>
    <state>Alberta</state>
    <state_code>AB</state_code>
    <province>Calgary</province>
    <province_code></province_code>
    <community></community>
    <community_code></community_code>
    <latitude>51.0242</latitude>
    <longitude>-114.1004</longitude>
  </object>
  <object>
    <country_code>CA</country_code>
    <zipcode>T2V</zipcode>
    <place>Calgary (Oak Ridge / Haysboro / Kingsland / Windsor Park)</place>
    <state>Alberta</state>
    <state_code>AB</state_code>
    <province>Calgary</province>
    <province_code></province_code>
    <community></community>
    <community_code></community_code>
    <latitude>50.9819</latitude>
    <longitude>-114.1004</longitude>
  </object>
  <object>
    <country_code>CA</country_code>
    <zipcode>T2W</zipcode>
    <place>Calgary (Braeside / Woodbine)</place>
    <state>Alberta</state>
    <state_code>AB</state_code>
    <province>Calgary</province>
    <province_code></province_code>
    <community></community>
    <community_code></community_code>
    <latitude>50.9514</latitude>
    <longitude>-114.3591</longitude>
  </object>
  <object>
    <country_code>CA</country_code>
    <zipcode>T2X</zipcode>
    <place>Calgary (Midnapore / Sundance)</place>
    <state>Alberta</state>
    <state_code>AB</state_code>
    <province>Calgary</province>
    <province_code></province_code>
    <community></community>
    <community_code></community_code>
    <latitude>50.8837</latitude>
    <longitude>-114.0326</longitude>
  </object>
  <object>
    <country_code>CA</country_code>
    <zipcode>T2Y</zipcode>
    <place>Calgary (Millrise / Somerset / Bridlewood / Evergreen)</place>
    <state>Alberta</state>
    <state_code>AB</state_code>
    <province>Calgary</province>
    <province_code></province_code>
    <community></community>
    <community_code></community_code>
    <latitude>50.9093</latitude>
    <longitude>-114.1028</longitude>
  </object>
  <object>
    <country_code>CA</country_code>
    <zipcode>T2Z</zipcode>
    <place>Calgary (Douglas Glen / McKenzie Lake / Copperfield / East Shepard)</place>
    <state>Alberta</state>
    <state_code>AB</state_code>
    <province>Calgary</province>
    <province_code></province_code>
    <community></community>
    <community_code></community_code>
    <latitude>50.9278</latitude>
    <longitude>-113.9682</longitude>
  </object>
  <object>
    <country_code>CA</country_code>
    <zipcode>T3A</zipcode>
    <place>Calgary (Dalhousie / Edgemont / Hamptons / Hidden Valley)</place>
    <state>Alberta</state>
    <state_code>AB</state_code>
    <province>Calgary</province>
    <province_code></province_code>
    <community></community>
    <community_code></community_code>
    <latitude>51.1264</latitude>
    <longitude>-114.1419</longitude>
  </object>
  <object>
    <country_code>CA</country_code>
    <zipcode>T3B</zipcode>
    <place>Calgary (Montgomery / Bowness / Silver Springs / Greenwood)</place>
    <state>Alberta</state>
    <state_code>AB</state_code>
    <province>Calgary</province>
    <province_code></province_code>
    <community></community>
    <community_code></community_code>
    <latitude>51.0915</latitude>
    <longitude>-114.2073</longitude>
  </object>
  <object>
    <country_code>CA</country_code>
    <zipcode>T3C</zipcode>
    <place>Calgary (Rosscarrock / Wildwood / Shaganappi / Sunalta)</place>
    <state>Alberta</state>
    <state_code>AB</state_code>
    <province>Calgary</province>
    <province_code></province_code>
    <community></community>
    <community_code></community_code>
    <latitude>51.0497</latitude>
    <longitude>-114.1394</longitude>
  </object>
  <object>
    <country_code>CA</country_code>
    <zipcode>T3E</zipcode>
    <place>Calgary (Lakeview / Glendale / Killarney / Glamorgan)</place>
    <state>Alberta</state>
    <state_code>AB</state_code>
    <province>Calgary</province>
    <province_code></province_code>
    <community></community>
    <community_code></community_code>
    <latitude>50.9899</latitude>
    <longitude>-114.1574</longitude>
  </object>
  <object>
    <country_code>CA</country_code>
    <zipcode>T3G</zipcode>
    <place>Calgary (Hawkwood / Arbour Lake / Royal Oak / Rocky Ridge)</place>
    <state>Alberta</state>
    <state_code>AB</state_code>
    <province>Calgary</province>
    <province_code></province_code>
    <community></community>
    <community_code></community_code>
    <latitude>51.1387</latitude>
    <longitude>-114.2015</longitude>
  </object>
  <object>
    <country_code>CA</country_code>
    <zipcode>T3H</zipcode>
    <place>Calgary (Discovery Ridge / Signal Hill / Aspen Woods / Patterson / Cougar Ridge)</place>
    <state>Alberta</state>
    <state_code>AB</state_code>
    <province>Calgary</province>
    <province_code></province_code>
    <community></community>
    <community_code></community_code>
    <latitude>51.0419</latitude>
    <longitude>-114.2</longitude>
  </object>
  <object>
    <country_code>CA</country_code>
    <zipcode>T3J</zipcode>
    <place>Calgary (Martindale / Taradale / Falconridge / Saddle Ridge)</place>
    <state>Alberta</state>
    <state_code>AB</state_code>
    <province>Calgary</province>
    <province_code></province_code>
    <community></community>
    <community_code></community_code>
    <latitude>51.1188</latitude>
    <longitude>-113.9471</longitude>
  </object>
  <object>
    <country_code>CA</country_code>
    <zipcode>T3K</zipcode>
    <place>Calgary (Sandstone / Harvest Hills / Coventry Hills / Panorama Hills / Beddington)</place>
    <state>Alberta</state>
    <state_code>AB</state_code>
    <province>Calgary</province>
    <province_code></province_code>
    <community></community>
    <community_code></community_code>
    <latitude>51.1563</latitude>
    <longitude>-114.0572</longitude>
  </object>
  <object>
    <country_code>CA</country_code>
    <zipcode>T3L</zipcode>
    <place>Calgary (Tuscany / Scenic Acres)</place>
    <state>Alberta</state>
    <state_code>AB</state_code>
    <province>Calgary</province>
    <province_code></province_code>
    <community></community>
    <community_code></community_code>
    <latitude>51.1467</latitude>
    <longitude>-114.3133</longitude>
  </object>
  <object>
    <country_code>CA</country_code>
    <zipcode>T3M</zipcode>
    <place>Calgary (Cranston)</place>
    <state>Alberta</state>
    <state_code>AB</state_code>
    <province>Calgary</province>
    <province_code></province_code>
    <community></community>
    <community_code></community_code>
    <latitude>50.8796</latitude>
    <longitude>-113.9555</longitude>
  </object>
  <object>
    <country_code>CA</country_code>
    <zipcode>T3N</zipcode>
    <place>Calgary Northeast</place>
    <state>Alberta</state>
    <state_code>AB</state_code>
    <province>Calgary</province>
    <province_code></province_code>
    <community></community>
    <community_code></community_code>
    <latitude>51.1626</latitude>
    <longitude>-113.9537</longitude>
  </object>
  <object>
    <country_code>CA</country_code>
    <zipcode>T3P</zipcode>
    <place>Calgary (Symons Valley)</place>
    <state>Alberta</state>
    <state_code>AB</state_code>
    <province>Calgary</province>
    <province_code></province_code>
    <community></community>
    <community_code></community_code>
    <latitude>51.2074</latitude>
    <longitude>-114.1348</longitude>
  </object>
  <object>
    <country_code>CA</country_code>
    <zipcode>T3R</zipcode>
    <place>Calgary Northwest</place>
    <state>Alberta</state>
    <state_code>AB</state_code>
    <province>Calgary</province>
    <province_code></province_code>
    <community></community>
    <community_code></community_code>
    <latitude>51.2021</latitude>
    <longitude>-114.2453</longitude>
  </object>
  <object>
    <country_code>CA</country_code>
    <zipcode>T3S</zipcode>
    <place>Calgary</place>
    <state>Alberta</state>
    <state_code>AB</state_code>
    <province>Calgary</province>
    <province_code></province_code>
    <community></community>
    <community_code></community_code>
    <latitude>50.9153</latitude>
    <longitude>-113.8932</longitude>
  </object>
  <object>
    <country_code>CA</country_code>
    <zipcode>T3Z</zipcode>
    <place>Redwood Meadows</place>
    <state>Alberta</state>
    <state_code>AB</state_code>
    <province></province>
    <province_code></province_code>
    <community></community>
    <community_code></community_code>
    <latitude>51.0691</latitude>
    <longitude>-114.4727</longitude>
  </object>
  <object>
    <country_code>CA</country_code>
    <zipcode>T4A</zipcode>
    <place>Airdrie East</place>
    <state>Alberta</state>
    <state_code>AB</state_code>
    <province>Airdrie</province>
    <province_code></province_code>
    <community></community>
    <community_code></community_code>
    <latitude>51.2799</latitude>
    <longitude>-113.988</longitude>
  </object>
  <object>
    <country_code>CA</country_code>
    <zipcode>T4B</zipcode>
    <place>Airdrie West</place>
    <state>Alberta</state>
    <state_code>AB</state_code>
    <province>Airdrie</province>
    <province_code></province_code>
    <community></community>
    <community_code></community_code>
    <latitude>51.3082</latitude>
    <longitude>-114.0398</longitude>
  </object>
  <object>
    <country_code>CA</country_code>
    <zipcode>T4C</zipcode>
    <place>Cochrane</place>
    <state>Alberta</state>
    <state_code>AB</state_code>
    <province></province>
    <province_code></province_code>
    <community></community>
    <community_code></community_code>
    <latitude>51.1834</latitude>
    <longitude>-114.4687</longitude>
  </object>
  <object>
    <country_code>CA</country_code>
    <zipcode>T4E</zipcode>
    <place>Red Deer County</place>
    <state>Alberta</state>
    <state_code>AB</state_code>
    <province>Red Deer </province>
    <province_code></province_code>
    <community></community>
    <community_code></community_code>
    <latitude>52.2765</latitude>
    <longitude>-113.7063</longitude>
  </object>
  <object>
    <country_code>CA</country_code>
    <zipcode>T4G</zipcode>
    <place>Innisfail</place>
    <state>Alberta</state>
    <state_code>AB</state_code>
    <province></province>
    <province_code></province_code>
    <community></community>
    <community_code></community_code>
    <latitude>52.0269</latitude>
    <longitude>-113.9507</longitude>
  </object>
  <object>
    <country_code>CA</country_code>
    <zipcode>T4H</zipcode>
    <place>Olds</place>
    <state>Alberta</state>
    <state_code>AB</state_code>
    <province></province>
    <province_code></province_code>
    <community></community>
    <community_code></community_code>
    <latitude>51.7834</latitude>
    <longitude>-114.102</longitude>
  </object>
  <object>
    <country_code>CA</country_code>
    <zipcode>T4J</zipcode>
    <place>Ponoka</place>
    <state>Alberta</state>
    <state_code>AB</state_code>
    <province></province>
    <province_code></province_code>
    <community></community>
    <community_code></community_code>
    <latitude>52.6768</latitude>
    <longitude>-113.5815</longitude>
  </object>
  <object>
    <country_code>CA</country_code>
    <zipcode>T4L</zipcode>
    <place>Lacombe</place>
    <state>Alberta</state>
    <state_code>AB</state_code>
    <province></province>
    <province_code></province_code>
    <community></community>
    <community_code></community_code>
    <latitude>52.4668</latitude>
    <longitude>-113.7353</longitude>
  </object>
  <object>
    <country_code>CA</country_code>
    <zipcode>T4M</zipcode>
    <place>Blackfalds</place>
    <state>Alberta</state>
    <state_code>AB</state_code>
    <province></province>
    <province_code></province_code>
    <community></community>
    <community_code></community_code>
    <latitude>52.3834</latitude>
    <longitude>-113.7853</longitude>
  </object>
  <object>
    <country_code>CA</country_code>
    <zipcode>T4N</zipcode>
    <place>Red Deer Central</place>
    <state>Alberta</state>
    <state_code>AB</state_code>
    <province>Red Deer </province>
    <province_code></province_code>
    <community></community>
    <community_code></community_code>
    <latitude>52.2316</latitude>
    <longitude>-113.8358</longitude>
  </object>
  <object>
    <country_code>CA</country_code>
    <zipcode>T4P</zipcode>
    <place>Red Deer North</place>
    <state>Alberta</state>
    <state_code>AB</state_code>
    <province>Red Deer </province>
    <province_code></province_code>
    <community></community>
    <community_code></community_code>
    <latitude>52.2954</latitude>
    <longitude>-113.8073</longitude>
  </object>
  <object>
    <country_code>CA</country_code>
    <zipcode>T4R</zipcode>
    <place>Red Deer South</place>
    <state>Alberta</state>
    <state_code>AB</state_code>
    <province>Red Deer </province>
    <province_code></province_code>
    <community></community>
    <community_code></community_code>
    <latitude>52.2424</latitude>
    <longitude>-113.7784</longitude>
  </object>
  <object>
    <country_code>CA</country_code>
    <zipcode>T4S</zipcode>
    <place>Sylvan Lake</place>
    <state>Alberta</state>
    <state_code>AB</state_code>
    <province></province>
    <province_code></province_code>
    <community></community>
    <community_code></community_code>
    <latitude>52.3168</latitude>
    <longitude>-114.0853</longitude>
  </object>
  <object>
    <country_code>CA</country_code>
    <zipcode>T4T</zipcode>
    <place>Rocky Mountain House</place>
    <state>Alberta</state>
    <state_code>AB</state_code>
    <province></province>
    <province_code></province_code>
    <community></community>
    <community_code></community_code>
    <latitude>52.3668</latitude>
    <longitude>-114.9188</longitude>
  </object>
  <object>
    <country_code>CA</country_code>
    <zipcode>T4V</zipcode>
    <place>Camrose</place>
    <state>Alberta</state>
    <state_code>AB</state_code>
    <province></province>
    <province_code></province_code>
    <community></community>
    <community_code></community_code>
    <latitude>53.0168</latitude>
    <longitude>-112.8353</longitude>
  </object>
  <object>
    <country_code>CA</country_code>
    <zipcode>T4X</zipcode>
    <place>Beaumont</place>
    <state>Alberta</state>
    <state_code>AB</state_code>
    <province></province>
    <province_code></province_code>
    <community></community>
    <community_code></community_code>
    <latitude>53.3501</latitude>
    <longitude>-113.4187</longitude>
  </object>
  <object>
    <country_code>CA</country_code>
    <zipcode>T5A</zipcode>
    <place>Edmonton (West Clareview / East Londonderry)</place>
    <state>Alberta</state>
    <state_code>AB</state_code>
    <province>Edmonton</province>
    <province_code></province_code>
    <community></community>
    <community_code></community_code>
    <latitude>53.5931</latitude>
    <longitude>-113.4077</longitude>
  </object>
  <object>
    <country_code>CA</country_code>
    <zipcode>T5B</zipcode>
    <place>Edmonton (East North Central / West Beverly)</place>
    <state>Alberta</state>
    <state_code>AB</state_code>
    <province>Edmonton</province>
    <province_code></province_code>
    <community></community>
    <community_code></community_code>
    <latitude>53.7353</latitude>
    <longitude>-113.3369</longitude>
  </object>
  <object>
    <country_code>CA</country_code>
    <zipcode>T5C</zipcode>
    <place>Edmonton (Central Londonderry)</place>
    <state>Alberta</state>
    <state_code>AB</state_code>
    <province>Edmonton</province>
    <province_code></province_code>
    <community></community>
    <community_code></community_code>
    <latitude>53.5996</latitude>
    <longitude>-113.4549</longitude>
  </object>
  <object>
    <country_code>CA</country_code>
    <zipcode>T5E</zipcode>
    <place>Edmonton (West Londonderry / East Calder)</place>
    <state>Alberta</state>
    <state_code>AB</state_code>
    <province>Edmonton</province>
    <province_code></province_code>
    <community></community>
    <community_code></community_code>
    <latitude>53.7454</latitude>
    <longitude>-113.4465</longitude>
  </object>
  <object>
    <country_code>CA</country_code>
    <zipcode>T5G</zipcode>
    <place>Edmonton (North Central / Queen Mary Park / YXD)</place>
    <state>Alberta</state>
    <state_code>AB</state_code>
    <province>Edmonton</province>
    <province_code></province_code>
    <community></community>
    <community_code></community_code>
    <latitude>53.5705</latitude>
    <longitude>-113.5051</longitude>
  </object>
  <object>
    <country_code>CA</country_code>
    <zipcode>T5H</zipcode>
    <place>Edmonton (North and East Downtown Fringe)</place>
    <state>Alberta</state>
    <state_code>AB</state_code>
    <province>Edmonton</province>
    <province_code></province_code>
    <community></community>
    <community_code></community_code>
    <latitude>53.5514</latitude>
    <longitude>-113.4916</longitude>
  </object>
  <object>
    <country_code>CA</country_code>
    <zipcode>T5J</zipcode>
    <place>Edmonton (North Downtown)</place>
    <state>Alberta</state>
    <state_code>AB</state_code>
    <province>Edmonton</province>
    <province_code></province_code>
    <community></community>
    <community_code></community_code>
    <latitude>53.5428</latitude>
    <longitude>-113.4974</longitude>
  </object>
  <object>
    <country_code>CA</country_code>
    <zipcode>T5K</zipcode>
    <place>Edmonton (South Downtown / South Downtown Fringe)</place>
    <state>Alberta</state>
    <state_code>AB</state_code>
    <province>Edmonton</province>
    <province_code></province_code>
    <community></community>
    <community_code></community_code>
    <latitude>53.5366</latitude>
    <longitude>-113.5103</longitude>
  </object>
  <object>
    <country_code>CA</country_code>
    <zipcode>T5L</zipcode>
    <place>Edmonton (North Westmount / West Calder / East Mistatim)</place>
    <state>Alberta</state>
    <state_code>AB</state_code>
    <province>Edmonton</province>
    <province_code></province_code>
    <community></community>
    <community_code></community_code>
    <latitude>53.585</latitude>
    <longitude>-113.5526</longitude>
  </object>
  <object>
    <country_code>CA</country_code>
    <zipcode>T5M</zipcode>
    <place>Edmonton (South Westmount / Groat Estate / East Northwest Industrial)</place>
    <state>Alberta</state>
    <state_code>AB</state_code>
    <province>Edmonton</province>
    <province_code></province_code>
    <community></community>
    <community_code></community_code>
    <latitude>53.563</latitude>
    <longitude>-113.5662</longitude>
  </object>
  <object>
    <country_code>CA</country_code>
    <zipcode>T5N</zipcode>
    <place>Edmonton (Glenora / SW Downtown Fringe)</place>
    <state>Alberta</state>
    <state_code>AB</state_code>
    <province>Edmonton</province>
    <province_code></province_code>
    <community></community>
    <community_code></community_code>
    <latitude>53.5436</latitude>
    <longitude>-113.5574</longitude>
  </object>
  <object>
    <country_code>CA</country_code>
    <zipcode>T5P</zipcode>
    <place>Edmonton (North Jasper Place)</place>
    <state>Alberta</state>
    <state_code>AB</state_code>
    <province>Edmonton</province>
    <province_code></province_code>
    <community></community>
    <community_code></community_code>
    <latitude>53.5463</latitude>
    <longitude>-113.5957</longitude>
  </object>
  <object>
    <country_code>CA</country_code>
    <zipcode>T5R</zipcode>
    <place>Edmonton (Central Jasper Place / Buena Vista)</place>
    <state>Alberta</state>
    <state_code>AB</state_code>
    <province>Edmonton</province>
    <province_code></province_code>
    <community></community>
    <community_code></community_code>
    <latitude>53.5181</latitude>
    <longitude>-113.5797</longitude>
  </object>
  <object>
    <country_code>CA</country_code>
    <zipcode>T5S</zipcode>
    <place>Edmonton (West Northwest Industrial / Winterburn)</place>
    <state>Alberta</state>
    <state_code>AB</state_code>
    <province>Edmonton</province>
    <province_code></province_code>
    <community></community>
    <community_code></community_code>
    <latitude>53.5634</latitude>
    <longitude>-113.6697</longitude>
  </object>
  <object>
    <country_code>CA</country_code>
    <zipcode>T5T</zipcode>
    <place>Edmonton West (West Jasper Place / West Edmonton Mall)</place>
    <state>Alberta</state>
    <state_code>AB</state_code>
    <province>Edmonton</province>
    <province_code></province_code>
    <community></community>
    <community_code></community_code>
    <latitude>53.5185</latitude>
    <longitude>-113.6579</longitude>
  </object>
  <object>
    <country_code>CA</country_code>
    <zipcode>T5V</zipcode>
    <place>Edmonton (Central Mistatim)</place>
    <state>Alberta</state>
    <state_code>AB</state_code>
    <province>Edmonton</province>
    <province_code></province_code>
    <community></community>
    <community_code></community_code>
    <latitude>53.5848</latitude>
    <longitude>-113.6224</longitude>
  </object>
  <object>
    <country_code>CA</country_code>
    <zipcode>T5W</zipcode>
    <place>Edmonton (Central Beverly)</place>
    <state>Alberta</state>
    <state_code>AB</state_code>
    <province>Edmonton</province>
    <province_code></province_code>
    <community></community>
    <community_code></community_code>
    <latitude>53.5645</latitude>
    <longitude>-113.4022</longitude>
  </object>
  <object>
    <country_code>CA</country_code>
    <zipcode>T5X</zipcode>
    <place>Edmonton (East Castledowns)</place>
    <state>Alberta</state>
    <state_code>AB</state_code>
    <province>Edmonton</province>
    <province_code></province_code>
    <community></community>
    <community_code></community_code>
    <latitude>53.6313</latitude>
    <longitude>-113.5245</longitude>
  </object>
  <object>
    <country_code>CA</country_code>
    <zipcode>T5Y</zipcode>
    <place>Edmonton (Landbank / Oliver / East Lake District)</place>
    <state>Alberta</state>
    <state_code>AB</state_code>
    <province>Edmonton</province>
    <province_code></province_code>
    <community></community>
    <community_code></community_code>
    <latitude>53.6585</latitude>
    <longitude>-113.3614</longitude>
  </object>
  <object>
    <country_code>CA</country_code>
    <zipcode>T5Z</zipcode>
    <place>Edmonton (West Lake District)</place>
    <state>Alberta</state>
    <state_code>AB</state_code>
    <province>Edmonton</province>
    <province_code></province_code>
    <community></community>
    <community_code></community_code>
    <latitude>53.6365</latitude>
    <longitude>-113.4673</longitude>
  </object>
  <object>
    <country_code>CA</country_code>
    <zipcode>T6A</zipcode>
    <place>Edmonton (North Capilano)</place>
    <state>Alberta</state>
    <state_code>AB</state_code>
    <province>Edmonton</province>
    <province_code></province_code>
    <community></community>
    <community_code></community_code>
    <latitude>53.5482</latitude>
    <longitude>-113.4318</longitude>
  </object>
  <object>
    <country_code>CA</country_code>
    <zipcode>T6B</zipcode>
    <place>Edmonton (SE Capilano / West Southeast Industrial / East Bonnie Doon)</place>
    <state>Alberta</state>
    <state_code>AB</state_code>
    <province>Edmonton</province>
    <province_code></province_code>
    <community></community>
    <community_code></community_code>
    <latitude>53.5128</latitude>
    <longitude>-113.4194</longitude>
  </object>
  <object>
    <country_code>CA</country_code>
    <zipcode>T6C</zipcode>
    <place>Edmonton (Central Bonnie Doon)</place>
    <state>Alberta</state>
    <state_code>AB</state_code>
    <province>Edmonton</province>
    <province_code></province_code>
    <community></community>
    <community_code></community_code>
    <latitude>53.522</latitude>
    <longitude>-113.459</longitude>
  </object>
  <object>
    <country_code>CA</country_code>
    <zipcode>T6E</zipcode>
    <place>Edmonton (South Bonnie Doon / East University)</place>
    <state>Alberta</state>
    <state_code>AB</state_code>
    <province>Edmonton</province>
    <province_code></province_code>
    <community></community>
    <community_code></community_code>
    <latitude>53.4914</latitude>
    <longitude>-113.4802</longitude>
  </object>
  <object>
    <country_code>CA</country_code>
    <zipcode>T6G</zipcode>
    <place>Edmonton (West University / Strathcona Place)</place>
    <state>Alberta</state>
    <state_code>AB</state_code>
    <province>Edmonton</province>
    <province_code></province_code>
    <community></community>
    <community_code></community_code>
    <latitude>53.521</latitude>
    <longitude>-113.5324</longitude>
  </object>
  <object>
    <country_code>CA</country_code>
    <zipcode>T6H</zipcode>
    <place>Edmonton (Southgate / North Riverbend)</place>
    <state>Alberta</state>
    <state_code>AB</state_code>
    <province>Edmonton</province>
    <province_code></province_code>
    <community></community>
    <community_code></community_code>
    <latitude>53.3753</latitude>
    <longitude>-113.4585</longitude>
  </object>
  <object>
    <country_code>CA</country_code>
    <zipcode>T6J</zipcode>
    <place>Edmonton (Kaskitayo)</place>
    <state>Alberta</state>
    <state_code>AB</state_code>
    <province>Edmonton</province>
    <province_code></province_code>
    <community></community>
    <community_code></community_code>
    <latitude>53.4564</latitude>
    <longitude>-113.521</longitude>
  </object>
  <object>
    <country_code>CA</country_code>
    <zipcode>T6K</zipcode>
    <place>Edmonton (West Mill Woods)</place>
    <state>Alberta</state>
    <state_code>AB</state_code>
    <province>Edmonton</province>
    <province_code></province_code>
    <community></community>
    <community_code></community_code>
    <latitude>53.4609</latitude>
    <longitude>-113.4519</longitude>
  </object>
  <object>
    <country_code>CA</country_code>
    <zipcode>T6L</zipcode>
    <place>Edmonton (East Mill Woods)</place>
    <state>Alberta</state>
    <state_code>AB</state_code>
    <province>Edmonton</province>
    <province_code></province_code>
    <community></community>
    <community_code></community_code>
    <latitude>53.4593</latitude>
    <longitude>-113.4145</longitude>
  </object>
  <object>
    <country_code>CA</country_code>
    <zipcode>T6M</zipcode>
    <place>Edmonton Southwest</place>
    <state>Alberta</state>
    <state_code>AB</state_code>
    <province>Edmonton</province>
    <province_code></province_code>
    <community></community>
    <community_code></community_code>
    <latitude>53.4593</latitude>
    <longitude>-113.6546</longitude>
  </object>
  <object>
    <country_code>CA</country_code>
    <zipcode>T6N</zipcode>
    <place>Edmonton (South Industrial)</place>
    <state>Alberta</state>
    <state_code>AB</state_code>
    <province>Edmonton</province>
    <province_code></province_code>
    <community></community>
    <community_code></community_code>
    <latitude>53.465</latitude>
    <longitude>-113.4776</longitude>
  </object>
  <object>
    <country_code>CA</country_code>
    <zipcode>T6P</zipcode>
    <place>Edmonton (East Southeast Industrial / South Clover Bar)</place>
    <state>Alberta</state>
    <state_code>AB</state_code>
    <province>Edmonton</province>
    <province_code></province_code>
    <community></community>
    <community_code></community_code>
    <latitude>53.5078</latitude>
    <longitude>-113.3723</longitude>
  </object>
  <object>
    <country_code>CA</country_code>
    <zipcode>T6R</zipcode>
    <place>Edmonton (Riverbend)</place>
    <state>Alberta</state>
    <state_code>AB</state_code>
    <province>Edmonton</province>
    <province_code></province_code>
    <community></community>
    <community_code></community_code>
    <latitude>53.4567</latitude>
    <longitude>-113.5801</longitude>
  </object>
  <object>
    <country_code>CA</country_code>
    <zipcode>T6S</zipcode>
    <place>Edmonton (North Clover Bar)</place>
    <state>Alberta</state>
    <state_code>AB</state_code>
    <province>Edmonton</province>
    <province_code></province_code>
    <community></community>
    <community_code></community_code>
    <latitude>53.5806</latitude>
    <longitude>-113.3374</longitude>
  </object>
  <object>
    <country_code>CA</country_code>
    <zipcode>T6T</zipcode>
    <place>Edmonton (Meadows)</place>
    <state>Alberta</state>
    <state_code>AB</state_code>
    <province>Edmonton</province>
    <province_code></province_code>
    <community></community>
    <community_code></community_code>
    <latitude>53.4617</latitude>
    <longitude>-113.371</longitude>
  </object>
  <object>
    <country_code>CA</country_code>
    <zipcode>T6V</zipcode>
    <place>Edmonton (West Castledowns)</place>
    <state>Alberta</state>
    <state_code>AB</state_code>
    <province>Edmonton</province>
    <province_code></province_code>
    <community></community>
    <community_code></community_code>
    <latitude>53.6112</latitude>
    <longitude>-113.5746</longitude>
  </object>
  <object>
    <country_code>CA</country_code>
    <zipcode>T6W</zipcode>
    <place>Edmonton (Heritage Valley)</place>
    <state>Alberta</state>
    <state_code>AB</state_code>
    <province>Edmonton</province>
    <province_code></province_code>
    <community></community>
    <community_code></community_code>
    <latitude>53.4179</latitude>
    <longitude>-113.5785</longitude>
  </object>
  <object>
    <country_code>CA</country_code>
    <zipcode>T6X</zipcode>
    <place>Edmonton (Ellerslie)</place>
    <state>Alberta</state>
    <state_code>AB</state_code>
    <province>Edmonton</province>
    <province_code></province_code>
    <community></community>
    <community_code></community_code>
    <latitude>53.4154</latitude>
    <longitude>-113.4178</longitude>
  </object>
  <object>
    <country_code>CA</country_code>
    <zipcode>T7A</zipcode>
    <place>Drayton Valley</place>
    <state>Alberta</state>
    <state_code>AB</state_code>
    <province></province>
    <province_code></province_code>
    <community></community>
    <community_code></community_code>
    <latitude>53.2168</latitude>
    <longitude>-114.9854</longitude>
  </object>
  <object>
    <country_code>CA</country_code>
    <zipcode>T7E</zipcode>
    <place>Edson</place>
    <state>Alberta</state>
    <state_code>AB</state_code>
    <province></province>
    <province_code></province_code>
    <community></community>
    <community_code></community_code>
    <latitude>53.5834</latitude>
    <longitude>-116.4356</longitude>
  </object>
  <object>
    <country_code>CA</country_code>
    <zipcode>T7N</zipcode>
    <place>Barrhead</place>
    <state>Alberta</state>
    <state_code>AB</state_code>
    <province></province>
    <province_code></province_code>
    <community></community>
    <community_code></community_code>
    <latitude>54.1334</latitude>
    <longitude>-114.4021</longitude>
  </object>
  <object>
    <country_code>CA</country_code>
    <zipcode>T7P</zipcode>
    <place>Westlock</place>
    <state>Alberta</state>
    <state_code>AB</state_code>
    <province></province>
    <province_code></province_code>
    <community></community>
    <community_code></community_code>
    <latitude>54.1502</latitude>
    <longitude>-113.8688</longitude>
  </object>
  <object>
    <country_code>CA</country_code>
    <zipcode>T7S</zipcode>
    <place>Whitecourt</place>
    <state>Alberta</state>
    <state_code>AB</state_code>
    <province></province>
    <province_code></province_code>
    <community></community>
    <community_code></community_code>
    <latitude>54.1501</latitude>
    <longitude>-115.6855</longitude>
  </object>
  <object>
    <country_code>CA</country_code>
    <zipcode>T7V</zipcode>
    <place>Hinton</place>
    <state>Alberta</state>
    <state_code>AB</state_code>
    <province></province>
    <province_code></province_code>
    <community></community>
    <community_code></community_code>
    <latitude>53.4001</latitude>
    <longitude>-117.5857</longitude>
  </object>
  <object>
    <country_code>CA</country_code>
    <zipcode>T7X</zipcode>
    <place>Spruce Grove North</place>
    <state>Alberta</state>
    <state_code>AB</state_code>
    <province>Spruce Grove </province>
    <province_code></province_code>
    <community></community>
    <community_code></community_code>
    <latitude>53.5334</latitude>
    <longitude>-113.9187</longitude>
  </object>
  <object>
    <country_code>CA</country_code>
    <zipcode>T7Y</zipcode>
    <place>Spruce Grove South</place>
    <state>Alberta</state>
    <state_code>AB</state_code>
    <province>Spruce Grove </province>
    <province_code></province_code>
    <community></community>
    <community_code></community_code>
    <latitude>53.4184</latitude>
    <longitude>-113.8097</longitude>
  </object>
  <object>
    <country_code>CA</country_code>
    <zipcode>T7Z</zipcode>
    <place>Stony Plain</place>
    <state>Alberta</state>
    <state_code>AB</state_code>
    <province></province>
    <province_code></province_code>
    <community></community>
    <community_code></community_code>
    <latitude>53.5334</latitude>
    <longitude>-114.0021</longitude>
  </object>
  <object>
    <country_code>CA</country_code>
    <zipcode>T8A</zipcode>
    <place>Sherwood Park West</place>
    <state>Alberta</state>
    <state_code>AB</state_code>
    <province>Sherwood Park </province>
    <province_code></province_code>
    <community></community>
    <community_code></community_code>
    <latitude>53.528</latitude>
    <longitude>-113.2512</longitude>
  </object>
  <object>
    <country_code>CA</country_code>
    <zipcode>T8B</zipcode>
    <place>Sherwood Park Outer Southwest</place>
    <state>Alberta</state>
    <state_code>AB</state_code>
    <province>Sherwood Park </province>
    <province_code></province_code>
    <community></community>
    <community_code></community_code>
    <latitude>53.4397</latitude>
    <longitude>-113.2952</longitude>
  </object>
  <object>
    <country_code>CA</country_code>
    <zipcode>T8C</zipcode>
    <place>Sherwood Park Inner Southwest</place>
    <state>Alberta</state>
    <state_code>AB</state_code>
    <province>Sherwood Park </province>
    <province_code></province_code>
    <community></community>
    <community_code></community_code>
    <latitude>53.4391</latitude>
    <longitude>-113.1903</longitude>
  </object>
  <object>
    <country_code>CA</country_code>
    <zipcode>T8E</zipcode>
    <place>Sherwood Park Central</place>
    <state>Alberta</state>
    <state_code>AB</state_code>
    <province>Sherwood Park </province>
    <province_code></province_code>
    <community></community>
    <community_code></community_code>
    <latitude>53.5225</latitude>
    <longitude>-113.1022</longitude>
  </object>
  <object>
    <country_code>CA</country_code>
    <zipcode>T8G</zipcode>
    <place>Sherwood Park East</place>
    <state>Alberta</state>
    <state_code>AB</state_code>
    <province>Sherwood Park </province>
    <province_code></province_code>
    <community></community>
    <community_code></community_code>
    <latitude>53.5052</latitude>
    <longitude>-112.9529</longitude>
  </object>
  <object>
    <country_code>CA</country_code>
    <zipcode>T8H</zipcode>
    <place>Sherwood Park Northwest</place>
    <state>Alberta</state>
    <state_code>AB</state_code>
    <province>Sherwood Park </province>
    <province_code></province_code>
    <community></community>
    <community_code></community_code>
    <latitude>53.556</latitude>
    <longitude>-113.2952</longitude>
  </object>
  <object>
    <country_code>CA</country_code>
    <zipcode>T8L</zipcode>
    <place>Fort Saskatchewan</place>
    <state>Alberta</state>
    <state_code>AB</state_code>
    <province></province>
    <province_code></province_code>
    <community></community>
    <community_code></community_code>
    <latitude>53.7168</latitude>
    <longitude>-113.2187</longitude>
  </object>
  <object>
    <country_code>CA</country_code>
    <zipcode>T8N</zipcode>
    <place>St. Albert</place>
    <state>Alberta</state>
    <state_code>AB</state_code>
    <province></province>
    <province_code></province_code>
    <community></community>
    <community_code></community_code>
    <latitude>53.6334</latitude>
    <longitude>-113.6353</longitude>
  </object>
  <object>
    <country_code>CA</country_code>
    <zipcode>T8R</zipcode>
    <place>Morinville</place>
    <state>Alberta</state>
    <state_code>AB</state_code>
    <province></province>
    <province_code></province_code>
    <community></community>
    <community_code></community_code>
    <latitude>53.8001</latitude>
    <longitude>-113.652</longitude>
  </object>
  <object>
    <country_code>CA</country_code>
    <zipcode>T8S</zipcode>
    <place>Peace River</place>
    <state>Alberta</state>
    <state_code>AB</state_code>
    <province></province>
    <province_code></province_code>
    <community></community>
    <community_code></community_code>
    <latitude>56.2501</latitude>
    <longitude>-117.286</longitude>
  </object>
  <object>
    <country_code>CA</country_code>
    <zipcode>T8T</zipcode>
    <place>St. Albert</place>
    <state>Alberta</state>
    <state_code>AB</state_code>
    <province></province>
    <province_code></province_code>
    <community></community>
    <community_code></community_code>
    <latitude>53.6867</latitude>
    <longitude>-113.7102</longitude>
  </object>
  <object>
    <country_code>CA</country_code>
    <zipcode>T8V</zipcode>
    <place>Grande Prairie Central</place>
    <state>Alberta</state>
    <state_code>AB</state_code>
    <province>Grande Prairie </province>
    <province_code></province_code>
    <community></community>
    <community_code></community_code>
    <latitude>55.1808</latitude>
    <longitude>-118.9103</longitude>
  </object>
  <object>
    <country_code>CA</country_code>
    <zipcode>T8W</zipcode>
    <place>Grande Prairie South</place>
    <state>Alberta</state>
    <state_code>AB</state_code>
    <province>Grande Prairie </province>
    <province_code></province_code>
    <community></community>
    <community_code></community_code>
    <latitude>55.1303</latitude>
    <longitude>-118.7946</longitude>
  </object>
  <object>
    <country_code>CA</country_code>
    <zipcode>T8X</zipcode>
    <place>Grande Prairie East</place>
    <state>Alberta</state>
    <state_code>AB</state_code>
    <province>Grande Prairie </province>
    <province_code></province_code>
    <community></community>
    <community_code></community_code>
    <latitude>55.1834</latitude>
    <longitude>-118.7457</longitude>
  </object>
  <object>
    <country_code>CA</country_code>
    <zipcode>T9A</zipcode>
    <place>Wetaskiwin</place>
    <state>Alberta</state>
    <state_code>AB</state_code>
    <province></province>
    <province_code></province_code>
    <community></community>
    <community_code></community_code>
    <latitude>52.9668</latitude>
    <longitude>-113.3687</longitude>
  </object>
  <object>
    <country_code>CA</country_code>
    <zipcode>T9C</zipcode>
    <place>Vegreville</place>
    <state>Alberta</state>
    <state_code>AB</state_code>
    <province></province>
    <province_code></province_code>
    <community></community>
    <community_code></community_code>
    <latitude>53.5001</latitude>
    <longitude>-112.0518</longitude>
  </object>
  <object>
    <country_code>CA</country_code>
    <zipcode>T9E</zipcode>
    <place>Leduc</place>
    <state>Alberta</state>
    <state_code>AB</state_code>
    <province></province>
    <province_code></province_code>
    <community></community>
    <community_code></community_code>
    <latitude>53.2668</latitude>
    <longitude>-113.552</longitude>
  </object>
  <object>
    <country_code>CA</country_code>
    <zipcode>T9G</zipcode>
    <place>Devon</place>
    <state>Alberta</state>
    <state_code>AB</state_code>
    <province></province>
    <province_code></province_code>
    <community></community>
    <community_code></community_code>
    <latitude>53.3668</latitude>
    <longitude>-113.7353</longitude>
  </object>
  <object>
    <country_code>CA</country_code>
    <zipcode>T9H</zipcode>
    <place>Fort McMurray Outer Central</place>
    <state>Alberta</state>
    <state_code>AB</state_code>
    <province>Fort McMurray </province>
    <province_code></province_code>
    <community></community>
    <community_code></community_code>
    <latitude>56.664</latitude>
    <longitude>-111.1357</longitude>
  </object>
  <object>
    <country_code>CA</country_code>
    <zipcode>T9J</zipcode>
    <place>Fort McMurray Inner Central</place>
    <state>Alberta</state>
    <state_code>AB</state_code>
    <province>Fort McMurray </province>
    <province_code></province_code>
    <community></community>
    <community_code></community_code>
    <latitude>56.707</latitude>
    <longitude>-111.3771</longitude>
  </object>
  <object>
    <country_code>CA</country_code>
    <zipcode>T9K</zipcode>
    <place>Fort McMurray Northwest</place>
    <state>Alberta</state>
    <state_code>AB</state_code>
    <province>Fort McMurray </province>
    <province_code></province_code>
    <community></community>
    <community_code></community_code>
    <latitude>56.7538</latitude>
    <longitude>-111.435</longitude>
  </object>
  <object>
    <country_code>CA</country_code>
    <zipcode>T9M</zipcode>
    <place>Cold Lake</place>
    <state>Alberta</state>
    <state_code>AB</state_code>
    <province></province>
    <province_code></province_code>
    <community></community>
    <community_code></community_code>
    <latitude>54.4502</latitude>
    <longitude>-110.2017</longitude>
  </object>
  <object>
    <country_code>CA</country_code>
    <zipcode>T9N</zipcode>
    <place>Bonnyville</place>
    <state>Alberta</state>
    <state_code>AB</state_code>
    <province></province>
    <province_code></province_code>
    <community></community>
    <community_code></community_code>
    <latitude>54.2668</latitude>
    <longitude>-110.7351</longitude>
  </object>
  <object>
    <country_code>CA</country_code>
    <zipcode>T9S</zipcode>
    <place>Athabasca</place>
    <state>Alberta</state>
    <state_code>AB</state_code>
    <province></province>
    <province_code></province_code>
    <community></community>
    <community_code></community_code>
    <latitude>54.7169</latitude>
    <longitude>-113.2854</longitude>
  </object>
  <object>
    <country_code>CA</country_code>
    <zipcode>T9V</zipcode>
    <place>Lloydminster</place>
    <state>Alberta</state>
    <state_code>AB</state_code>
    <province></province>
    <province_code></province_code>
    <community></community>
    <community_code></community_code>
    <latitude>53.2717</latitude>
    <longitude>-110.0853</longitude>
  </object>
  <object>
    <country_code>CA</country_code>
    <zipcode>T9W</zipcode>
    <place>Wainwright</place>
    <state>Alberta</state>
    <state_code>AB</state_code>
    <province></province>
    <province_code></province_code>
    <community></community>
    <community_code></community_code>
    <latitude>52.839</latitude>
    <longitude>-110.8572</longitude>
  </object>
  <object>
    <country_code>CA</country_code>
    <zipcode>T9X</zipcode>
    <place>Vermilion</place>
    <state>Alberta</state>
    <state_code>AB</state_code>
    <province></province>
    <province_code></province_code>
    <community></community>
    <community_code></community_code>
    <latitude>53.3669</latitude>
    <longitude>-110.8517</longitude>
  </object>
  <object>
    <country_code>CA</country_code>
    <zipcode>V5K</zipcode>
    <place>Vancouver (North Hastings-Sunrise)</place>
    <state>British Columbia</state>
    <state_code>BC</state_code>
    <province>Vancouver</province>
    <province_code>5965814</province_code>
    <community></community>
    <community_code></community_code>
    <latitude>49.2807</latitude>
    <longitude>-123.0397</longitude>
  </object>
  <object>
    <country_code>CA</country_code>
    <zipcode>V5L</zipcode>
    <place>Vancouver (North Grandview-Woodlands)</place>
    <state>British Columbia</state>
    <state_code>BC</state_code>
    <province>Vancouver</province>
    <province_code>5965814</province_code>
    <community></community>
    <community_code></community_code>
    <latitude>49.2795</latitude>
    <longitude>-123.0667</longitude>
  </object>
  <object>
    <country_code>CA</country_code>
    <zipcode>V5M</zipcode>
    <place>Vancouver (South Hastings-Sunrise / North Renfrew-Collingwood)</place>
    <state>British Columbia</state>
    <state_code>BC</state_code>
    <province>Vancouver</province>
    <province_code>5965814</province_code>
    <community></community>
    <community_code></community_code>
    <latitude>49.26</latitude>
    <longitude>-123.0398</longitude>
  </object>
  <object>
    <country_code>CA</country_code>
    <zipcode>V5N</zipcode>
    <place>Vancouver (South Grandview-Woodlands / NE Kensington)</place>
    <state>British Columbia</state>
    <state_code>BC</state_code>
    <province>Vancouver</province>
    <province_code>5965814</province_code>
    <community></community>
    <community_code></community_code>
    <latitude>49.2551</latitude>
    <longitude>-123.0667</longitude>
  </object>
  <object>
    <country_code>CA</country_code>
    <zipcode>V5P</zipcode>
    <place>Vancouver (SE Kensington / Victoria-Fraserview)</place>
    <state>British Columbia</state>
    <state_code>BC</state_code>
    <province>Vancouver</province>
    <province_code>5965814</province_code>
    <community></community>
    <community_code></community_code>
    <latitude>49.222</latitude>
    <longitude>-123.0683</longitude>
  </object>
  <object>
    <country_code>CA</country_code>
    <zipcode>V5R</zipcode>
    <place>Vancouver (South Renfrew-Collingwood)</place>
    <state>British Columbia</state>
    <state_code>BC</state_code>
    <province>Vancouver</province>
    <province_code>5965814</province_code>
    <community></community>
    <community_code></community_code>
    <latitude>49.2397</latitude>
    <longitude>-123.0407</longitude>
  </object>
  <object>
    <country_code>CA</country_code>
    <zipcode>V5S</zipcode>
    <place>Vancouver (Killarney)</place>
    <state>British Columbia</state>
    <state_code>BC</state_code>
    <province>Vancouver</province>
    <province_code>5965814</province_code>
    <community></community>
    <community_code></community_code>
    <latitude>49.2175</latitude>
    <longitude>-123.038</longitude>
  </object>
  <object>
    <country_code>CA</country_code>
    <zipcode>V5T</zipcode>
    <place>Vancouver (East Mount Pleasant)</place>
    <state>British Columbia</state>
    <state_code>BC</state_code>
    <province>Vancouver</province>
    <province_code>5965814</province_code>
    <community></community>
    <community_code></community_code>
    <latitude>49.262</latitude>
    <longitude>-123.0923</longitude>
  </object>
  <object>
    <country_code>CA</country_code>
    <zipcode>V5V</zipcode>
    <place>Vancouver (West Kensington / NE Riley Park-Little Mountain)</place>
    <state>British Columbia</state>
    <state_code>BC</state_code>
    <province>Vancouver</province>
    <province_code>5965814</province_code>
    <community></community>
    <community_code></community_code>
    <latitude>49.248</latitude>
    <longitude>-123.0913</longitude>
  </object>
  <object>
    <country_code>CA</country_code>
    <zipcode>V5W</zipcode>
    <place>Vancouver (SE Riley Park-Little Mountain / SW Kensington / NE Oakridge / North Sunset)</place>
    <state>British Columbia</state>
    <state_code>BC</state_code>
    <province>Vancouver</province>
    <province_code>5965814</province_code>
    <community></community>
    <community_code></community_code>
    <latitude>49.2327</latitude>
    <longitude>-123.0917</longitude>
  </object>
  <object>
    <country_code>CA</country_code>
    <zipcode>V5X</zipcode>
    <place>Vancouver (SE Oakridge / East Marpole / South Sunset)</place>
    <state>British Columbia</state>
    <state_code>BC</state_code>
    <province>Vancouver</province>
    <province_code>5965814</province_code>
    <community></community>
    <community_code></community_code>
    <latitude>49.2156</latitude>
    <longitude>-123.0979</longitude>
  </object>
  <object>
    <country_code>CA</country_code>
    <zipcode>V5Y</zipcode>
    <place>Vancouver (West Mount Pleasant / West Riley Park-Little Mountain)</place>
    <state>British Columbia</state>
    <state_code>BC</state_code>
    <province>Vancouver</province>
    <province_code>5965814</province_code>
    <community></community>
    <community_code></community_code>
    <latitude>49.2492</latitude>
    <longitude>-123.1104</longitude>
  </object>
  <object>
    <country_code>CA</country_code>
    <zipcode>V5Z</zipcode>
    <place>Vancouver (East Fairview / South Cambie)</place>
    <state>British Columbia</state>
    <state_code>BC</state_code>
    <province>Vancouver</province>
    <province_code>5965814</province_code>
    <community></community>
    <community_code></community_code>
    <latitude>49.2475</latitude>
    <longitude>-123.121</longitude>
  </object>
  <object>
    <country_code>CA</country_code>
    <zipcode>V6A</zipcode>
    <place>Vancouver (Strathcona / Chinatown / Downtown Eastside)</place>
    <state>British Columbia</state>
    <state_code>BC</state_code>
    <province>Vancouver</province>
    <province_code>5965814</province_code>
    <community></community>
    <community_code></community_code>
    <latitude>49.2779</latitude>
    <longitude>-123.0908</longitude>
  </object>
  <object>
    <country_code>CA</country_code>
    <zipcode>V6B</zipcode>
    <place>Vancouver (NE Downtown / Harbour Centre / Gastown / Yaletown)</place>
    <state>British Columbia</state>
    <state_code>BC</state_code>
    <province>Vancouver</province>
    <province_code>5965814</province_code>
    <community></community>
    <community_code></community_code>
    <latitude>49.2788</latitude>
    <longitude>-123.1139</longitude>
  </object>
  <object>
    <country_code>CA</country_code>
    <zipcode>V6C</zipcode>
    <place>Vancouver (Waterfront / Coal Harbour / Canada Place)</place>
    <state>British Columbia</state>
    <state_code>BC</state_code>
    <province>Vancouver</province>
    <province_code>5965814</province_code>
    <community></community>
    <community_code></community_code>
    <latitude>49.2866</latitude>
    <longitude>-123.1158</longitude>
  </object>
  <object>
    <country_code>CA</country_code>
    <zipcode>V6E</zipcode>
    <place>Vancouver (South West End)</place>
    <state>British Columbia</state>
    <state_code>BC</state_code>
    <province>Vancouver</province>
    <province_code>5965814</province_code>
    <community></community>
    <community_code></community_code>
    <latitude>49.2833</latitude>
    <longitude>-123.1298</longitude>
  </object>
  <object>
    <country_code>CA</country_code>
    <zipcode>V6G</zipcode>
    <place>Vancouver (North West End / Stanley Park)</place>
    <state>British Columbia</state>
    <state_code>BC</state_code>
    <province>Vancouver</province>
    <province_code>5965814</province_code>
    <community></community>
    <community_code></community_code>
    <latitude>49.299</latitude>
    <longitude>-123.1408</longitude>
  </object>
  <object>
    <country_code>CA</country_code>
    <zipcode>V6H</zipcode>
    <place>Vancouver (West Fairview / Granville Island / NE Shaughnessy)</place>
    <state>British Columbia</state>
    <state_code>BC</state_code>
    <province>Vancouver</province>
    <province_code>5965814</province_code>
    <community></community>
    <community_code></community_code>
    <latitude>49.2559</latitude>
    <longitude>-123.1322</longitude>
  </object>
  <object>
    <country_code>CA</country_code>
    <zipcode>V6J</zipcode>
    <place>Vancouver (NW Shaughnessy / East Kitsilano / Quilchena)</place>
    <state>British Columbia</state>
    <state_code>BC</state_code>
    <province>Vancouver</province>
    <province_code>5965814</province_code>
    <community></community>
    <community_code></community_code>
    <latitude>49.2603</latitude>
    <longitude>-123.146</longitude>
  </object>
  <object>
    <country_code>CA</country_code>
    <zipcode>V6K</zipcode>
    <place>Vancouver (Central Kitsilano)</place>
    <state>British Columbia</state>
    <state_code>BC</state_code>
    <province>Vancouver</province>
    <province_code>5965814</province_code>
    <community></community>
    <community_code></community_code>
    <latitude>49.2646</latitude>
    <longitude>-123.1648</longitude>
  </object>
  <object>
    <country_code>CA</country_code>
    <zipcode>V6L</zipcode>
    <place>Vancouver (NW Arbutus Ridge)</place>
    <state>British Columbia</state>
    <state_code>BC</state_code>
    <province>Vancouver</province>
    <province_code>5965814</province_code>
    <community></community>
    <community_code></community_code>
    <latitude>49.2497</latitude>
    <longitude>-123.166</longitude>
  </object>
  <object>
    <country_code>CA</country_code>
    <zipcode>V6M</zipcode>
    <place>Vancouver (South Shaughnessy / NW Oakridge / NE Kerrisdale / SE Arbutus Ridge)</place>
    <state>British Columbia</state>
    <state_code>BC</state_code>
    <province>Vancouver</province>
    <province_code>5965814</province_code>
    <community></community>
    <community_code></community_code>
    <latitude>49.2344</latitude>
    <longitude>-123.1451</longitude>
  </object>
  <object>
    <country_code>CA</country_code>
    <zipcode>V6N</zipcode>
    <place>Vancouver (Dunbar-Southlands / Musqueam)</place>
    <state>British Columbia</state>
    <state_code>BC</state_code>
    <province>Vancouver</province>
    <province_code>5965814</province_code>
    <community></community>
    <community_code></community_code>
    <latitude>49.2302</latitude>
    <longitude>-123.189</longitude>
  </object>
  <object>
    <country_code>CA</country_code>
    <zipcode>V6P</zipcode>
    <place>Vancouver (SE Kerrisdale / SW Oakridge / West Marpole)</place>
    <state>British Columbia</state>
    <state_code>BC</state_code>
    <province>Vancouver</province>
    <province_code>5965814</province_code>
    <community></community>
    <community_code></community_code>
    <latitude>49.2151</latitude>
    <longitude>-123.1396</longitude>
  </object>
  <object>
    <country_code>CA</country_code>
    <zipcode>V6R</zipcode>
    <place>Vancouver (West Kitsilano / Jericho)</place>
    <state>British Columbia</state>
    <state_code>BC</state_code>
    <province>Vancouver</province>
    <province_code>5965814</province_code>
    <community></community>
    <community_code></community_code>
    <latitude>49.2666</latitude>
    <longitude>-123.1976</longitude>
  </object>
  <object>
    <country_code>CA</country_code>
    <zipcode>V6S</zipcode>
    <place>Vancouver (Chaldecutt / South University Endowment Lands)</place>
    <state>British Columbia</state>
    <state_code>BC</state_code>
    <province>Vancouver</province>
    <province_code>5965814</province_code>
    <community></community>
    <community_code></community_code>
    <latitude>49.2491</latitude>
    <longitude>-123.2088</longitude>
  </object>
  <object>
    <country_code>CA</country_code>
    <zipcode>V6T</zipcode>
    <place>Vancouver (UBC)</place>
    <state>British Columbia</state>
    <state_code>BC</state_code>
    <province>Vancouver</province>
    <province_code>5965814</province_code>
    <community></community>
    <community_code></community_code>
    <latitude>49.4635</latitude>
    <longitude>-122.822</longitude>
  </object>
  <object>
    <country_code>CA</country_code>
    <zipcode>V6Z</zipcode>
    <place>Vancouver (SW Downtown)</place>
    <state>British Columbia</state>
    <state_code>BC</state_code>
    <province>Vancouver</province>
    <province_code>5965814</province_code>
    <community></community>
    <community_code></community_code>
    <latitude>49.2767</latitude>
    <longitude>-123.13</longitude>
  </object>
  <object>
    <country_code>CA</country_code>
    <zipcode>V7G</zipcode>
    <place>North Vancouver Outer East</place>
    <state>British Columbia</state>
    <state_code>BC</state_code>
    <province>Vancouver</province>
    <province_code>5965814</province_code>
    <community></community>
    <community_code></community_code>
    <latitude>49.3678</latitude>
    <longitude>-122.9278</longitude>
  </object>
  <object>
    <country_code>CA</country_code>
    <zipcode>V7H</zipcode>
    <place>North Vancouver Inner East</place>
    <state>British Columbia</state>
    <state_code>BC</state_code>
    <province>Vancouver</province>
    <province_code>5965814</province_code>
    <community></community>
    <community_code></community_code>
    <latitude>49.3551</latitude>
    <longitude>-122.9802</longitude>
  </object>
  <object>
    <country_code>CA</country_code>
    <zipcode>V7J</zipcode>
    <place>North Vancouver East Central</place>
    <state>British Columbia</state>
    <state_code>BC</state_code>
    <province>Vancouver</province>
    <province_code>5965814</province_code>
    <community></community>
    <community_code></community_code>
    <latitude>49.3622</latitude>
    <longitude>-123.0178</longitude>
  </object>
  <object>
    <country_code>CA</country_code>
    <zipcode>V7K</zipcode>
    <place>North Vancouver North Central</place>
    <state>British Columbia</state>
    <state_code>BC</state_code>
    <province>Vancouver</province>
    <province_code>5965814</province_code>
    <community></community>
    <community_code></community_code>
    <latitude>49.3597</latitude>
    <longitude>-123.0377</longitude>
  </object>
  <object>
    <country_code>CA</country_code>
    <zipcode>V7L</zipcode>
    <place>North Vancouver South Central</place>
    <state>British Columbia</state>
    <state_code>BC</state_code>
    <province>Vancouver</province>
    <province_code>5965814</province_code>
    <community></community>
    <community_code></community_code>
    <latitude>49.316</latitude>
    <longitude>-123.0576</longitude>
  </object>
  <object>
    <country_code>CA</country_code>
    <zipcode>V7M</zipcode>
    <place>North Vancouver Southwest Central</place>
    <state>British Columbia</state>
    <state_code>BC</state_code>
    <province>Vancouver</province>
    <province_code>5965814</province_code>
    <community></community>
    <community_code></community_code>
    <latitude>49.3222</latitude>
    <longitude>-123.0834</longitude>
  </object>
  <object>
    <country_code>CA</country_code>
    <zipcode>V7N</zipcode>
    <place>North Vancouver Northwest Central</place>
    <state>British Columbia</state>
    <state_code>BC</state_code>
    <province>Vancouver</province>
    <province_code>5965814</province_code>
    <community></community>
    <community_code></community_code>
    <latitude>49.35</latitude>
    <longitude>-123.0679</longitude>
  </object>
  <object>
    <country_code>CA</country_code>
    <zipcode>V7P</zipcode>
    <place>North Vancouver Southwest</place>
    <state>British Columbia</state>
    <state_code>BC</state_code>
    <province>Vancouver</province>
    <province_code>5965814</province_code>
    <community></community>
    <community_code></community_code>
    <latitude>49.322</latitude>
    <longitude>-123.1149</longitude>
  </object>
  <object>
    <country_code>CA</country_code>
    <zipcode>V7R</zipcode>
    <place>North Vancouver Northwest</place>
    <state>British Columbia</state>
    <state_code>BC</state_code>
    <province>Vancouver</province>
    <province_code>5965814</province_code>
    <community></community>
    <community_code></community_code>
    <latitude>49.3775</latitude>
    <longitude>-123.0862</longitude>
  </object>
  <object>
    <country_code>CA</country_code>
    <zipcode>V7S</zipcode>
    <place>West Vancouver North</place>
    <state>British Columbia</state>
    <state_code>BC</state_code>
    <province>Vancouver</province>
    <province_code>5965814</province_code>
    <community></community>
    <community_code></community_code>
    <latitude>49.3745</latitude>
    <longitude>-123.1864</longitude>
  </object>
  <object>
    <country_code>CA</country_code>
    <zipcode>V7T</zipcode>
    <place>West Vancouver Southeast</place>
    <state>British Columbia</state>
    <state_code>BC</state_code>
    <province>Vancouver</province>
    <province_code>5965814</province_code>
    <community></community>
    <community_code></community_code>
    <latitude>49.3322</latitude>
    <longitude>-123.1417</longitude>
  </object>
  <object>
    <country_code>CA</country_code>
    <zipcode>V7V</zipcode>
    <place>West Vancouver South</place>
    <state>British Columbia</state>
    <state_code>BC</state_code>
    <province>Vancouver</province>
    <province_code>5965814</province_code>
    <community></community>
    <community_code></community_code>
    <latitude>49.3397</latitude>
    <longitude>-123.1912</longitude>
  </object>
  <object>
    <country_code>CA</country_code>
    <zipcode>V7W</zipcode>
    <place>West Vancouver West</place>
    <state>British Columbia</state>
    <state_code>BC</state_code>
    <province>Vancouver</province>
    <province_code>5965814</province_code>
    <community></community>
    <community_code></community_code>
    <latitude>49.3615</latitude>
    <longitude>-123.2627</longitude>
  </object>
  <object>
    <country_code>CA</country_code>
    <zipcode>V7X</zipcode>
    <place>Vancouver (Bentall Centre)</place>
    <state>British Columbia</state>
    <state_code>BC</state_code>
    <province>Vancouver</province>
    <province_code>5965814</province_code>
    <community></community>
    <community_code></community_code>
    <latitude>49.2935</latitude>
    <longitude>-123.1162</longitude>
  </object>
  <object>
    <country_code>CA</country_code>
    <zipcode>V7Y</zipcode>
    <place>Vancouver (Pacific Centre)</place>
    <state>British Columbia</state>
    <state_code>BC</state_code>
    <province>Vancouver</province>
    <province_code>5965814</province_code>
    <community></community>
    <community_code></community_code>
    <latitude>49.2819</latitude>
    <longitude>-123.119</longitude>
  </object>
  <object>
    <country_code>CA</country_code>
    <zipcode>V0A</zipcode>
    <place>Upper Columbia Region (Golden)</place>
    <state>British Columbia</state>
    <state_code>BC</state_code>
    <province></province>
    <province_code></province_code>
    <community></community>
    <community_code></community_code>
    <latitude>51.2994</latitude>
    <longitude>-116.939</longitude>
  </object>
  <object>
    <country_code>CA</country_code>
    <zipcode>V0B</zipcode>
    <place>East Kootenays (Fernie)</place>
    <state>British Columbia</state>
    <state_code>BC</state_code>
    <province></province>
    <province_code></province_code>
    <community></community>
    <community_code></community_code>
    <latitude>49.6775</latitude>
    <longitude>-115.5636</longitude>
  </object>
  <object>
    <country_code>CA</country_code>
    <zipcode>V0C</zipcode>
    <place>Northern British Columbia (Fort Nelson)</place>
    <state>British Columbia</state>
    <state_code>BC</state_code>
    <province></province>
    <province_code></province_code>
    <community></community>
    <community_code></community_code>
    <latitude>58.3874</latitude>
    <longitude>-125.7167</longitude>
  </object>
  <object>
    <country_code>CA</country_code>
    <zipcode>V0E</zipcode>
    <place>Central Okanagan and High Country (Revelstoke)</place>
    <state>British Columbia</state>
    <state_code>BC</state_code>
    <province></province>
    <province_code></province_code>
    <community></community>
    <community_code></community_code>
    <latitude>51.505</latitude>
    <longitude>-119.2034</longitude>
  </object>
  <object>
    <country_code>CA</country_code>
    <zipcode>V0G</zipcode>
    <place>West Kootenays (Rossland)</place>
    <state>British Columbia</state>
    <state_code>BC</state_code>
    <province></province>
    <province_code></province_code>
    <community></community>
    <community_code></community_code>
    <latitude>50.053</latitude>
    <longitude>-117.4291</longitude>
  </object>
  <object>
    <country_code>CA</country_code>
    <zipcode>V0H</zipcode>
    <place>South Okanagan (Summerland)</place>
    <state>British Columbia</state>
    <state_code>BC</state_code>
    <province></province>
    <province_code></province_code>
    <community></community>
    <community_code></community_code>
    <latitude>49.4089</latitude>
    <longitude>-119.0054</longitude>
  </object>
  <object>
    <country_code>CA</country_code>
    <zipcode>V0J</zipcode>
    <place>Omineca and Yellowhead (Smithers)</place>
    <state>British Columbia</state>
    <state_code>BC</state_code>
    <province></province>
    <province_code></province_code>
    <community></community>
    <community_code></community_code>
    <latitude>55.9964</latitude>
    <longitude>-126.8574</longitude>
  </object>
  <object>
    <country_code>CA</country_code>
    <zipcode>V0K</zipcode>
    <place>Cariboo and West Okanagan (100 Mile House)</place>
    <state>British Columbia</state>
    <state_code>BC</state_code>
    <province></province>
    <province_code></province_code>
    <community></community>
    <community_code></community_code>
    <latitude>51.4367</latitude>
    <longitude>-121.6384</longitude>
  </object>
  <object>
    <country_code>CA</country_code>
    <zipcode>V0L</zipcode>
    <place>Chilcotin (Alexis Creek)</place>
    <state>British Columbia</state>
    <state_code>BC</state_code>
    <province></province>
    <province_code></province_code>
    <community></community>
    <community_code></community_code>
    <latitude>52.0993</latitude>
    <longitude>-123.6526</longitude>
  </object>
  <object>
    <country_code>CA</country_code>
    <zipcode>V0M</zipcode>
    <place>Harrison Lake Region (Agassiz)</place>
    <state>British Columbia</state>
    <state_code>BC</state_code>
    <province></province>
    <province_code></province_code>
    <community></community>
    <community_code></community_code>
    <latitude>49.6346</latitude>
    <longitude>-122.038</longitude>
  </object>
  <object>
    <country_code>CA</country_code>
    <zipcode>V0N</zipcode>
    <place>North Island, Sunshine Coast, and Southern Gulf Islands (Whistler)</place>
    <state>British Columbia</state>
    <state_code>BC</state_code>
    <province></province>
    <province_code></province_code>
    <community></community>
    <community_code></community_code>
    <latitude>51.2944</latitude>
    <longitude>-126.0745</longitude>
  </object>
  <object>
    <country_code>CA</country_code>
    <zipcode>V0P</zipcode>
    <place>North Central Island and Bute Inlet Region (Gold River)</place>
    <state>British Columbia</state>
    <state_code>BC</state_code>
    <province></province>
    <province_code></province_code>
    <community></community>
    <community_code></community_code>
    <latitude>49.8866</latitude>
    <longitude>-126.2673</longitude>
  </object>
  <object>
    <country_code>CA</country_code>
    <zipcode>V0R</zipcode>
    <place>Central Island (Chemainus)</place>
    <state>British Columbia</state>
    <state_code>BC</state_code>
    <province></province>
    <province_code></province_code>
    <community></community>
    <community_code></community_code>
    <latitude>49.027</latitude>
    <longitude>-124.8461</longitude>
  </object>
  <object>
    <country_code>CA</country_code>
    <zipcode>V0S</zipcode>
    <place>Juan de Fuca Shore (Sooke)</place>
    <state>British Columbia</state>
    <state_code>BC</state_code>
    <province></province>
    <province_code></province_code>
    <community></community>
    <community_code></community_code>
    <latitude>48.5432</latitude>
    <longitude>-123.672</longitude>
  </object>
  <object>
    <country_code>CA</country_code>
    <zipcode>V0T</zipcode>
    <place>Inside Passage and the Queen Charlottes (Queen Charlotte City)</place>
    <state>British Columbia</state>
    <state_code>BC</state_code>
    <province></province>
    <province_code></province_code>
    <community></community>
    <community_code></community_code>
    <latitude>52.2338</latitude>
    <longitude>-126.2134</longitude>
  </object>
  <object>
    <country_code>CA</country_code>
    <zipcode>V0V</zipcode>
    <place>Lower Skeena (Port Edward)</place>
    <state>British Columbia</state>
    <state_code>BC</state_code>
    <province></province>
    <province_code></province_code>
    <community></community>
    <community_code></community_code>
    <latitude>53.9725</latitude>
    <longitude>-129.8986</longitude>
  </object>
  <object>
    <country_code>CA</country_code>
    <zipcode>V0W</zipcode>
    <place>Atlin Region (Atlin)</place>
    <state>British Columbia</state>
    <state_code>BC</state_code>
    <province></province>
    <province_code></province_code>
    <community></community>
    <community_code></community_code>
    <latitude>59.6378</latitude>
    <longitude>-133.5433</longitude>
  </object>
  <object>
    <country_code>CA</country_code>
    <zipcode>V0X</zipcode>
    <place>Similkameen (Hope)</place>
    <state>British Columbia</state>
    <state_code>BC</state_code>
    <province></province>
    <province_code></province_code>
    <community></community>
    <community_code></community_code>
    <latitude>49.3688</latitude>
    <longitude>-120.6569</longitude>
  </object>
  <object>
    <country_code>CA</country_code>
    <zipcode>V1A</zipcode>
    <place>Kimberley</place>
    <state>British Columbia</state>
    <state_code>BC</state_code>
    <province></province>
    <province_code></province_code>
    <community></community>
    <community_code></community_code>
    <latitude>49.6832</latitude>
    <longitude>-115.9855</longitude>
  </object>
  <object>
    <country_code>CA</country_code>
    <zipcode>V1B</zipcode>
    <place>Vernon East</place>
    <state>British Columbia</state>
    <state_code>BC</state_code>
    <province>Vernon</province>
    <province_code></province_code>
    <community></community>
    <community_code></community_code>
    <latitude>50.084</latitude>
    <longitude>-118.938</longitude>
  </object>
  <object>
    <country_code>CA</country_code>
    <zipcode>V1C</zipcode>
    <place>Cranbrook</place>
    <state>British Columbia</state>
    <state_code>BC</state_code>
    <province></province>
    <province_code></province_code>
    <community></community>
    <community_code></community_code>
    <latitude>49.4999</latitude>
    <longitude>-115.7688</longitude>
  </object>
  <object>
    <country_code>CA</country_code>
    <zipcode>V1E</zipcode>
    <place>Salmon Arm</place>
    <state>British Columbia</state>
    <state_code>BC</state_code>
    <province></province>
    <province_code></province_code>
    <community></community>
    <community_code></community_code>
    <latitude>50.6998</latitude>
    <longitude>-119.2691</longitude>
  </object>
  <object>
    <country_code>CA</country_code>
    <zipcode>V1G</zipcode>
    <place>Dawson Creek</place>
    <state>British Columbia</state>
    <state_code>BC</state_code>
    <province></province>
    <province_code></province_code>
    <community></community>
    <community_code></community_code>
    <latitude>55.7666</latitude>
    <longitude>-120.2362</longitude>
  </object>
  <object>
    <country_code>CA</country_code>
    <zipcode>V1H</zipcode>
    <place>Vernon West</place>
    <state>British Columbia</state>
    <state_code>BC</state_code>
    <province>Vernon</province>
    <province_code></province_code>
    <community></community>
    <community_code></community_code>
    <latitude>50.2868</latitude>
    <longitude>-119.4975</longitude>
  </object>
  <object>
    <country_code>CA</country_code>
    <zipcode>V1J</zipcode>
    <place>Fort St. John</place>
    <state>British Columbia</state>
    <state_code>BC</state_code>
    <province></province>
    <province_code></province_code>
    <community></community>
    <community_code></community_code>
    <latitude>56.2499</latitude>
    <longitude>-120.8529</longitude>
  </object>
  <object>
    <country_code>CA</country_code>
    <zipcode>V1K</zipcode>
    <place>Merritt</place>
    <state>British Columbia</state>
    <state_code>BC</state_code>
    <province></province>
    <province_code></province_code>
    <community></community>
    <community_code></community_code>
    <latitude>50.1122</latitude>
    <longitude>-120.7942</longitude>
  </object>
  <object>
    <country_code>CA</country_code>
    <zipcode>V1L</zipcode>
    <place>Nelson</place>
    <state>British Columbia</state>
    <state_code>BC</state_code>
    <province></province>
    <province_code></province_code>
    <community></community>
    <community_code></community_code>
    <latitude>49.4999</latitude>
    <longitude>-117.2855</longitude>
  </object>
  <object>
    <country_code>CA</country_code>
    <zipcode>V1M</zipcode>
    <place>Langley Township North</place>
    <state>British Columbia</state>
    <state_code>BC</state_code>
    <province></province>
    <province_code></province_code>
    <community></community>
    <community_code></community_code>
    <latitude>49.1661</latitude>
    <longitude>-122.5792</longitude>
  </object>
  <object>
    <country_code>CA</country_code>
    <zipcode>V1N</zipcode>
    <place>Castlegar</place>
    <state>British Columbia</state>
    <state_code>BC</state_code>
    <province></province>
    <province_code></province_code>
    <community></community>
    <community_code></community_code>
    <latitude>49.2998</latitude>
    <longitude>-117.6689</longitude>
  </object>
  <object>
    <country_code>CA</country_code>
    <zipcode>V1P</zipcode>
    <place>Kelowna East</place>
    <state>British Columbia</state>
    <state_code>BC</state_code>
    <province>Kelowna</province>
    <province_code></province_code>
    <community></community>
    <community_code></community_code>
    <latitude>49.8959</latitude>
    <longitude>-119.1724</longitude>
  </object>
  <object>
    <country_code>CA</country_code>
    <zipcode>V1R</zipcode>
    <place>Trail</place>
    <state>British Columbia</state>
    <state_code>BC</state_code>
    <province></province>
    <province_code></province_code>
    <community></community>
    <community_code></community_code>
    <latitude>49.0998</latitude>
    <longitude>-117.7022</longitude>
  </object>
  <object>
    <country_code>CA</country_code>
    <zipcode>V1S</zipcode>
    <place>Kamloops Southwest</place>
    <state>British Columbia</state>
    <state_code>BC</state_code>
    <province></province>
    <province_code></province_code>
    <community></community>
    <community_code></community_code>
    <latitude>50.5583</latitude>
    <longitude>-120.5477</longitude>
  </object>
  <object>
    <country_code>CA</country_code>
    <zipcode>V1T</zipcode>
    <place>Vernon Central</place>
    <state>British Columbia</state>
    <state_code>BC</state_code>
    <province>Vernon</province>
    <province_code></province_code>
    <community></community>
    <community_code></community_code>
    <latitude>50.2604</latitude>
    <longitude>-119.2774</longitude>
  </object>
  <object>
    <country_code>CA</country_code>
    <zipcode>V1V</zipcode>
    <place>Kelowna North</place>
    <state>British Columbia</state>
    <state_code>BC</state_code>
    <province>Kelowna</province>
    <province_code></province_code>
    <community></community>
    <community_code></community_code>
    <latitude>49.9497</latitude>
    <longitude>-119.4339</longitude>
  </object>
  <object>
    <country_code>CA</country_code>
    <zipcode>V1W</zipcode>
    <place>Kelowna Southwest</place>
    <state>British Columbia</state>
    <state_code>BC</state_code>
    <province>Kelowna</province>
    <province_code></province_code>
    <community></community>
    <community_code></community_code>
    <latitude>49.812</latitude>
    <longitude>-119.5076</longitude>
  </object>
  <object>
    <country_code>CA</country_code>
    <zipcode>V1X</zipcode>
    <place>Kelowna East Central</place>
    <state>British Columbia</state>
    <state_code>BC</state_code>
    <province>Kelowna</province>
    <province_code></province_code>
    <community></community>
    <community_code></community_code>
    <latitude>50.0528</latitude>
    <longitude>-119.2858</longitude>
  </object>
  <object>
    <country_code>CA</country_code>
    <zipcode>V1Y</zipcode>
    <place>Kelowna Central</place>
    <state>British Columbia</state>
    <state_code>BC</state_code>
    <province>Kelowna</province>
    <province_code></province_code>
    <community></community>
    <community_code></community_code>
    <latitude>49.8928</latitude>
    <longitude>-119.4852</longitude>
  </object>
  <object>
    <country_code>CA</country_code>
    <zipcode>V1Z</zipcode>
    <place>Kelowna West</place>
    <state>British Columbia</state>
    <state_code>BC</state_code>
    <province>Kelowna</province>
    <province_code></province_code>
    <community></community>
    <community_code></community_code>
    <latitude>49.8625</latitude>
    <longitude>-119.5833</longitude>
  </object>
  <object>
    <country_code>CA</country_code>
    <zipcode>V2A</zipcode>
    <place>Penticton</place>
    <state>British Columbia</state>
    <state_code>BC</state_code>
    <province></province>
    <province_code></province_code>
    <community></community>
    <community_code></community_code>
    <latitude>49.4806</latitude>
    <longitude>-119.5858</longitude>
  </object>
  <object>
    <country_code>CA</country_code>
    <zipcode>V2B</zipcode>
    <place>Kamloops Northwest</place>
    <state>British Columbia</state>
    <state_code>BC</state_code>
    <province>Kamloops</province>
    <province_code></province_code>
    <community></community>
    <community_code></community_code>
    <latitude>50.8869</latitude>
    <longitude>-120.7357</longitude>
  </object>
  <object>
    <country_code>CA</country_code>
    <zipcode>V2C</zipcode>
    <place>Kamloops Central and Southeast</place>
    <state>British Columbia</state>
    <state_code>BC</state_code>
    <province>Kamloops</province>
    <province_code></province_code>
    <community></community>
    <community_code></community_code>
    <latitude>50.5437</latitude>
    <longitude>-120.0937</longitude>
  </object>
  <object>
    <country_code>CA</country_code>
    <zipcode>V2E</zipcode>
    <place>Kamloops South and West</place>
    <state>British Columbia</state>
    <state_code>BC</state_code>
    <province>Kamloops</province>
    <province_code></province_code>
    <community></community>
    <community_code></community_code>
    <latitude>50.6736</latitude>
    <longitude>-120.4212</longitude>
  </object>
  <object>
    <country_code>CA</country_code>
    <zipcode>V2G</zipcode>
    <place>Williams Lake</place>
    <state>British Columbia</state>
    <state_code>BC</state_code>
    <province></province>
    <province_code></province_code>
    <community></community>
    <community_code></community_code>
    <latitude>52.1415</latitude>
    <longitude>-122.1445</longitude>
  </object>
  <object>
    <country_code>CA</country_code>
    <zipcode>V2H</zipcode>
    <place>Kamloops North</place>
    <state>British Columbia</state>
    <state_code>BC</state_code>
    <province>Kamloops</province>
    <province_code></province_code>
    <community></community>
    <community_code></community_code>
    <latitude>50.7262</latitude>
    <longitude>-120.1659</longitude>
  </object>
  <object>
    <country_code>CA</country_code>
    <zipcode>V2J</zipcode>
    <place>Quesnel</place>
    <state>British Columbia</state>
    <state_code>BC</state_code>
    <province></province>
    <province_code></province_code>
    <community></community>
    <community_code></community_code>
    <latitude>52.9784</latitude>
    <longitude>-122.4931</longitude>
  </object>
  <object>
    <country_code>CA</country_code>
    <zipcode>V2K</zipcode>
    <place>Prince George North</place>
    <state>British Columbia</state>
    <state_code>BC</state_code>
    <province>Prince George </province>
    <province_code></province_code>
    <community></community>
    <community_code></community_code>
    <latitude>54.0508</latitude>
    <longitude>-122.9221</longitude>
  </object>
  <object>
    <country_code>CA</country_code>
    <zipcode>V2L</zipcode>
    <place>Prince George East Central</place>
    <state>British Columbia</state>
    <state_code>BC</state_code>
    <province>Prince George </province>
    <province_code></province_code>
    <community></community>
    <community_code></community_code>
    <latitude>53.9078</latitude>
    <longitude>-122.7473</longitude>
  </object>
  <object>
    <country_code>CA</country_code>
    <zipcode>V2M</zipcode>
    <place>Prince George West Central</place>
    <state>British Columbia</state>
    <state_code>BC</state_code>
    <province>Prince George </province>
    <province_code></province_code>
    <community></community>
    <community_code></community_code>
    <latitude>53.9127</latitude>
    <longitude>-122.8708</longitude>
  </object>
  <object>
    <country_code>CA</country_code>
    <zipcode>V2N</zipcode>
    <place>Prince George South</place>
    <state>British Columbia</state>
    <state_code>BC</state_code>
    <province>Prince George </province>
    <province_code></province_code>
    <community></community>
    <community_code></community_code>
    <latitude>53.6408</latitude>
    <longitude>-122.954</longitude>
  </object>
  <object>
    <country_code>CA</country_code>
    <zipcode>V2P</zipcode>
    <place>Chilliwack Central</place>
    <state>British Columbia</state>
    <state_code>BC</state_code>
    <province>Chilliwack</province>
    <province_code></province_code>
    <community></community>
    <community_code></community_code>
    <latitude>49.1838</latitude>
    <longitude>-121.9046</longitude>
  </object>
  <object>
    <country_code>CA</country_code>
    <zipcode>V2R</zipcode>
    <place>Chilliwack West</place>
    <state>British Columbia</state>
    <state_code>BC</state_code>
    <province>Chilliwack</province>
    <province_code></province_code>
    <community></community>
    <community_code></community_code>
