[
  {
    "country_code": "HU",
    "zipcode": "7188",
    "place": "Szárász",
    "state": "Baranya",
    "state_code": "BA",
    "province": "",
    "province_code": "",
    "community": "",
    "community_code": "",
    "latitude": "46.349",
    "longitude": "18.3736"
  },
  {
    "country_code": "HU",
    "zipcode": "7300",
    "place": "Komló",
    "state": "Baranya",
    "state_code": "BA",
    "province": "",
    "province_code": "",
    "community": "",
    "community_code": "",
    "latitude": "46.1928",
    "longitude": "18.2649"
  },
  {
    "country_code": "HU",
    "zipcode": "7304",
    "place": "Mánfa",
    "state": "Baranya",
    "state_code": "BA",
    "province": "",
    "province_code": "",
    "community": "",
    "community_code": "",
    "latitude": "46.1667",
    "longitude": "18.25"
  },
  {
    "country_code": "HU",
    "zipcode": "7305",
    "place": "Mecsekpölöske",
    "state": "Baranya",
    "state_code": "BA",
    "province": "",
    "province_code": "",
    "community": "",
    "community_code": "",
    "latitude": "46.2221",
    "longitude": "18.2112"
  },
  {
    "country_code": "HU",
    "zipcode": "7331",
    "place": "Liget",
    "state": "Baranya",
    "state_code": "BA",
    "province": "",
    "province_code": "",
    "community": "",
    "community_code": "",
    "latitude": "46.236",
    "longitude": "18.1921"
  },
  {
    "country_code": "HU",
    "zipcode": "7332",
    "place": "Magyaregregy",
    "state": "Baranya",
    "state_code": "BA",
    "province": "",
    "province_code": "",
    "community": "",
    "community_code": "",
    "latitude": "46.2527",
    "longitude": "18.3119"
  },
  {
    "country_code": "HU",
    "zipcode": "7333",
    "place": "Kárász",
    "state": "Baranya",
    "state_code": "BA",
    "province": "",
    "province_code": "",
    "community": "",
    "community_code": "",
    "latitude": "46.2643",
    "longitude": "18.312"
  },
  {
    "country_code": "HU",
    "zipcode": "7333",
    "place": "Vékény",
    "state": "Baranya",
    "state_code": "BA",
    "province": "",
    "province_code": "",
    "community": "",
    "community_code": "",
    "latitude": "46.2687",
    "longitude": "18.3416"
  },
  {
    "country_code": "HU",
    "zipcode": "7334",
    "place": "Szalatnak",
    "state": "Baranya",
    "state_code": "BA",
    "province": "",
    "province_code": "",
    "community": "",
    "community_code": "",
    "latitude": "46.29",
    "longitude": "18.2812"
  },
  {
    "country_code": "HU",
    "zipcode": "7334",
    "place": "Köblény",
    "state": "Baranya",
    "state_code": "BA",
    "province": "",
    "province_code": "",
    "community": "",
    "community_code": "",
    "latitude": "46.2955",
    "longitude": "18.3025"
  },
  {
    "country_code": "HU",
    "zipcode": "7342",
    "place": "Mágocs",
    "state": "Baranya",
    "state_code": "BA",
    "province": "",
    "province_code": "",
    "community": "",
    "community_code": "",
    "latitude": "46.35",
    "longitude": "18.2324"
  },
  {
    "country_code": "HU",
    "zipcode": "7343",
    "place": "Nagyhajmás",
    "state": "Baranya",
    "state_code": "BA",
    "province": "",
    "province_code": "",
    "community": "",
    "community_code": "",
    "latitude": "46.3754",
    "longitude": "18.2888"
  },
  {
    "country_code": "HU",
    "zipcode": "7344",
    "place": "Mekényes",
    "state": "Baranya",
    "state_code": "BA",
    "province": "",
    "province_code": "",
    "community": "",
    "community_code": "",
    "latitude": "46.3912",
    "longitude": "18.3334"
  },
  {
    "country_code": "HU",
    "zipcode": "7345",
    "place": "Alsómocsolád",
    "state": "Baranya",
    "state_code": "BA",
    "province": "",
    "province_code": "",
    "community": "",
    "community_code": "",
    "latitude": "46.3142",
    "longitude": "18.2479"
  },
  {
    "country_code": "HU",
    "zipcode": "7346",
    "place": "Bikal",
    "state": "Baranya",
    "state_code": "BA",
    "province": "",
    "province_code": "",
    "community": "",
    "community_code": "",
    "latitude": "46.3311",
    "longitude": "18.283"
  },
  {
    "country_code": "HU",
    "zipcode": "7347",
    "place": "Egyházaskozár",
    "state": "Baranya",
    "state_code": "BA",
    "province": "",
    "province_code": "",
    "community": "",
    "community_code": "",
    "latitude": "46.3318",
    "longitude": "18.3177"
  },
  {
    "country_code": "HU",
    "zipcode": "7348",
    "place": "Hegyhátmaróc",
    "state": "Baranya",
    "state_code": "BA",
    "province": "",
    "province_code": "",
    "community": "",
    "community_code": "",
    "latitude": "46.3112",
    "longitude": "18.3366"
  },
  {
    "country_code": "HU",
    "zipcode": "7348",
    "place": "Tófű",
    "state": "Baranya",
    "state_code": "BA",
    "province": "",
    "province_code": "",
    "community": "",
    "community_code": "",
    "latitude": "46.3111",
    "longitude": "18.3571"
  },
  {
    "country_code": "HU",
    "zipcode": "7349",
    "place": "Szászvár",
    "state": "Baranya",
    "state_code": "BA",
    "province": "",
    "province_code": "",
    "community": "",
    "community_code": "",
    "latitude": "46.2767",
    "longitude": "18.3757"
  },
  {
    "country_code": "HU",
    "zipcode": "7351",
    "place": "Máza",
    "state": "Baranya",
    "state_code": "BA",
    "province": "",
    "province_code": "",
    "community": "",
    "community_code": "",
    "latitude": "46.2674",
    "longitude": "18.3972"
  },
  {
    "country_code": "HU",
    "zipcode": "7370",
    "place": "Meződ",
    "state": "Baranya",
    "state_code": "BA",
    "province": "",
    "province_code": "",
    "community": "",
    "community_code": "",
    "latitude": "46.2904",
    "longitude": "18.1026"
  },
  {
    "country_code": "HU",
    "zipcode": "7370",
    "place": "Oroszló",
    "state": "Baranya",
    "state_code": "BA",
    "province": "",
    "province_code": "",
    "community": "",
    "community_code": "",
    "latitude": "46.2184",
    "longitude": "18.1233"
  },
  {
    "country_code": "HU",
    "zipcode": "7370",
    "place": "Vázsnok",
    "state": "Baranya",
    "state_code": "BA",
    "province": "",
    "province_code": "",
    "community": "",
    "community_code": "",
    "latitude": "46.2653",
    "longitude": "18.1248"
  },
  {
    "country_code": "HU",
    "zipcode": "7370",
    "place": "Varga",
    "state": "Baranya",
    "state_code": "BA",
    "province": "",
    "province_code": "",
    "community": "",
    "community_code": "",
    "latitude": "46.2472",
    "longitude": "18.1431"
  },
  {
    "country_code": "HU",
    "zipcode": "7370",
    "place": "Palé",
    "state": "Baranya",
    "state_code": "BA",
    "province": "",
    "province_code": "",
    "community": "",
    "community_code": "",
    "latitude": "46.2602",
    "longitude": "18.07"
  },
  {
    "country_code": "HU",
    "zipcode": "7370",
    "place": "Felsőegerszeg",
    "state": "Baranya",
    "state_code": "BA",
    "province": "",
    "province_code": "",
    "community": "",
    "community_code": "",
    "latitude": "46.2544",
    "longitude": "18.1341"
  },
  {
    "country_code": "HU",
    "zipcode": "7370",
    "place": "Sásd",
    "state": "Baranya",
    "state_code": "BA",
    "province": "",
    "province_code": "",
    "community": "",
    "community_code": "",
    "latitude": "46.2552",
    "longitude": "18.1078"
  },
  {
    "country_code": "HU",
    "zipcode": "7381",
    "place": "Tékes",
    "state": "Baranya",
    "state_code": "BA",
    "province": "",
    "province_code": "",
    "community": "",
    "community_code": "",
    "latitude": "46.2874",
    "longitude": "18.1783"
  },
  {
    "country_code": "HU",
    "zipcode": "7381",
    "place": "Ág",
    "state": "Baranya",
    "state_code": "BA",
    "province": "",
    "province_code": "",
    "community": "",
    "community_code": "",
    "latitude": "46.2833",
    "longitude": "18.2"
  },
  {
    "country_code": "HU",
    "zipcode": "7381",
    "place": "Kisvaszar",
    "state": "Baranya",
    "state_code": "BA",
    "province": "",
    "province_code": "",
    "community": "",
    "community_code": "",
    "latitude": "46.2745",
    "longitude": "18.2148"
  },
  {
    "country_code": "HU",
    "zipcode": "7383",
    "place": "Baranyaszentgyörgy",
    "state": "Baranya",
    "state_code": "BA",
    "province": "",
    "province_code": "",
    "community": "",
    "community_code": "",
    "latitude": "46.2445",
    "longitude": "18.0139"
  },
  {
    "country_code": "HU",
    "zipcode": "7383",
    "place": "Szágy",
    "state": "Baranya",
    "state_code": "BA",
    "province": "",
    "province_code": "",
    "community": "",
    "community_code": "",
    "latitude": "46.2243",
    "longitude": "17.9468"
  },
  {
    "country_code": "HU",
    "zipcode": "7383",
    "place": "Tormás",
    "state": "Baranya",
    "state_code": "BA",
    "province": "",
    "province_code": "",
    "community": "",
    "community_code": "",
    "latitude": "46.2333",
    "longitude": "18"
  },
  {
    "country_code": "HU",
    "zipcode": "7384",
    "place": "Baranyajenő",
    "state": "Baranya",
    "state_code": "BA",
    "province": "",
    "province_code": "",
    "community": "",
    "community_code": "",
    "latitude": "46.2727",
    "longitude": "18.0449"
  },
  {
    "country_code": "HU",
    "zipcode": "7385",
    "place": "Gödre",
    "state": "Baranya",
    "state_code": "BA",
    "province": "",
    "province_code": "",
    "community": "",
    "community_code": "",
    "latitude": "46.2861",
    "longitude": "17.9729"
  },
  {
    "country_code": "HU",
    "zipcode": "7386",
    "place": "Gödre",
    "state": "Baranya",
    "state_code": "BA",
    "province": "",
    "province_code": "",
    "community": "",
    "community_code": "",
    "latitude": "46.2861",
    "longitude": "17.9729"
  },
  {
    "country_code": "HU",
    "zipcode": "7391",
    "place": "Kishajmás",
    "state": "Baranya",
    "state_code": "BA",
    "province": "",
    "province_code": "",
    "community": "",
    "community_code": "",
    "latitude": "46.1993",
    "longitude": "18.0809"
  },
  {
    "country_code": "HU",
    "zipcode": "7391",
    "place": "Mindszentgodisa",
    "state": "Baranya",
    "state_code": "BA",
    "province": "",
    "province_code": "",
    "community": "",
    "community_code": "",
    "latitude": "46.2246",
    "longitude": "18.0623"
  },
  {
    "country_code": "HU",
    "zipcode": "7391",
    "place": "Kisbeszterce",
    "state": "Baranya",
    "state_code": "BA",
    "province": "",
    "province_code": "",
    "community": "",
    "community_code": "",
    "latitude": "46.2054",
    "longitude": "18.0347"
  },
  {
    "country_code": "HU",
    "zipcode": "7393",
    "place": "Bakóca",
    "state": "Baranya",
    "state_code": "BA",
    "province": "",
    "province_code": "",
    "community": "",
    "community_code": "",
    "latitude": "46.2069",
    "longitude": "18.0007"
  },
  {
    "country_code": "HU",
    "zipcode": "7394",
    "place": "Bodolyabér",
    "state": "Baranya",
    "state_code": "BA",
    "province": "",
    "province_code": "",
    "community": "",
    "community_code": "",
    "latitude": "46.2014",
    "longitude": "18.1111"
  },
  {
    "country_code": "HU",
    "zipcode": "7394",
    "place": "Magyarhertelend",
    "state": "Baranya",
    "state_code": "BA",
    "province": "",
    "province_code": "",
    "community": "",
    "community_code": "",
    "latitude": "46.1895",
    "longitude": "18.1491"
  },
  {
    "country_code": "HU",
    "zipcode": "7396",
    "place": "Magyarszék",
    "state": "Baranya",
    "state_code": "BA",
    "province": "",
    "province_code": "",
    "community": "",
    "community_code": "",
    "latitude": "46.1973",
    "longitude": "18.1973"
  },
  {
    "country_code": "HU",
    "zipcode": "7600",
    "place": "Pécs",
    "state": "Baranya",
    "state_code": "BA",
    "province": "",
    "province_code": "",
    "community": "",
    "community_code": "",
    "latitude": "46.0945",
    "longitude": "18.2268"
  },
  {
    "country_code": "HU",
    "zipcode": "7621",
    "place": "Pécs",
    "state": "Baranya",
    "state_code": "BA",
    "province": "",
    "province_code": "",
    "community": "",
    "community_code": "",
    "latitude": "46.0833",
    "longitude": "18.2333"
  },
  {
    "country_code": "HU",
    "zipcode": "7622",
    "place": "Pécs",
    "state": "Baranya",
    "state_code": "BA",
    "province": "",
    "province_code": "",
    "community": "",
    "community_code": "",
    "latitude": "46.0833",
    "longitude": "18.2333"
  },
  {
    "country_code": "HU",
    "zipcode": "7623",
    "place": "Pécs",
    "state": "Baranya",
    "state_code": "BA",
    "province": "",
    "province_code": "",
    "community": "",
    "community_code": "",
    "latitude": "46.0833",
    "longitude": "18.2333"
  },
  {
    "country_code": "HU",
    "zipcode": "7624",
    "place": "Pécs",
    "state": "Baranya",
    "state_code": "BA",
    "province": "",
    "province_code": "",
    "community": "",
    "community_code": "",
    "latitude": "46.0833",
    "longitude": "18.2333"
  },
  {
    "country_code": "HU",
    "zipcode": "7625",
    "place": "Pécs",
    "state": "Baranya",
    "state_code": "BA",
    "province": "",
    "province_code": "",
    "community": "",
    "community_code": "",
    "latitude": "46.0833",
    "longitude": "18.2333"
  },
  {
    "country_code": "HU",
    "zipcode": "7626",
    "place": "Pécs",
    "state": "Baranya",
    "state_code": "BA",
    "province": "",
    "province_code": "",
    "community": "",
    "community_code": "",
    "latitude": "46.0833",
    "longitude": "18.2333"
  },
  {
    "country_code": "HU",
    "zipcode": "7627",
    "place": "Pécs",
    "state": "Baranya",
    "state_code": "BA",
    "province": "",
    "province_code": "",
    "community": "",
    "community_code": "",
    "latitude": "46.0833",
    "longitude": "18.2333"
  },
  {
    "country_code": "HU",
    "zipcode": "7628",
    "place": "Pécs",
    "state": "Baranya",
    "state_code": "BA",
    "province": "",
    "province_code": "",
    "community": "",
    "community_code": "",
    "latitude": "46.0833",
    "longitude": "18.2333"
  },
  {
    "country_code": "HU",
    "zipcode": "7629",
    "place": "Pécs",
    "state": "Baranya",
    "state_code": "BA",
    "province": "",
    "province_code": "",
    "community": "",
    "community_code": "",
    "latitude": "46.0833",
    "longitude": "18.2333"
  },
  {
    "country_code": "HU",
    "zipcode": "7630",
    "place": "Pécs",
    "state": "Baranya",
    "state_code": "BA",
    "province": "",
    "province_code": "",
    "community": "",
    "community_code": "",
    "latitude": "46.0833",
    "longitude": "18.2333"
  },
  {
    "country_code": "HU",
    "zipcode": "7631",
    "place": "Pécs",
    "state": "Baranya",
    "state_code": "BA",
    "province": "",
    "province_code": "",
    "community": "",
    "community_code": "",
    "latitude": "46.0833",
    "longitude": "18.2333"
  },
  {
    "country_code": "HU",
    "zipcode": "7632",
    "place": "Pécs",
    "state": "Baranya",
    "state_code": "BA",
    "province": "",
    "province_code": "",
    "community": "",
    "community_code": "",
    "latitude": "46.0833",
    "longitude": "18.2333"
  },
  {
    "country_code": "HU",
    "zipcode": "7633",
    "place": "Pécs",
    "state": "Baranya",
    "state_code": "BA",
    "province": "",
    "province_code": "",
    "community": "",
    "community_code": "",
    "latitude": "46.0833",
    "longitude": "18.2333"
  },
  {
    "country_code": "HU",
    "zipcode": "7634",
    "place": "Pécs",
    "state": "Baranya",
    "state_code": "BA",
    "province": "",
    "province_code": "",
    "community": "",
    "community_code": "",
    "latitude": "46.0833",
    "longitude": "18.2333"
  },
  {
    "country_code": "HU",
    "zipcode": "7635",
    "place": "Pécs",
    "state": "Baranya",
    "state_code": "BA",
    "province": "",
    "province_code": "",
    "community": "",
    "community_code": "",
    "latitude": "46.0833",
    "longitude": "18.2333"
  },
  {
    "country_code": "HU",
    "zipcode": "7636",
    "place": "Pécs",
    "state": "Baranya",
    "state_code": "BA",
    "province": "",
    "province_code": "",
    "community": "",
    "community_code": "",
    "latitude": "46.0833",
    "longitude": "18.2333"
  },
  {
    "country_code": "HU",
    "zipcode": "7639",
    "place": "Pécs",
    "state": "Baranya",
    "state_code": "BA",
    "province": "",
    "province_code": "",
    "community": "",
    "community_code": "",
    "latitude": "46.0833",
    "longitude": "18.2333"
  },
  {
    "country_code": "HU",
    "zipcode": "7639",
    "place": "Kökény",
    "state": "Baranya",
    "state_code": "BA",
    "province": "",
    "province_code": "",
    "community": "",
    "community_code": "",
    "latitude": "46.0008",
    "longitude": "18.2049"
  },
  {
    "country_code": "HU",
    "zipcode": "7661",
    "place": "Erzsébet",
    "state": "Baranya",
    "state_code": "BA",
    "province": "",
    "province_code": "",
    "community": "",
    "community_code": "",
    "latitude": "46.1004",
    "longitude": "18.4567"
  },
  {
    "country_code": "HU",
    "zipcode": "7661",
    "place": "Kátoly",
    "state": "Baranya",
    "state_code": "BA",
    "province": "",
    "province_code": "",
    "community": "",
    "community_code": "",
    "latitude": "46.0596",
    "longitude": "18.4517"
  },
  {
    "country_code": "HU",
    "zipcode": "7661",
    "place": "Kékesd",
    "state": "Baranya",
    "state_code": "BA",
    "province": "",
    "province_code": "",
    "community": "",
    "community_code": "",
    "latitude": "46.1025",
    "longitude": "18.4732"
  },
  {
    "country_code": "HU",
    "zipcode": "7661",
    "place": "Szellő",
    "state": "Baranya",
    "state_code": "BA",
    "province": "",
    "province_code": "",
    "community": "",
    "community_code": "",
    "latitude": "46.0735",
    "longitude": "18.4611"
  },
  {
    "country_code": "HU",
    "zipcode": "7663",
    "place": "Máriakéménd",
    "state": "Baranya",
    "state_code": "BA",
    "province": "",
    "province_code": "",
    "community": "",
    "community_code": "",
    "latitude": "46.027",
    "longitude": "18.4618"
  },
  {
    "country_code": "HU",
    "zipcode": "7664",
    "place": "Pereked",
    "state": "Baranya",
    "state_code": "BA",
    "province": "",
    "province_code": "",
    "community": "",
    "community_code": "",
    "latitude": "46.0937",
    "longitude": "18.3765"
  },
  {
    "country_code": "HU",
    "zipcode": "7664",
    "place": "Szilágy",
    "state": "Baranya",
    "state_code": "BA",
    "province": "",
    "province_code": "",
    "community": "",
    "community_code": "",
    "latitude": "46.1012",
    "longitude": "18.4074"
  },
  {
    "country_code": "HU",
    "zipcode": "7664",
    "place": "Berkesd",
    "state": "Baranya",
    "state_code": "BA",
    "province": "",
    "province_code": "",
    "community": "",
    "community_code": "",
    "latitude": "46.0757",
    "longitude": "18.4088"
  },
  {
    "country_code": "HU",
    "zipcode": "7666",
    "place": "Pogány",
    "state": "Baranya",
    "state_code": "BA",
    "province": "",
    "province_code": "",
    "community": "",
    "community_code": "",
    "latitude": "45.98",
    "longitude": "18.26"
  },
  {
    "country_code": "HU",
    "zipcode": "7668",
    "place": "Gyód",
    "state": "Baranya",
    "state_code": "BA",
    "province": "",
    "province_code": "",
    "community": "",
    "community_code": "",
    "latitude": "45.9958",
    "longitude": "18.1786"
  },
  {
    "country_code": "HU",
    "zipcode": "7668",
    "place": "Keszü",
    "state": "Baranya",
    "state_code": "BA",
    "province": "",
    "province_code": "",
    "community": "",
    "community_code": "",
    "latitude": "46.0151",
    "longitude": "18.1901"
  },
  {
    "country_code": "HU",
    "zipcode": "7668",
    "place": "Pécs",
    "state": "Baranya",
    "state_code": "BA",
    "province": "",
    "province_code": "",
    "community": "",
    "community_code": "",
    "latitude": "46.0833",
    "longitude": "18.2333"
  },
  {
    "country_code": "HU",
    "zipcode": "7671",
    "place": "Zók",
    "state": "Baranya",
    "state_code": "BA",
    "province": "",
    "province_code": "",
    "community": "",
    "community_code": "",
    "latitude": "46.0093",
    "longitude": "18.0969"
  },
  {
    "country_code": "HU",
    "zipcode": "7671",
    "place": "Aranyosgadány",
    "state": "Baranya",
    "state_code": "BA",
    "province": "",
    "province_code": "",
    "community": "",
    "community_code": "",
    "latitude": "46.0063",
    "longitude": "18.1206"
  },
  {
    "country_code": "HU",
    "zipcode": "7671",
    "place": "Bicsérd",
    "state": "Baranya",
    "state_code": "BA",
    "province": "",
    "province_code": "",
    "community": "",
    "community_code": "",
    "latitude": "46.0229",
    "longitude": "18.0813"
  },
  {
    "country_code": "HU",
    "zipcode": "7672",
    "place": "Boda",
    "state": "Baranya",
    "state_code": "BA",
    "province": "",
    "province_code": "",
    "community": "",
    "community_code": "",
    "latitude": "46.0806",
    "longitude": "18.049"
  },
  {
    "country_code": "HU",
    "zipcode": "7673",
    "place": "Cserkút",
    "state": "Baranya",
    "state_code": "BA",
    "province": "",
    "province_code": "",
    "community": "",
    "community_code": "",
    "latitude": "46.0757",
    "longitude": "18.135"
  },
  {
    "country_code": "HU",
    "zipcode": "7673",
    "place": "Kővágószőlős",
    "state": "Baranya",
    "state_code": "BA",
    "province": "",
    "province_code": "",
    "community": "",
    "community_code": "",
    "latitude": "46.0841",
    "longitude": "18.1267"
  },
  {
    "country_code": "HU",
    "zipcode": "7675",
    "place": "Kővágótöttös",
    "state": "Baranya",
    "state_code": "BA",
    "province": "",
    "province_code": "",
    "community": "",
    "community_code": "",
    "latitude": "46.0852",
    "longitude": "18.0831"
  },
  {
    "country_code": "HU",
    "zipcode": "7675",
    "place": "Bakonya",
    "state": "Baranya",
    "state_code": "BA",
    "province": "",
    "province_code": "",
    "community": "",
    "community_code": "",
    "latitude": "46.0852",
    "longitude": "18.0831"
  },
  {
    "country_code": "HU",
    "zipcode": "7677",
    "place": "Orfű",
    "state": "Baranya",
    "state_code": "BA",
    "province": "",
    "province_code": "",
    "community": "",
    "community_code": "",
    "latitude": "46.1333",
    "longitude": "18.15"
  },
  {
    "country_code": "HU",
    "zipcode": "7678",
    "place": "Abaliget",
    "state": "Baranya",
    "state_code": "BA",
    "province": "",
    "province_code": "",
    "community": "",
    "community_code": "",
    "latitude": "46.1426",
    "longitude": "18.1168"
  },
  {
    "country_code": "HU",
    "zipcode": "7678",
    "place": "Husztót",
    "state": "Baranya",
    "state_code": "BA",
    "province": "",
    "province_code": "",
    "community": "",
    "community_code": "",
    "latitude": "46.1667",
    "longitude": "18.0833"
  },
  {
    "country_code": "HU",
    "zipcode": "7678",
    "place": "Kovácsszénája",
    "state": "Baranya",
    "state_code": "BA",
    "province": "",
    "province_code": "",
    "community": "",
    "community_code": "",
    "latitude": "46.171",
    "longitude": "18.1097"
  },
  {
    "country_code": "HU",
    "zipcode": "7681",
    "place": "Szentkatalin",
    "state": "Baranya",
    "state_code": "BA",
    "province": "",
    "province_code": "",
    "community": "",
    "community_code": "",
    "latitude": "46.174",
    "longitude": "18.0501"
  },
  {
    "country_code": "HU",
    "zipcode": "7681",
    "place": "Okorvölgy",
    "state": "Baranya",
    "state_code": "BA",
    "province": "",
    "province_code": "",
    "community": "",
    "community_code": "",
    "latitude": "46.1524",
    "longitude": "18.0589"
  },
  {
    "country_code": "HU",
    "zipcode": "7681",
    "place": "Hetvehely",
    "state": "Baranya",
    "state_code": "BA",
    "province": "",
    "province_code": "",
    "community": "",
    "community_code": "",
    "latitude": "46.1331",
    "longitude": "18.0438"
  },
  {
    "country_code": "HU",
    "zipcode": "7682",
    "place": "Bükkösd",
    "state": "Baranya",
    "state_code": "BA",
    "province": "",
    "province_code": "",
    "community": "",
    "community_code": "",
    "latitude": "46.1075",
    "longitude": "17.9882"
  },
  {
    "country_code": "HU",
    "zipcode": "7683",
    "place": "Helesfa",
    "state": "Baranya",
    "state_code": "BA",
    "province": "",
    "province_code": "",
    "community": "",
    "community_code": "",
    "latitude": "46.0898",
    "longitude": "17.976"
  },
  {
    "country_code": "HU",
    "zipcode": "7683",
    "place": "Dinnyeberki",
    "state": "Baranya",
    "state_code": "BA",
    "province": "",
    "province_code": "",
    "community": "",
    "community_code": "",
    "latitude": "46.0977",
    "longitude": "17.9566"
  },
  {
    "country_code": "HU",
    "zipcode": "7683",
    "place": "Cserdi",
    "state": "Baranya",
    "state_code": "BA",
    "province": "",
    "province_code": "",
    "community": "",
    "community_code": "",
    "latitude": "46.0831",
    "longitude": "17.9904"
  },
  {
    "country_code": "HU",
    "zipcode": "7691",
    "place": "Pécs",
    "state": "Baranya",
    "state_code": "BA",
    "province": "",
    "province_code": "",
    "community": "",
    "community_code": "",
    "latitude": "46.0833",
    "longitude": "18.2333"
  },
  {
    "country_code": "HU",
    "zipcode": "7693",
    "place": "Pécs",
    "state": "Baranya",
    "state_code": "BA",
    "province": "",
    "province_code": "",
    "community": "",
    "community_code": "",
    "latitude": "46.0833",
    "longitude": "18.2333"
  },
  {
    "country_code": "HU",
    "zipcode": "7694",
    "place": "Hosszúhetény",
    "state": "Baranya",
    "state_code": "BA",
    "province": "",
    "province_code": "",
    "community": "",
    "community_code": "",
    "latitude": "46.1641",
    "longitude": "18.3508"
  },
  {
    "country_code": "HU",
    "zipcode": "7695",
    "place": "Mecseknádasd",
    "state": "Baranya",
    "state_code": "BA",
    "province": "",
    "province_code": "",
    "community": "",
    "community_code": "",
    "latitude": "46.2247",
    "longitude": "18.4708"
  },
  {
    "country_code": "HU",
    "zipcode": "7695",
    "place": "Ófalu",
    "state": "Baranya",
    "state_code": "BA",
    "province": "",
    "province_code": "",
    "community": "",
    "community_code": "",
    "latitude": "46.2208",
    "longitude": "18.5324"
  },
  {
    "country_code": "HU",
    "zipcode": "7695",
    "place": "Óbánya",
    "state": "Baranya",
    "state_code": "BA",
    "province": "",
    "province_code": "",
    "community": "",
    "community_code": "",
    "latitude": "46.221",
    "longitude": "18.4103"
  },
  {
    "country_code": "HU",
    "zipcode": "7696",
    "place": "Hidas",
    "state": "Baranya",
    "state_code": "BA",
    "province": "",
    "province_code": "",
    "community": "",
    "community_code": "",
    "latitude": "46.2568",
    "longitude": "18.4954"
  },
  {
    "country_code": "HU",
    "zipcode": "7700",
    "place": "Mohács",
    "state": "Baranya",
    "state_code": "BA",
    "province": "",
    "province_code": "",
    "community": "",
    "community_code": "",
    "latitude": "45.9902",
    "longitude": "18.6862"
  },
  {
    "country_code": "HU",
    "zipcode": "7711",
    "place": "Bár",
    "state": "Baranya",
    "state_code": "BA",
    "province": "",
    "province_code": "",
    "community": "",
    "community_code": "",
    "latitude": "46.0531",
    "longitude": "18.7164"
  },
  {
    "country_code": "HU",
    "zipcode": "7712",
    "place": "Dunaszekcső",
    "state": "Baranya",
    "state_code": "BA",
    "province": "",
    "province_code": "",
    "community": "",
    "community_code": "",
    "latitude": "46.0874",
    "longitude": "18.7587"
  },
  {
    "country_code": "HU",
    "zipcode": "7714",
    "place": "Mohács",
    "state": "Baranya",
    "state_code": "BA",
    "province": "",
    "province_code": "",
    "community": "",
    "community_code": "",
    "latitude": "45.9902",
    "longitude": "18.6862"
  },
  {
    "country_code": "HU",
    "zipcode": "7715",
    "place": "Mohács",
    "state": "Baranya",
    "state_code": "BA",
    "province": "",
    "province_code": "",
    "community": "",
    "community_code": "",
    "latitude": "45.9902",
    "longitude": "18.6862"
  },
  {
    "country_code": "HU",
    "zipcode": "7716",
    "place": "Homorúd",
    "state": "Baranya",
    "state_code": "BA",
    "province": "",
    "province_code": "",
    "community": "",
    "community_code": "",
    "latitude": "45.9814",
    "longitude": "18.7922"
  },
  {
    "country_code": "HU",
    "zipcode": "7717",
    "place": "Kölked",
    "state": "Baranya",
    "state_code": "BA",
    "province": "",
    "province_code": "",
    "community": "",
    "community_code": "",
    "latitude": "45.9503",
    "longitude": "18.7078"
  },
  {
    "country_code": "HU",
    "zipcode": "7718",
    "place": "Udvar",
    "state": "Baranya",
    "state_code": "BA",
    "province": "",
    "province_code": "",
    "community": "",
    "community_code": "",
    "latitude": "45.9006",
    "longitude": "18.6597"
  },
  {
    "country_code": "HU",
    "zipcode": "7720",
    "place": "Lovászhetény",
    "state": "Baranya",
    "state_code": "BA",
    "province": "",
    "province_code": "",
    "community": "",
    "community_code": "",
    "latitude": "46.1559",
    "longitude": "18.4739"
  },
  {
    "country_code": "HU",
    "zipcode": "7720",
    "place": "Apátvarasd",
    "state": "Baranya",
    "state_code": "BA",
    "province": "",
    "province_code": "",
    "community": "",
    "community_code": "",
    "latitude": "46.1868",
    "longitude": "18.4804"
  },
  {
    "country_code": "HU",
    "zipcode": "7720",
    "place": "Zengővárkony",
    "state": "Baranya",
    "state_code": "BA",
    "province": "",
    "province_code": "",
    "community": "",
    "community_code": "",
    "latitude": "46.1726",
    "longitude": "18.432"
  },
  {
    "country_code": "HU",
    "zipcode": "7720",
    "place": "Martonfa",
    "state": "Baranya",
    "state_code": "BA",
    "province": "",
    "province_code": "",
    "community": "",
    "community_code": "",
    "latitude": "46.1163",
    "longitude": "18.3718"
  },
  {
    "country_code": "HU",
    "zipcode": "7720",
    "place": "Pécsvárad",
    "state": "Baranya",
    "state_code": "BA",
    "province": "",
    "province_code": "",
    "community": "",
    "community_code": "",
    "latitude": "46.1603",
    "longitude": "18.4232"
  },
  {
    "country_code": "HU",
    "zipcode": "7723",
    "place": "Erdősmecske",
    "state": "Baranya",
    "state_code": "BA",
    "province": "",
    "province_code": "",
    "community": "",
    "community_code": "",
    "latitude": "46.1773",
    "longitude": "18.5114"
  },
  {
    "country_code": "HU",
    "zipcode": "7724",
    "place": "Feked",
    "state": "Baranya",
    "state_code": "BA",
    "province": "",
    "province_code": "",
    "community": "",
    "community_code": "",
    "latitude": "46.1619",
    "longitude": "18.5588"
  },
  {
    "country_code": "HU",
    "zipcode": "7725",
    "place": "Szebény",
    "state": "Baranya",
    "state_code": "BA",
    "province": "",
    "province_code": "",
    "community": "",
    "community_code": "",
    "latitude": "46.1315",
    "longitude": "18.5859"
  },
  {
    "country_code": "HU",
    "zipcode": "7726",
    "place": "Véménd",
    "state": "Baranya",
    "state_code": "BA",
    "province": "",
    "province_code": "",
    "community": "",
    "community_code": "",
    "latitude": "46.1563",
    "longitude": "18.6153"
  },
  {
    "country_code": "HU",
    "zipcode": "7727",
    "place": "Palotabozsok",
    "state": "Baranya",
    "state_code": "BA",
    "province": "",
    "province_code": "",
    "community": "",
    "community_code": "",
    "latitude": "46.1269",
    "longitude": "18.642"
  },
  {
    "country_code": "HU",
    "zipcode": "7728",
    "place": "Somberek",
    "state": "Baranya",
    "state_code": "BA",
    "province": "",
    "province_code": "",
    "community": "",
    "community_code": "",
    "latitude": "46.0805",
    "longitude": "18.6589"
  },
  {
    "country_code": "HU",
    "zipcode": "7728",
    "place": "Görcsönydoboka",
    "state": "Baranya",
    "state_code": "BA",
    "province": "",
    "province_code": "",
    "community": "",
    "community_code": "",
    "latitude": "46.071",
    "longitude": "18.627"
  },
  {
    "country_code": "HU",
    "zipcode": "7731",
    "place": "Nagypall",
    "state": "Baranya",
    "state_code": "BA",
    "province": "",
    "province_code": "",
    "community": "",
    "community_code": "",
    "latitude": "46.1443",
    "longitude": "18.4558"
  },
  {
    "country_code": "HU",
    "zipcode": "7732",
    "place": "Fazekasboda",
    "state": "Baranya",
    "state_code": "BA",
    "province": "",
    "province_code": "",
    "community": "",
    "community_code": "",
    "latitude": "46.1245",
    "longitude": "18.4842"
  },
  {
    "country_code": "HU",
    "zipcode": "7733",
    "place": "Geresdlak",
    "state": "Baranya",
    "state_code": "BA",
    "province": "",
    "province_code": "",
    "community": "",
    "community_code": "",
    "latitude": "46.1084",
    "longitude": "18.5236"
  },
  {
    "country_code": "HU",
    "zipcode": "7733",
    "place": "Maráza",
    "state": "Baranya",
    "state_code": "BA",
    "province": "",
    "province_code": "",
    "community": "",
    "community_code": "",
    "latitude": "46.0753",
    "longitude": "18.5133"
  },
  {
    "country_code": "HU",
    "zipcode": "7735",
    "place": "Erdősmárok",
    "state": "Baranya",
    "state_code": "BA",
    "province": "",
    "province_code": "",
    "community": "",
    "community_code": "",
    "latitude": "46.0567",
    "longitude": "18.5451"
  },
  {
    "country_code": "HU",
    "zipcode": "7735",
    "place": "Szűr",
    "state": "Baranya",
    "state_code": "BA",
    "province": "",
    "province_code": "",
    "community": "",
    "community_code": "",
    "latitude": "46.1",
    "longitude": "18.5833"
  },
  {
    "country_code": "HU",
    "zipcode": "7735",
    "place": "Himesháza",
    "state": "Baranya",
    "state_code": "BA",
    "province": "",
    "province_code": "",
    "community": "",
    "community_code": "",
    "latitude": "46.0882",
    "longitude": "18.57"
  },
  {
    "country_code": "HU",
    "zipcode": "7737",
    "place": "Székelyszabar",
    "state": "Baranya",
    "state_code": "BA",
    "province": "",
    "province_code": "",
    "community": "",
    "community_code": "",
    "latitude": "46.0445",
    "longitude": "18.604"
  },
  {
    "country_code": "HU",
    "zipcode": "7741",
    "place": "Nagykozár",
    "state": "Baranya",
    "state_code": "BA",
    "province": "",
    "province_code": "",
    "community": "",
    "community_code": "",
    "latitude": "46.066",
    "longitude": "18.3199"
  },
  {
    "country_code": "HU",
    "zipcode": "7742",
    "place": "Bogád",
    "state": "Baranya",
    "state_code": "BA",
    "province": "",
    "province_code": "",
    "community": "",
    "community_code": "",
    "latitude": "46.0873",
    "longitude": "18.3231"
  },
  {
    "country_code": "HU",
    "zipcode": "7743",
    "place": "Romonya",
    "state": "Baranya",
    "state_code": "BA",
    "province": "",
    "province_code": "",
    "community": "",
    "community_code": "",
    "latitude": "46.0872",
    "longitude": "18.3394"
  },
  {
    "country_code": "HU",
    "zipcode": "7744",
    "place": "Ellend",
    "state": "Baranya",
    "state_code": "BA",
    "province": "",
    "province_code": "",
    "community": "",
    "community_code": "",
    "latitude": "46.0597",
    "longitude": "18.3754"
  },
  {
    "country_code": "HU",
    "zipcode": "7745",
    "place": "Hásságy",
    "state": "Baranya",
    "state_code": "BA",
    "province": "",
    "province_code": "",
    "community": "",
    "community_code": "",
    "latitude": "46.0347",
    "longitude": "18.3872"
  },
  {
    "country_code": "HU",
    "zipcode": "7745",
    "place": "Olasz",
    "state": "Baranya",
    "state_code": "BA",
    "province": "",
    "province_code": "",
    "community": "",
    "community_code": "",
    "latitude": "46.0096",
    "longitude": "18.4144"
  },
  {
    "country_code": "HU",
    "zipcode": "7747",
    "place": "Belvárdgyula",
    "state": "Baranya",
    "state_code": "BA",
    "province": "",
    "province_code": "",
    "community": "",
    "community_code": "",
    "latitude": "45.973",
    "longitude": "18.4329"
  },
  {
    "country_code": "HU",
    "zipcode": "7747",
    "place": "Birján",
    "state": "Baranya",
    "state_code": "BA",
    "province": "",
    "province_code": "",
    "community": "",
    "community_code": "",
    "latitude": "45.9979",
    "longitude": "18.375"
  },
  {
    "country_code": "HU",
    "zipcode": "7751",
    "place": "Monyoród",
    "state": "Baranya",
    "state_code": "BA",
    "province": "",
    "province_code": "",
    "community": "",
    "community_code": "",
    "latitude": "46.0104",
    "longitude": "18.4764"
  },
  {
    "country_code": "HU",
    "zipcode": "7751",
    "place": "Szederkény",
    "state": "Baranya",
    "state_code": "BA",
    "province": "",
    "province_code": "",
    "community": "",
    "community_code": "",
    "latitude": "46.0007",
    "longitude": "18.4484"
  },
  {
    "country_code": "HU",
    "zipcode": "7752",
    "place": "Versend",
    "state": "Baranya",
    "state_code": "BA",
    "province": "",
    "province_code": "",
    "community": "",
    "community_code": "",
    "latitude": "45.9964",
    "longitude": "18.5117"
  },
  {
    "country_code": "HU",
    "zipcode": "7753",
    "place": "Szajk",
    "state": "Baranya",
    "state_code": "BA",
    "province": "",
    "province_code": "",
    "community": "",
    "community_code": "",
    "latitude": "45.9927",
    "longitude": "18.5346"
  },
  {
    "country_code": "HU",
    "zipcode": "7754",
    "place": "Bóly",
    "state": "Baranya",
    "state_code": "BA",
    "province": "",
    "province_code": "",
    "community": "",
    "community_code": "",
    "latitude": "45.9672",
    "longitude": "18.5183"
  },
  {
    "country_code": "HU",
    "zipcode": "7755",
    "place": "Töttös",
    "state": "Baranya",
    "state_code": "BA",
    "province": "",
    "province_code": "",
    "community": "",
    "community_code": "",
    "latitude": "45.9156",
    "longitude": "18.5422"
  },
  {
    "country_code": "HU",
    "zipcode": "7756",
    "place": "Nagybudmér",
    "state": "Baranya",
    "state_code": "BA",
    "province": "",
    "province_code": "",
    "community": "",
    "community_code": "",
    "latitude": "45.9361",
    "longitude": "18.4456"
  },
  {
    "country_code": "HU",
    "zipcode": "7756",
    "place": "Pócsa",
    "state": "Baranya",
    "state_code": "BA",
    "province": "",
    "province_code": "",
    "community": "",
    "community_code": "",
    "latitude": "45.9097",
    "longitude": "18.4708"
  },
  {
    "country_code": "HU",
    "zipcode": "7756",
    "place": "Kisbudmér",
    "state": "Baranya",
    "state_code": "BA",
    "province": "",
    "province_code": "",
    "community": "",
    "community_code": "",
    "latitude": "45.9125",
    "longitude": "18.4475"
  },
  {
    "country_code": "HU",
    "zipcode": "7756",
    "place": "Borjád",
    "state": "Baranya",
    "state_code": "BA",
    "province": "",
    "province_code": "",
    "community": "",
    "community_code": "",
    "latitude": "45.9339",
    "longitude": "18.4672"
  },
  {
    "country_code": "HU",
    "zipcode": "7757",
    "place": "Babarc",
    "state": "Baranya",
    "state_code": "BA",
    "province": "",
    "province_code": "",
    "community": "",
    "community_code": "",
    "latitude": "46.0042",
    "longitude": "18.5518"
  },
  {
    "country_code": "HU",
    "zipcode": "7757",
    "place": "Liptód",
    "state": "Baranya",
    "state_code": "BA",
    "province": "",
    "province_code": "",
    "community": "",
    "community_code": "",
    "latitude": "46.0457",
    "longitude": "18.5163"
  },
  {
    "country_code": "HU",
    "zipcode": "7759",
    "place": "Lánycsók",
    "state": "Baranya",
    "state_code": "BA",
    "province": "",
    "province_code": "",
    "community": "",
    "community_code": "",
    "latitude": "46.0054",
    "longitude": "18.6253"
  },
  {
    "country_code": "HU",
    "zipcode": "7759",
    "place": "Kisnyárád",
    "state": "Baranya",
    "state_code": "BA",
    "province": "",
    "province_code": "",
    "community": "",
    "community_code": "",
    "latitude": "46.0357",
    "longitude": "18.5664"
  },
  {
    "country_code": "HU",
    "zipcode": "7761",
    "place": "Magyarsarlós",
    "state": "Baranya",
    "state_code": "BA",
    "province": "",
    "province_code": "",
    "community": "",
    "community_code": "",
    "latitude": "46.042",
    "longitude": "18.3533"
  },
  {
    "country_code": "HU",
    "zipcode": "7761",
    "place": "Kozármisleny",
    "state": "Baranya",
    "state_code": "BA",
    "province": "",
    "province_code": "",
    "community": "",
    "community_code": "",
    "latitude": "46.0297",
    "longitude": "18.2921"
  },
  {
    "country_code": "HU",
    "zipcode": "7761",
    "place": "Lothárd",
    "state": "Baranya",
    "state_code": "BA",
    "province": "",
    "province_code": "",
    "community": "",
    "community_code": "",
    "latitude": "46.0016",
    "longitude": "18.354"
  },
  {
    "country_code": "HU",
    "zipcode": "7762",
    "place": "Pécsudvard",
    "state": "Baranya",
    "state_code": "BA",
    "province": "",
    "province_code": "",
    "community": "",
    "community_code": "",
    "latitude": "46.0111",
    "longitude": "18.2734"
  },
  {
    "country_code": "HU",
    "zipcode": "7763",
    "place": "Egerág",
    "state": "Baranya",
    "state_code": "BA",
    "province": "",
    "province_code": "",
    "community": "",
    "community_code": "",
    "latitude": "45.9839",
    "longitude": "18.3047"
  },
  {
    "country_code": "HU",
    "zipcode": "7763",
    "place": "Szemely",
    "state": "Baranya",
    "state_code": "BA",
    "province": "",
    "province_code": "",
    "community": "",
    "community_code": "",
    "latitude": "46.0072",
    "longitude": "18.3281"
  },
  {
    "country_code": "HU",
    "zipcode": "7763",
    "place": "Áta",
    "state": "Baranya",
    "state_code": "BA",
    "province": "",
    "province_code": "",
    "community": "",
    "community_code": "",
    "latitude": "45.939",
    "longitude": "18.2985"
  },
  {
    "country_code": "HU",
    "zipcode": "7763",
    "place": "Szőkéd",
    "state": "Baranya",
    "state_code": "BA",
    "province": "",
    "province_code": "",
    "community": "",
    "community_code": "",
    "latitude": "45.9661",
    "longitude": "18.2882"
  },
  {
    "country_code": "HU",
    "zipcode": "7763",
    "place": "Kisherend",
    "state": "Baranya",
    "state_code": "BA",
    "province": "",
    "province_code": "",
    "community": "",
    "community_code": "",
    "latitude": "45.9661",
    "longitude": "18.3297"
  },
  {
    "country_code": "HU",
    "zipcode": "7766",
    "place": "Peterd",
    "state": "Baranya",
    "state_code": "BA",
    "province": "",
    "province_code": "",
    "community": "",
    "community_code": "",
    "latitude": "45.9729",
    "longitude": "18.3603"
  },
  {
    "country_code": "HU",
    "zipcode": "7766",
    "place": "Pécsdevecser",
    "state": "Baranya",
    "state_code": "BA",
    "province": "",
    "province_code": "",
    "community": "",
    "community_code": "",
    "latitude": "45.9593",
    "longitude": "18.3844"
  },
  {
    "country_code": "HU",
    "zipcode": "7766",
    "place": "Kiskassa",
    "state": "Baranya",
    "state_code": "BA",
    "province": "",
    "province_code": "",
    "community": "",
    "community_code": "",
    "latitude": "45.9531",
    "longitude": "18.3978"
  },
  {
    "country_code": "HU",
    "zipcode": "7766",
    "place": "Újpetre",
    "state": "Baranya",
    "state_code": "BA",
    "province": "",
    "province_code": "",
    "community": "",
    "community_code": "",
    "latitude": "45.9367",
    "longitude": "18.3625"
  },
  {
    "country_code": "HU",
    "zipcode": "7768",
    "place": "Vokány",
    "state": "Baranya",
    "state_code": "BA",
    "province": "",
    "province_code": "",
    "community": "",
    "community_code": "",
    "latitude": "45.9094",
    "longitude": "18.3361"
  },
  {
    "country_code": "HU",
    "zipcode": "7768",
    "place": "Kistótfalu",
    "state": "Baranya",
    "state_code": "BA",
    "province": "",
    "province_code": "",
    "community": "",
    "community_code": "",
    "latitude": "45.9079",
    "longitude": "18.308"
  },
  {
    "country_code": "HU",
    "zipcode": "7771",
    "place": "Palkonya",
    "state": "Baranya",
    "state_code": "BA",
    "province": "",
    "province_code": "",
    "community": "",
    "community_code": "",
    "latitude": "45.8967",
    "longitude": "18.3898"
  },
  {
    "country_code": "HU",
    "zipcode": "7772",
    "place": "Ivánbattyán",
    "state": "Baranya",
    "state_code": "BA",
    "province": "",
    "province_code": "",
    "community": "",
    "community_code": "",
    "latitude": "45.9072",
    "longitude": "18.4181"
  },
  {
    "country_code": "HU",
    "zipcode": "7772",
    "place": "Villánykövesd",
    "state": "Baranya",
    "state_code": "BA",
    "province": "",
    "province_code": "",
    "community": "",
    "community_code": "",
    "latitude": "45.8822",
    "longitude": "18.4253"
  },
  {
    "country_code": "HU",
    "zipcode": "7773",
    "place": "Kisjakabfalva",
    "state": "Baranya",
    "state_code": "BA",
    "province": "",
    "province_code": "",
    "community": "",
    "community_code": "",
    "latitude": "45.8975",
    "longitude": "18.4336"
  },
  {
    "country_code": "HU",
    "zipcode": "7773",
    "place": "Villány",
    "state": "Baranya",
    "state_code": "BA",
    "province": "",
    "province_code": "",
    "community": "",
    "community_code": "",
    "latitude": "45.8689",
    "longitude": "18.4539"
  },
  {
    "country_code": "HU",
    "zipcode": "7774",
    "place": "Márok",
    "state": "Baranya",
    "state_code": "BA",
    "province": "",
    "province_code": "",
    "community": "",
    "community_code": "",
    "latitude": "45.8742",
    "longitude": "18.5088"
  },
  {
    "country_code": "HU",
    "zipcode": "7775",
    "place": "Illocska",
    "state": "Baranya",
    "state_code": "BA",
    "province": "",
    "province_code": "",
    "community": "",
    "community_code": "",
    "latitude": "45.8006",
    "longitude": "18.5232"
  },
  {
    "country_code": "HU",
    "zipcode": "7775",
    "place": "Lapáncsa",
    "state": "Baranya",
    "state_code": "BA",
    "province": "",
    "province_code": "",
    "community": "",
    "community_code": "",
    "latitude": "45.8192",
    "longitude": "18.4978"
  },
  {
    "country_code": "HU",
    "zipcode": "7775",
    "place": "Magyarbóly",
    "state": "Baranya",
    "state_code": "BA",
    "province": "",
    "province_code": "",
    "community": "",
    "community_code": "",
    "latitude": "45.8456",
    "longitude": "18.4873"
  },
  {
    "country_code": "HU",
    "zipcode": "7775",
    "place": "Kislippó",
    "state": "Baranya",
    "state_code": "BA",
    "province": "",
    "province_code": "",
    "community": "",
    "community_code": "",
    "latitude": "45.8288",
    "longitude": "18.5343"
  },
  {
    "country_code": "HU",
    "zipcode": "7781",
    "place": "Lippó",
    "state": "Baranya",
    "state_code": "BA",
    "province": "",
    "province_code": "",
    "community": "",
    "community_code": "",
    "latitude": "45.8628",
    "longitude": "18.57"
  },
  {
    "country_code": "HU",
    "zipcode": "7781",
    "place": "Ivándárda",
    "state": "Baranya",
    "state_code": "BA",
    "province": "",
    "province_code": "",
    "community": "",
    "community_code": "",
    "latitude": "45.8326",
    "longitude": "18.5912"
  },
  {
    "country_code": "HU",
    "zipcode": "7781",
    "place": "Sárok",
    "state": "Baranya",
    "state_code": "BA",
    "province": "",
    "province_code": "",
    "community": "",
    "community_code": "",
    "latitude": "45.8423",
    "longitude": "18.6119"
  },
  {
    "country_code": "HU",
    "zipcode": "7782",
    "place": "Bezedek",
    "state": "Baranya",
    "state_code": "BA",
    "province": "",
    "province_code": "",
    "community": "",
    "community_code": "",
    "latitude": "45.8647",
    "longitude": "18.5864"
  },
  {
    "country_code": "HU",
    "zipcode": "7783",
    "place": "Majs",
    "state": "Baranya",
    "state_code": "BA",
    "province": "",
    "province_code": "",
    "community": "",
    "community_code": "",
    "latitude": "45.9058",
    "longitude": "18.5975"
  },
  {
    "country_code": "HU",
    "zipcode": "7784",
    "place": "Nagynyárád",
    "state": "Baranya",
    "state_code": "BA",
    "province": "",
    "province_code": "",
    "community": "",
    "community_code": "",
    "latitude": "45.9443",
    "longitude": "18.5785"
  },
  {
    "country_code": "HU",
    "zipcode": "7785",
    "place": "Sátorhely",
    "state": "Baranya",
    "state_code": "BA",
    "province": "",
    "province_code": "",
    "community": "",
    "community_code": "",
    "latitude": "45.9418",
    "longitude": "18.6329"
  },
  {
    "country_code": "HU",
    "zipcode": "7800",
    "place": "Siklós",
    "state": "Baranya",
    "state_code": "BA",
    "province": "",
    "province_code": "",
    "community": "",
    "community_code": "",
    "latitude": "45.855",
    "longitude": "18.2975"
  },
  {
    "country_code": "HU",
    "zipcode": "7800",
    "place": "Nagytótfalu",
    "state": "Baranya",
    "state_code": "BA",
    "province": "",
    "province_code": "",
    "community": "",
    "community_code": "",
    "latitude": "45.8639",
    "longitude": "18.3453"
  },
  {
    "country_code": "HU",
    "zipcode": "7800",
    "place": "Kisharsány",
    "state": "Baranya",
    "state_code": "BA",
    "province": "",
    "province_code": "",
    "community": "",
    "community_code": "",
    "latitude": "45.8586",
    "longitude": "18.3642"
  },
  {
    "country_code": "HU",
    "zipcode": "7811",
    "place": "Szilvás",
    "state": "Baranya",
    "state_code": "BA",
    "province": "",
    "province_code": "",
    "community": "",
    "community_code": "",
    "latitude": "45.9628",
    "longitude": "18.1996"
  },
  {
    "country_code": "HU",
    "zipcode": "7811",
    "place": "Bisse",
    "state": "Baranya",
    "state_code": "BA",
    "province": "",
    "province_code": "",
    "community": "",
    "community_code": "",
    "latitude": "45.9093",
    "longitude": "18.2595"
  },
  {
    "country_code": "HU",
    "zipcode": "7811",
    "place": "Szalánta",
    "state": "Baranya",
    "state_code": "BA",
    "province": "",
    "province_code": "",
    "community": "",
    "community_code": "",
    "latitude": "45.9486",
    "longitude": "18.2375"
  },
  {
    "country_code": "HU",
    "zipcode": "7811",
    "place": "Túrony",
    "state": "Baranya",
    "state_code": "BA",
    "province": "",
    "province_code": "",
    "community": "",
    "community_code": "",
    "latitude": "45.9026",
    "longitude": "18.2327"
  },
  {
    "country_code": "HU",
    "zipcode": "7811",
    "place": "Csarnóta",
    "state": "Baranya",
    "state_code": "BA",
    "province": "",
    "province_code": "",
    "community": "",
    "community_code": "",
    "latitude": "45.8951",
    "longitude": "18.2164"
  },
  {
    "country_code": "HU",
    "zipcode": "7811",
    "place": "Bosta",
    "state": "Baranya",
    "state_code": "BA",
    "province": "",
    "province_code": "",
    "community": "",
    "community_code": "",
    "latitude": "45.9504",
    "longitude": "18.2108"
  },
  {
    "country_code": "HU",
    "zipcode": "7812",
    "place": "Garé",
    "state": "Baranya",
    "state_code": "BA",
    "province": "",
    "province_code": "",
    "community": "",
    "community_code": "",
    "latitude": "45.9174",
    "longitude": "18.1928"
  },
  {
    "country_code": "HU",
    "zipcode": "7813",
    "place": "Szava",
    "state": "Baranya",
    "state_code": "BA",
    "province": "",
    "province_code": "",
    "community": "",
    "community_code": "",
    "latitude": "45.9024",
    "longitude": "18.1777"
  },
  {
    "country_code": "HU",
    "zipcode": "7814",
    "place": "Ócsárd",
    "state": "Baranya",
    "state_code": "BA",
    "province": "",
    "province_code": "",
    "community": "",
    "community_code": "",
    "latitude": "45.9342",
    "longitude": "18.1519"
  },
  {
    "country_code": "HU",
    "zipcode": "7814",
    "place": "Babarcszőlős",
    "state": "Baranya",
    "state_code": "BA",
    "province": "",
    "province_code": "",
    "community": "",
    "community_code": "",
    "latitude": "45.9",
    "longitude": "18.1364"
  },
  {
    "country_code": "HU",
    "zipcode": "7814",
    "place": "Kisdér",
    "state": "Baranya",
    "state_code": "BA",
    "province": "",
    "province_code": "",
    "community": "",
    "community_code": "",
    "latitude": "45.9406",
    "longitude": "18.1281"
  },
  {
    "country_code": "HU",
    "zipcode": "7814",
    "place": "Siklósbodony",
    "state": "Baranya",
    "state_code": "BA",
    "province": "",
    "province_code": "",
    "community": "",
    "community_code": "",
    "latitude": "45.9103",
    "longitude": "18.1203"
  },
  {
    "country_code": "HU",
    "zipcode": "7815",
    "place": "Harkány",
    "state": "Baranya",
    "state_code": "BA",
    "province": "",
    "province_code": "",
    "community": "",
    "community_code": "",
    "latitude": "45.85",
    "longitude": "18.2367"
  },
  {
    "country_code": "HU",
    "zipcode": "7817",
    "place": "Rádfalva",
    "state": "Baranya",
    "state_code": "BA",
    "province": "",
    "province_code": "",
    "community": "",
    "community_code": "",
    "latitude": "45.8597",
    "longitude": "18.1258"
  },
  {
    "country_code": "HU",
    "zipcode": "7817",
    "place": "Diósviszló",
    "state": "Baranya",
    "state_code": "BA",
    "province": "",
    "province_code": "",
    "community": "",
    "community_code": "",
    "latitude": "45.8777",
    "longitude": "18.166"
  },
  {
    "country_code": "HU",
    "zipcode": "7817",
    "place": "Márfa",
    "state": "Baranya",
    "state_code": "BA",
    "province": "",
    "province_code": "",
    "community": "",
    "community_code": "",
    "latitude": "45.86",
    "longitude": "18.1853"
  },
  {
    "country_code": "HU",
    "zipcode": "7822",
    "place": "Nagyharsány",
    "state": "Baranya",
    "state_code": "BA",
    "province": "",
    "province_code": "",
    "community": "",
    "community_code": "",
    "latitude": "45.8474",
    "longitude": "18.3971"
  },
  {
    "country_code": "HU",
    "zipcode": "7823",
    "place": "Siklósnagyfalu",
    "state": "Baranya",
    "state_code": "BA",
    "province": "",
    "province_code": "",
    "community": "",
    "community_code": "",
    "latitude": "45.8202",
    "longitude": "18.3627"
  },
  {
    "country_code": "HU",
    "zipcode": "7823",
    "place": "Kistapolca",
    "state": "Baranya",
    "state_code": "BA",
    "province": "",
    "province_code": "",
    "community": "",
    "community_code": "",
    "latitude": "45.8216",
    "longitude": "18.383"
  },
  {
    "country_code": "HU",
    "zipcode": "7824",
    "place": "Egyházasharaszti",
    "state": "Baranya",
    "state_code": "BA",
    "province": "",
    "province_code": "",
    "community": "",
    "community_code": "",
    "latitude": "45.8104",
    "longitude": "18.3342"
  },
  {
    "country_code": "HU",
    "zipcode": "7825",
    "place": "Old",
    "state": "Baranya",
    "state_code": "BA",
    "province": "",
    "province_code": "",
    "community": "",
    "community_code": "",
    "latitude": "45.7889",
    "longitude": "18.3523"
  },
  {
    "country_code": "HU",
    "zipcode": "7826",
    "place": "Alsószentmárton",
    "state": "Baranya",
    "state_code": "BA",
    "province": "",
    "province_code": "",
    "community": "",
    "community_code": "",
    "latitude": "45.7895",
    "longitude": "18.3057"
  },
  {
    "country_code": "HU",
    "zipcode": "7827",
    "place": "Kásád",
    "state": "Baranya",
    "state_code": "BA",
    "province": "",
    "province_code": "",
    "community": "",
    "community_code": "",
    "latitude": "45.7783",
    "longitude": "18.3989"
  },
  {
    "country_code": "HU",
    "zipcode": "7827",
    "place": "Beremend",
    "state": "Baranya",
    "state_code": "BA",
    "province": "",
    "province_code": "",
    "community": "",
    "community_code": "",
    "latitude": "45.7911",
    "longitude": "18.4326"
  },
  {
    "country_code": "HU",
    "zipcode": "7831",
    "place": "Pellérd",
    "state": "Baranya",
    "state_code": "BA",
    "province": "",
    "province_code": "",
    "community": "",
    "community_code": "",
    "latitude": "46.0344",
    "longitude": "18.154"
  },
  {
    "country_code": "HU",
    "zipcode": "7833",
    "place": "Görcsöny",
    "state": "Baranya",
    "state_code": "BA",
    "province": "",
    "province_code": "",
    "community": "",
    "community_code": "",
    "latitude": "45.9694",
    "longitude": "18.1358"
  },
  {
    "country_code": "HU",
    "zipcode": "7833",
    "place": "Regenye",
    "state": "Baranya",
    "state_code": "BA",
    "province": "",
    "province_code": "",
    "community": "",
    "community_code": "",
    "latitude": "45.97",
    "longitude": "18.1684"
  },
  {
    "country_code": "HU",
    "zipcode": "7833",
    "place": "Szőke",
    "state": "Baranya",
    "state_code": "BA",
    "province": "",
    "province_code": "",
    "community": "",
    "community_code": "",
    "latitude": "45.96",
    "longitude": "18.1858"
  },
  {
    "country_code": "HU",
    "zipcode": "7834",
    "place": "Téseny",
    "state": "Baranya",
    "state_code": "BA",
    "province": "",
    "province_code": "",
    "community": "",
    "community_code": "",
    "latitude": "45.9399",
    "longitude": "18.0885"
  },
  {
    "country_code": "HU",
    "zipcode": "7834",
    "place": "Baksa",
    "state": "Baranya",
    "state_code": "BA",
    "province": "",
    "province_code": "",
    "community": "",
    "community_code": "",
    "latitude": "45.9536",
    "longitude": "18.0889"
  },
  {
    "country_code": "HU",
    "zipcode": "7834",
    "place": "Tengeri",
    "state": "Baranya",
    "state_code": "BA",
    "province": "",
    "province_code": "",
    "community": "",
    "community_code": "",
    "latitude": "45.9261",
    "longitude": "18.0881"
  },
  {
    "country_code": "HU",
    "zipcode": "7836",
    "place": "Ózdfalu",
    "state": "Baranya",
    "state_code": "BA",
    "province": "",
    "province_code": "",
    "community": "",
    "community_code": "",
    "latitude": "45.9292",
    "longitude": "18.0217"
  },
  {
    "country_code": "HU",
    "zipcode": "7836",
    "place": "Bogádmindszent",
    "state": "Baranya",
    "state_code": "BA",
    "province": "",
    "province_code": "",
    "community": "",
    "community_code": "",
    "latitude": "45.9069",
    "longitude": "18.0406"
  },
  {
    "country_code": "HU",
    "zipcode": "7837",
    "place": "Hegyszentmárton",
    "state": "Baranya",
    "state_code": "BA",
    "province": "",
    "province_code": "",
    "community": "",
    "community_code": "",
    "latitude": "45.9039",
    "longitude": "18.09"
  },
  {
    "country_code": "HU",
    "zipcode": "7838",
    "place": "Hirics",
    "state": "Baranya",
    "state_code": "BA",
    "province": "",
    "province_code": "",
    "community": "",
    "community_code": "",
    "latitude": "45.8269",
    "longitude": "17.994"
  },
  {
    "country_code": "HU",
    "zipcode": "7838",
    "place": "Lúzsok",
    "state": "Baranya",
    "state_code": "BA",
    "province": "",
    "province_code": "",
    "community": "",
    "community_code": "",
    "latitude": "45.8382",
    "longitude": "17.9438"
  },
  {
    "country_code": "HU",
    "zipcode": "7838",
    "place": "Páprád",
    "state": "Baranya",
    "state_code": "BA",
    "province": "",
    "province_code": "",
    "community": "",
    "community_code": "",
    "latitude": "45.8925",
    "longitude": "18.0097"
  },
  {
    "country_code": "HU",
    "zipcode": "7838",
    "place": "Piskó",
    "state": "Baranya",
    "state_code": "BA",
    "province": "",
    "province_code": "",
    "community": "",
    "community_code": "",
    "latitude": "45.8134",
    "longitude": "17.937"
  },
  {
    "country_code": "HU",
    "zipcode": "7838",
    "place": "Vajszló",
    "state": "Baranya",
    "state_code": "BA",
    "province": "",
    "province_code": "",
    "community": "",
    "community_code": "",
    "latitude": "45.8596",
    "longitude": "17.9841"
  },
  {
    "country_code": "HU",
    "zipcode": "7838",
    "place": "Besence",
    "state": "Baranya",
    "state_code": "BA",
    "province": "",
    "province_code": "",
    "community": "",
    "community_code": "",
    "latitude": "45.8956",
    "longitude": "17.9663"
  },
  {
    "country_code": "HU",
    "zipcode": "7838",
    "place": "Nagycsány",
    "state": "Baranya",
    "state_code": "BA",
    "province": "",
    "province_code": "",
    "community": "",
    "community_code": "",
    "latitude": "45.8717",
    "longitude": "17.9443"
  },
  {
    "country_code": "HU",
    "zipcode": "7838",
    "place": "Vejti",
    "state": "Baranya",
    "state_code": "BA",
    "province": "",
    "province_code": "",
    "community": "",
    "community_code": "",
    "latitude": "45.8104",
    "longitude": "17.971"
  },
  {
    "country_code": "HU",
    "zipcode": "7839",
    "place": "Kemse",
    "state": "Baranya",
    "state_code": "BA",
    "province": "",
    "province_code": "",
    "community": "",
    "community_code": "",
    "latitude": "45.8233",
    "longitude": "17.9136"
  },
  {
    "country_code": "HU",
    "zipcode": "7839",
    "place": "Zaláta",
    "state": "Baranya",
    "state_code": "BA",
    "province": "",
    "province_code": "",
    "community": "",
    "community_code": "",
    "latitude": "45.8092",
    "longitude": "17.8912"
  },
  {
    "country_code": "HU",
    "zipcode": "7841",
    "place": "Adorjás",
    "state": "Baranya",
    "state_code": "BA",
    "province": "",
    "province_code": "",
    "community": "",
    "community_code": "",
    "latitude": "45.8506",
    "longitude": "18.0628"
  },
  {
    "country_code": "HU",
    "zipcode": "7841",
    "place": "Kisszentmárton",
    "state": "Baranya",
    "state_code": "BA",
    "province": "",
    "province_code": "",
    "community": "",
    "community_code": "",
    "latitude": "45.8242",
    "longitude": "18.0242"
  },
  {
    "country_code": "HU",
    "zipcode": "7841",
    "place": "Sámod",
    "state": "Baranya",
    "state_code": "BA",
    "province": "",
    "province_code": "",
    "community": "",
    "community_code": "",
    "latitude": "45.8544",
    "longitude": "18.0375"
  },
  {
    "country_code": "HU",
    "zipcode": "7841",
    "place": "Kórós",
    "state": "Baranya",
    "state_code": "BA",
    "province": "",
    "province_code": "",
    "community": "",
    "community_code": "",
    "latitude": "45.8669",
    "longitude": "18.0844"
  },
  {
    "country_code": "HU",
    "zipcode": "7841",
    "place": "Baranyahídvég",
    "state": "Baranya",
    "state_code": "BA",
    "province": "",
    "province_code": "",
    "community": "",
    "community_code": "",
    "latitude": "45.8464",
    "longitude": "18.0233"
  },
  {
    "country_code": "HU",
    "zipcode": "7843",
    "place": "Tésenfa",
    "state": "Baranya",
    "state_code": "BA",
    "province": "",
    "province_code": "",
    "community": "",
    "community_code": "",
    "latitude": "45.8131",
    "longitude": "18.1183"
  },
  {
    "country_code": "HU",
    "zipcode": "7843",
    "place": "Cún",
    "state": "Baranya",
    "state_code": "BA",
    "province": "",
    "province_code": "",
    "community": "",
    "community_code": "",
    "latitude": "45.8125",
    "longitude": "18.0669"
  },
  {
    "country_code": "HU",
    "zipcode": "7843",
    "place": "Szaporca",
    "state": "Baranya",
    "state_code": "BA",
    "province": "",
    "province_code": "",
    "community": "",
    "community_code": "",
    "latitude": "45.8136",
    "longitude": "18.1044"
  },
  {
    "country_code": "HU",
    "zipcode": "7843",
    "place": "Kémes",
    "state": "Baranya",
    "state_code": "BA",
    "province": "",
    "province_code": "",
    "community": "",
    "community_code": "",
    "latitude": "45.8242",
    "longitude": "18.1011"
  },
  {
    "country_code": "HU",
    "zipcode": "7843",
    "place": "Drávapiski",
    "state": "Baranya",
    "state_code": "BA",
    "province": "",
    "province_code": "",
    "community": "",
    "community_code": "",
    "latitude": "45.84",
    "longitude": "18.1011"
  },
  {
    "country_code": "HU",
    "zipcode": "7846",
    "place": "Drávacsepely",
    "state": "Baranya",
    "state_code": "BA",
    "province": "",
    "province_code": "",
    "community": "",
    "community_code": "",
    "latitude": "45.8292",
    "longitude": "18.1386"
  },
  {
    "country_code": "HU",
    "zipcode": "7847",
    "place": "Drávaszerdahely",
    "state": "Baranya",
    "state_code": "BA",
    "province": "",
    "province_code": "",
    "community": "",
    "community_code": "",
    "latitude": "45.8369",
    "longitude": "18.1611"
  },
  {
    "country_code": "HU",
    "zipcode": "7847",
    "place": "Ipacsfa",
    "state": "Baranya",
    "state_code": "BA",
    "province": "",
    "province_code": "",
    "community": "",
    "community_code": "",
    "latitude": "45.8345",
    "longitude": "18.2055"
  },
  {
    "country_code": "HU",
    "zipcode": "7847",
    "place": "Kovácshida",
    "state": "Baranya",
    "state_code": "BA",
    "province": "",
    "province_code": "",
    "community": "",
    "community_code": "",
    "latitude": "45.8325",
    "longitude": "18.1856"
  },
  {
    "country_code": "HU",
    "zipcode": "7849",
    "place": "Drávacsehi",
    "state": "Baranya",
    "state_code": "BA",
    "province": "",
    "province_code": "",
    "community": "",
    "community_code": "",
    "latitude": "45.8128",
    "longitude": "18.1672"
  },
  {
    "country_code": "HU",
    "zipcode": "7850",
    "place": "Drávapalkonya",
    "state": "Baranya",
    "state_code": "BA",
    "province": "",
    "province_code": "",
    "community": "",
    "community_code": "",
    "latitude": "45.8031",
    "longitude": "18.1789"
  },
  {
    "country_code": "HU",
    "zipcode": "7851",
    "place": "Drávaszabolcs",
    "state": "Baranya",
    "state_code": "BA",
    "province": "",
    "province_code": "",
    "community": "",
    "community_code": "",
    "latitude": "45.8068",
    "longitude": "18.2105"
  },
  {
    "country_code": "HU",
    "zipcode": "7853",
    "place": "Gordisa",
    "state": "Baranya",
    "state_code": "BA",
    "province": "",
    "province_code": "",
    "community": "",
    "community_code": "",
    "latitude": "45.7964",
    "longitude": "18.2333"
  },
  {
    "country_code": "HU",
    "zipcode": "7854",
    "place": "Matty",
    "state": "Baranya",
    "state_code": "BA",
    "province": "",
    "province_code": "",
    "community": "",
    "community_code": "",
    "latitude": "45.7981",
    "longitude": "18.2661"
  },
  {
    "country_code": "HU",
    "zipcode": "7900",
    "place": "Csertő",
    "state": "Baranya",
    "state_code": "BA",
    "province": "",
    "province_code": "",
    "community": "",
    "community_code": "",
    "latitude": "46.0948",
    "longitude": "17.8061"
  },
  {
    "country_code": "HU",
    "zipcode": "7900",
    "place": "Szigetvár",
    "state": "Baranya",
    "state_code": "BA",
    "province": "",
    "province_code": "",
    "community": "",
    "community_code": "",
    "latitude": "46.0487",
    "longitude": "17.8055"
  },
  {
    "country_code": "HU",
    "zipcode": "7900",
    "place": "Botykapeterd",
    "state": "Baranya",
    "state_code": "BA",
    "province": "",
    "province_code": "",
    "community": "",
    "community_code": "",
    "latitude": "46.0505",
    "longitude": "17.8666"
  },
  {
    "country_code": "HU",
    "zipcode": "7912",
    "place": "Nagyváty",
    "state": "Baranya",
    "state_code": "BA",
    "province": "",
    "province_code": "",
    "community": "",
    "community_code": "",
    "latitude": "46.0611",
    "longitude": "17.9328"
  },
  {
    "country_code": "HU",
    "zipcode": "7912",
    "place": "Nyugotszenterzsébet",
    "state": "Baranya",
    "state_code": "BA",
    "province": "",
    "province_code": "",
    "community": "",
    "community_code": "",
    "latitude": "46.0767",
    "longitude": "17.9112"
  },
  {
    "country_code": "HU",
    "zipcode": "7912",
    "place": "Nagypeterd",
    "state": "Baranya",
    "state_code": "BA",
    "province": "",
    "province_code": "",
    "community": "",
    "community_code": "",
    "latitude": "46.0465",
    "longitude": "17.8986"
  },
  {
    "country_code": "HU",
    "zipcode": "7913",
    "place": "Szentdénes",
    "state": "Baranya",
    "state_code": "BA",
    "province": "",
    "province_code": "",
    "community": "",
    "community_code": "",
    "latitude": "46.0071",
    "longitude": "17.9271"
  },
  {
    "country_code": "HU",
    "zipcode": "7914",
    "place": "Rózsafa",
    "state": "Baranya",
    "state_code": "BA",
    "province": "",
    "province_code": "",
    "community": "",
    "community_code": "",
    "latitude": "46.0219",
    "longitude": "17.8884"
  },
  {
    "country_code": "HU",
    "zipcode": "7914",
    "place": "Katádfa",
    "state": "Baranya",
    "state_code": "BA",
    "province": "",
    "province_code": "",
    "community": "",
    "community_code": "",
    "latitude": "45.9979",
    "longitude": "17.87"
  },
  {
    "country_code": "HU",
    "zipcode": "7914",
    "place": "Bánfa",
    "state": "Baranya",
    "state_code": "BA",
    "province": "",
    "province_code": "",
    "community": "",
    "community_code": "",
    "latitude": "45.9945",
    "longitude": "17.8793"
  },
  {
    "country_code": "HU",
    "zipcode": "7915",
    "place": "Dencsháza",
    "state": "Baranya",
    "state_code": "BA",
    "province": "",
    "province_code": "",
    "community": "",
    "community_code": "",
    "latitude": "45.993",
    "longitude": "17.8359"
  },
  {
    "country_code": "HU",
    "zipcode": "7915",
    "place": "Szentegát",
    "state": "Baranya",
    "state_code": "BA",
    "province": "",
    "province_code": "",
    "community": "",
    "community_code": "",
    "latitude": "45.9742",
    "longitude": "17.8257"
  },
  {
    "country_code": "HU",
    "zipcode": "7921",
    "place": "Somogyhatvan",
    "state": "Baranya",
    "state_code": "BA",
    "province": "",
    "province_code": "",
    "community": "",
    "community_code": "",
    "latitude": "46.1137",
    "longitude": "17.7137"
  },
  {
    "country_code": "HU",
    "zipcode": "7922",
    "place": "Somogyapáti",
    "state": "Baranya",
    "state_code": "BA",
    "province": "",
    "province_code": "",
    "community": "",
    "community_code": "",
    "latitude": "46.0913",
    "longitude": "17.7497"
  },
  {
    "country_code": "HU",
    "zipcode": "7923",
    "place": "Patapoklosi",
    "state": "Baranya",
    "state_code": "BA",
    "province": "",
    "province_code": "",
    "community": "",
    "community_code": "",
    "latitude": "46.0754",
    "longitude": "17.743"
  },
  {
    "country_code": "HU",
    "zipcode": "7923",
    "place": "Basal",
    "state": "Baranya",
    "state_code": "BA",
    "province": "",
    "province_code": "",
    "community": "",
    "community_code": "",
    "latitude": "46.0734",
    "longitude": "17.7839"
  },
  {
    "country_code": "HU",
    "zipcode": "7924",
    "place": "Somogyviszló",
    "state": "Baranya",
    "state_code": "BA",
    "province": "",
    "province_code": "",
    "community": "",
    "community_code": "",
    "latitude": "46.1153",
    "longitude": "17.7649"
  },
  {
    "country_code": "HU",
    "zipcode": "7925",
    "place": "Magyarlukafa",
    "state": "Baranya",
    "state_code": "BA",
    "province": "",
    "province_code": "",
    "community": "",
    "community_code": "",
    "latitude": "46.169",
    "longitude": "17.7567"
  },
  {
    "country_code": "HU",
    "zipcode": "7925",
    "place": "Somogyhárságy",
    "state": "Baranya",
    "state_code": "BA",
    "province": "",
    "province_code": "",
    "community": "",
    "community_code": "",
    "latitude": "46.1619",
    "longitude": "17.7731"
  },
  {
    "country_code": "HU",
    "zipcode": "7926",
    "place": "Vásárosbéc",
    "state": "Baranya",
    "state_code": "BA",
    "province": "",
    "province_code": "",
    "community": "",
    "community_code": "",
    "latitude": "46.1829",
    "longitude": "17.7242"
  },
  {
    "country_code": "HU",
    "zipcode": "7932",
    "place": "Szulimán",
    "state": "Baranya",
    "state_code": "BA",
    "province": "",
    "province_code": "",
    "community": "",
    "community_code": "",
    "latitude": "46.1276",
    "longitude": "17.8031"
  },
  {
    "country_code": "HU",
    "zipcode": "7932",
    "place": "Mozsgó",
    "state": "Baranya",
    "state_code": "BA",
    "province": "",
    "province_code": "",
    "community": "",
    "community_code": "",
    "latitude": "46.1174",
    "longitude": "17.8503"
  },
  {
    "country_code": "HU",
    "zipcode": "7932",
    "place": "Almáskeresztúr",
    "state": "Baranya",
    "state_code": "BA",
    "province": "",
    "province_code": "",
    "community": "",
    "community_code": "",
    "latitude": "46.1199",
    "longitude": "17.8956"
  },
  {
    "country_code": "HU",
    "zipcode": "7934",
    "place": "Almamellék",
    "state": "Baranya",
    "state_code": "BA",
    "province": "",
    "province_code": "",
    "community": "",
    "community_code": "",
    "latitude": "46.1569",
    "longitude": "17.874"
  },
  {
    "country_code": "HU",
    "zipcode": "7935",
    "place": "Ibafa",
    "state": "Baranya",
    "state_code": "BA",
    "province": "",
    "province_code": "",
    "community": "",
    "community_code": "",
    "latitude": "46.1552",
    "longitude": "17.9163"
  },
  {
    "country_code": "HU",
    "zipcode": "7935",
    "place": "Csebény",
    "state": "Baranya",
    "state_code": "BA",
    "province": "",
    "province_code": "",
    "community": "",
    "community_code": "",
    "latitude": "46.1899",
    "longitude": "17.9324"
  },
  {
    "country_code": "HU",
    "zipcode": "7935",
    "place": "Horváthertelend",
    "state": "Baranya",
    "state_code": "BA",
    "province": "",
    "province_code": "",
    "community": "",
    "community_code": "",
    "latitude": "46.1758",
    "longitude": "17.9255"
  },
  {
    "country_code": "HU",
    "zipcode": "7936",
    "place": "Szentlászló",
    "state": "Baranya",
    "state_code": "BA",
    "province": "",
    "province_code": "",
    "community": "",
    "community_code": "",
    "latitude": "46.1567",
    "longitude": "17.8345"
  },
  {
    "country_code": "HU",
    "zipcode": "7937",
    "place": "Boldogasszonyfa",
    "state": "Baranya",
    "state_code": "BA",
    "province": "",
    "province_code": "",
    "community": "",
    "community_code": "",
    "latitude": "46.1836",
    "longitude": "17.8379"
  },
  {
    "country_code": "HU",
    "zipcode": "7940",
    "place": "Szentlőrinc",
    "state": "Baranya",
    "state_code": "BA",
    "province": "",
    "province_code": "",
    "community": "",
    "community_code": "",
    "latitude": "46.0402",
    "longitude": "17.9872"
  },
  {
    "country_code": "HU",
    "zipcode": "7940",
    "place": "Kacsóta",
    "state": "Baranya",
    "state_code": "BA",
    "province": "",
    "province_code": "",
    "community": "",
    "community_code": "",
    "latitude": "46.0388",
    "longitude": "17.9565"
  },
  {
    "country_code": "HU",
    "zipcode": "7940",
    "place": "Csonkamindszent",
    "state": "Baranya",
    "state_code": "BA",
    "province": "",
    "province_code": "",
    "community": "",
    "community_code": "",
    "latitude": "46.0531",
    "longitude": "17.9658"
  },
  {
    "country_code": "HU",
    "zipcode": "7951",
    "place": "Velény",
    "state": "Baranya",
    "state_code": "BA",
    "province": "",
    "province_code": "",
    "community": "",
    "community_code": "",
    "latitude": "45.9803",
    "longitude": "18.0533"
  },
  {
    "country_code": "HU",
    "zipcode": "7951",
    "place": "Pécsbagota",
    "state": "Baranya",
    "state_code": "BA",
    "province": "",
    "province_code": "",
    "community": "",
    "community_code": "",
    "latitude": "45.9903",
    "longitude": "18.0733"
  },
  {
    "country_code": "HU",
    "zipcode": "7951",
    "place": "Szabadszentkirály",
    "state": "Baranya",
    "state_code": "BA",
    "province": "",
    "province_code": "",
    "community": "",
    "community_code": "",
    "latitude": "46.0057",
    "longitude": "18.0447"
  },
  {
    "country_code": "HU",
    "zipcode": "7951",
    "place": "Gerde",
    "state": "Baranya",
    "state_code": "BA",
    "province": "",
    "province_code": "",
    "community": "",
    "community_code": "",
    "latitude": "45.9897",
    "longitude": "18.0242"
  },
  {
    "country_code": "HU",
    "zipcode": "7953",
    "place": "Királyegyháza",
    "state": "Baranya",
    "state_code": "BA",
    "province": "",
    "province_code": "",
    "community": "",
    "community_code": "",
    "latitude": "45.9992",
    "longitude": "17.9691"
  },
  {
    "country_code": "HU",
    "zipcode": "7954",
    "place": "Magyartelek",
    "state": "Baranya",
    "state_code": "BA",
    "province": "",
    "province_code": "",
    "community": "",
    "community_code": "",
    "latitude": "45.9423",
    "longitude": "17.9847"
  },
  {
    "country_code": "HU",
    "zipcode": "7954",
    "place": "Gyöngyfa",
    "state": "Baranya",
    "state_code": "BA",
    "province": "",
    "province_code": "",
    "community": "",
    "community_code": "",
    "latitude": "45.9602",
    "longitude": "17.9513"
  },
  {
    "country_code": "HU",
    "zipcode": "7954",
    "place": "Kisasszonyfa",
    "state": "Baranya",
    "state_code": "BA",
    "province": "",
    "province_code": "",
    "community": "",
    "community_code": "",
    "latitude": "45.9467",
    "longitude": "18.0061"
  },
  {
    "country_code": "HU",
    "zipcode": "7954",
    "place": "Magyarmecske",
    "state": "Baranya",
    "state_code": "BA",
    "province": "",
    "province_code": "",
    "community": "",
    "community_code": "",
    "latitude": "45.9446",
    "longitude": "17.9637"
  },
  {
    "country_code": "HU",
    "zipcode": "7954",
    "place": "Gilvánfa",
    "state": "Baranya",
    "state_code": "BA",
    "province": "",
    "province_code": "",
    "community": "",
    "community_code": "",
    "latitude": "45.9187",
    "longitude": "17.9627"
  },
  {
    "country_code": "HU",
    "zipcode": "7957",
    "place": "Okorág",
    "state": "Baranya",
    "state_code": "BA",
    "province": "",
    "province_code": "",
    "community": "",
    "community_code": "",
    "latitude": "45.9259",
    "longitude": "17.8751"
  },
  {
    "country_code": "HU",
    "zipcode": "7958",
    "place": "Kákics",
    "state": "Baranya",
    "state_code": "BA",
    "province": "",
    "province_code": "",
    "community": "",
    "community_code": "",
    "latitude": "45.9044",
    "longitude": "17.8577"
  },
  {
    "country_code": "HU",
    "zipcode": "7960",
    "place": "Drávasztára",
    "state": "Baranya",
    "state_code": "BA",
    "province": "",
    "province_code": "",
    "community": "",
    "community_code": "",
    "latitude": "45.8275",
    "longitude": "17.8206"
  },
  {
    "country_code": "HU",
    "zipcode": "7960",
    "place": "Sellye",
    "state": "Baranya",
    "state_code": "BA",
    "province": "",
    "province_code": "",
    "community": "",
    "community_code": "",
    "latitude": "45.8725",
    "longitude": "17.8471"
  },
  {
    "country_code": "HU",
    "zipcode": "7960",
    "place": "Drávaiványi",
    "state": "Baranya",
    "state_code": "BA",
    "province": "",
    "province_code": "",
    "community": "",
    "community_code": "",
    "latitude": "45.8466",
    "longitude": "17.817"
  },
  {
    "country_code": "HU",
    "zipcode": "7960",
    "place": "Sósvertike",
    "state": "Baranya",
    "state_code": "BA",
    "province": "",
    "province_code": "",
    "community": "",
    "community_code": "",
    "latitude": "45.8354",
    "longitude": "17.8599"
  },
  {
    "country_code": "HU",
    "zipcode": "7960",
    "place": "Sumony",
    "state": "Baranya",
    "state_code": "BA",
    "province": "",
    "province_code": "",
    "community": "",
    "community_code": "",
    "latitude": "45.9686",
    "longitude": "17.917"
  },
  {
    "country_code": "HU",
    "zipcode": "7960",
    "place": "Marócsa",
    "state": "Baranya",
    "state_code": "BA",
    "province": "",
    "province_code": "",
    "community": "",
    "community_code": "",
    "latitude": "45.9141",
    "longitude": "17.8145"
  },
  {
    "country_code": "HU",
    "zipcode": "7964",
    "place": "Csányoszró",
    "state": "Baranya",
    "state_code": "BA",
    "province": "",
    "province_code": "",
    "community": "",
    "community_code": "",
    "latitude": "45.8814",
    "longitude": "17.911"
  },
  {
    "country_code": "HU",
    "zipcode": "7966",
    "place": "Bogdása",
    "state": "Baranya",
    "state_code": "BA",
    "province": "",
    "province_code": "",
    "community": "",
    "community_code": "",
    "latitude": "45.8756",
    "longitude": "17.7903"
  },
  {
    "country_code": "HU",
    "zipcode": "7967",
    "place": "Drávakeresztúr",
    "state": "Baranya",
    "state_code": "BA",
    "province": "",
    "province_code": "",
    "community": "",
    "community_code": "",
    "latitude": "45.8392",
    "longitude": "17.7587"
  },
  {
    "country_code": "HU",
    "zipcode": "7967",
    "place": "Markóc",
    "state": "Baranya",
    "state_code": "BA",
    "province": "",
    "province_code": "",
    "community": "",
    "community_code": "",
    "latitude": "45.8653",
    "longitude": "17.7706"
  },
  {
    "country_code": "HU",
    "zipcode": "7967",
    "place": "Drávafok",
    "state": "Baranya",
    "state_code": "BA",
    "province": "",
    "province_code": "",
    "community": "",
    "community_code": "",
    "latitude": "45.8847",
    "longitude": "17.764"
  },
  {
    "country_code": "HU",
    "zipcode": "7968",
    "place": "Felsőszentmárton",
    "state": "Baranya",
    "state_code": "BA",
    "province": "",
    "province_code": "",
    "community": "",
    "community_code": "",
    "latitude": "45.8522",
    "longitude": "17.7"
  },
  {
    "country_code": "HU",
    "zipcode": "7971",
    "place": "Hobol",
    "state": "Baranya",
    "state_code": "BA",
    "province": "",
    "province_code": "",
    "community": "",
    "community_code": "",
    "latitude": "46.0239",
    "longitude": "17.7765"
  },
  {
    "country_code": "HU",
    "zipcode": "7972",
    "place": "Gyöngyösmellék",
    "state": "Baranya",
    "state_code": "BA",
    "province": "",
    "province_code": "",
    "community": "",
    "community_code": "",
    "latitude": "45.9875",
    "longitude": "17.7013"
  },
  {
    "country_code": "HU",
    "zipcode": "7973",
    "place": "Teklafalu",
    "state": "Baranya",
    "state_code": "BA",
    "province": "",
    "province_code": "",
    "community": "",
    "community_code": "",
    "latitude": "45.9502",
    "longitude": "17.7284"
  },
  {
    "country_code": "HU",
    "zipcode": "7973",
    "place": "Endrőc",
    "state": "Baranya",
    "state_code": "BA",
    "province": "",
    "province_code": "",
    "community": "",
    "community_code": "",
    "latitude": "45.9301",
    "longitude": "17.7605"
  },
  {
    "country_code": "HU",
    "zipcode": "7973",
    "place": "Várad",
    "state": "Baranya",
    "state_code": "BA",
    "province": "",
    "province_code": "",
    "community": "",
    "community_code": "",
    "latitude": "45.9744",
    "longitude": "17.7458"
  },
  {
    "country_code": "HU",
    "zipcode": "7973",
    "place": "Bürüs",
    "state": "Baranya",
    "state_code": "BA",
    "province": "",
    "province_code": "",
    "community": "",
    "community_code": "",
    "latitude": "45.9655",
    "longitude": "17.7601"
  },
  {
    "country_code": "HU",
    "zipcode": "7975",
    "place": "Kétújfalu",
    "state": "Baranya",
    "state_code": "BA",
    "province": "",
    "province_code": "",
    "community": "",
    "community_code": "",
    "latitude": "45.9655",
    "longitude": "17.7121"
  },
  {
    "country_code": "HU",
    "zipcode": "7976",
    "place": "Zádor",
    "state": "Baranya",
    "state_code": "BA",
    "province": "",
    "province_code": "",
    "community": "",
    "community_code": "",
    "latitude": "45.9593",
    "longitude": "17.6593"
  },
  {
    "country_code": "HU",
    "zipcode": "7976",
    "place": "Szörény",
    "state": "Baranya",
    "state_code": "BA",
    "province": "",
    "province_code": "",
    "community": "",
    "community_code": "",
    "latitude": "45.9675",
    "longitude": "17.682"
  },
  {
    "country_code": "HU",
    "zipcode": "7980",
    "place": "Pettend",
    "state": "Baranya",
    "state_code": "BA",
    "province": "",
    "province_code": "",
    "community": "",
    "community_code": "",
    "latitude": "46",
    "longitude": "17.7"
  },
  {
    "country_code": "HU",
    "zipcode": "7981",
    "place": "Nemeske",
    "state": "Baranya",
    "state_code": "BA",
    "province": "",
    "province_code": "",
    "community": "",
    "community_code": "",
    "latitude": "46.0201",
    "longitude": "17.713"
  },
  {
    "country_code": "HU",
    "zipcode": "7981",
    "place": "Tótszentgyörgy",
    "state": "Baranya",
    "state_code": "BA",
    "province": "",
    "province_code": "",
    "community": "",
    "community_code": "",
    "latitude": "46.05",
    "longitude": "17.7167"
  },
  {
    "country_code": "HU",
    "zipcode": "7981",
    "place": "Molvány",
    "state": "Baranya",
    "state_code": "BA",
    "province": "",
    "province_code": "",
    "community": "",
    "community_code": "",
    "latitude": "46.0301",
    "longitude": "17.7444"
  },
  {
    "country_code": "HU",
    "zipcode": "7981",
    "place": "Merenye",
    "state": "Baranya",
    "state_code": "BA",
    "province": "",
    "province_code": "",
    "community": "",
    "community_code": "",
    "latitude": "46.0703",
    "longitude": "17.698"
  },
  {
    "country_code": "HU",
    "zipcode": "7981",
    "place": "Kistamási",
    "state": "Baranya",
    "state_code": "BA",
    "province": "",
    "province_code": "",
    "community": "",
    "community_code": "",
    "latitude": "46.0112",
    "longitude": "17.7209"
  },
  {
    "country_code": "HU",
    "zipcode": "7985",
    "place": "Kisdobsza",
    "state": "Baranya",
    "state_code": "BA",
    "province": "",
    "province_code": "",
    "community": "",
    "community_code": "",
    "latitude": "46.0309",
    "longitude": "17.654"
  },
  {
    "country_code": "HU",
    "zipcode": "7985",
    "place": "Nagydobsza",
    "state": "Baranya",
    "state_code": "BA",
    "province": "",
    "province_code": "",
    "community": "",
    "community_code": "",
    "latitude": "46.0333",
    "longitude": "17.6667"
  },
  {
    "country_code": "HU",
    "zipcode": "5500",
    "place": "Gyomaendrőd",
    "state": "Békés",
    "state_code": "BE",
    "province": "",
    "province_code": "",
    "community": "",
    "community_code": "",
    "latitude": "46.9333",
    "longitude": "20.8333"
  },
  {
    "country_code": "HU",
    "zipcode": "5502",
    "place": "Gyomaendrőd",
    "state": "Békés",
    "state_code": "BE",
    "province": "",
    "province_code": "",
    "community": "",
    "community_code": "",
    "latitude": "46.9333",
    "longitude": "20.8333"
  },
  {
    "country_code": "HU",
    "zipcode": "5510",
    "place": "Dévaványa",
    "state": "Békés",
    "state_code": "BE",
    "province": "",
    "province_code": "",
    "community": "",
    "community_code": "",
    "latitude": "47.0333",
    "longitude": "20.9667"
  },
  {
    "country_code": "HU",
    "zipcode": "5515",
    "place": "Ecsegfalva",
    "state": "Békés",
    "state_code": "BE",
    "province": "",
    "province_code": "",
    "community": "",
    "community_code": "",
    "latitude": "47.15",
    "longitude": "20.9167"
  },
  {
    "country_code": "HU",
    "zipcode": "5516",
    "place": "Körösladány",
    "state": "Békés",
    "state_code": "BE",
    "province": "",
    "province_code": "",
    "community": "",
    "community_code": "",
    "latitude": "46.9667",
    "longitude": "21.0833"
  },
  {
    "country_code": "HU",
    "zipcode": "5520",
    "place": "Szeghalom",
    "state": "Békés",
    "state_code": "BE",
    "province": "",
    "province_code": "",
    "community": "",
    "community_code": "",
    "latitude": "47.0333",
    "longitude": "21.1667"
  },
  {
    "country_code": "HU",
    "zipcode": "5525",
    "place": "Füzesgyarmat",
    "state": "Békés",
    "state_code": "BE",
    "province": "",
    "province_code": "",
    "community": "",
    "community_code": "",
    "latitude": "47.1",
    "longitude": "21.2167"
  },
  {
    "country_code": "HU",
    "zipcode": "5526",
    "place": "Kertészsziget",
    "state": "Békés",
    "state_code": "BE",
    "province": "",
    "province_code": "",
    "community": "",
    "community_code": "",
    "latitude": "47.15",
    "longitude": "21.0667"
  },
  {
    "country_code": "HU",
    "zipcode": "5527",
    "place": "Bucsa",
    "state": "Békés",
    "state_code": "BE",
    "province": "",
    "province_code": "",
    "community": "",
    "community_code": "",
    "latitude": "47.2",
    "longitude": "21"
  },
  {
    "country_code": "HU",
    "zipcode": "5530",
    "place": "Vésztő",
    "state": "Békés",
    "state_code": "BE",
    "province": "",
    "province_code": "",
    "community": "",
    "community_code": "",
    "latitude": "46.9167",
    "longitude": "21.2667"
  },
  {
    "country_code": "HU",
    "zipcode": "5534",
    "place": "Okány",
    "state": "Békés",
    "state_code": "BE",
    "province": "",
    "province_code": "",
    "community": "",
    "community_code": "",
    "latitude": "46.9",
    "longitude": "21.35"
  },
  {
    "country_code": "HU",
    "zipcode": "5536",
    "place": "Körösújfalu",
    "state": "Békés",
    "state_code": "BE",
    "province": "",
    "province_code": "",
    "community": "",
    "community_code": "",
    "latitude": "46.9667",
    "longitude": "21.4"
  },
  {
    "country_code": "HU",
    "zipcode": "5537",
    "place": "Zsadány",
    "state": "Békés",
    "state_code": "BE",
    "province": "",
    "province_code": "",
    "community": "",
    "community_code": "",
    "latitude": "46.9167",
    "longitude": "21.5"
  },
  {
    "country_code": "HU",
    "zipcode": "5538",
    "place": "Biharugra",
    "state": "Békés",
    "state_code": "BE",
    "province": "",
    "province_code": "",
    "community": "",
    "community_code": "",
    "latitude": "46.9667",
    "longitude": "21.6"
  },
  {
    "country_code": "HU",
    "zipcode": "5539",
    "place": "Körösnagyharsány",
    "state": "Békés",
    "state_code": "BE",
    "province": "",
    "province_code": "",
    "community": "",
    "community_code": "",
    "latitude": "47",
    "longitude": "21.65"
  },
  {
    "country_code": "HU",
    "zipcode": "5540",
    "place": "Szarvas",
    "state": "Békés",
    "state_code": "BE",
    "province": "",
    "province_code": "",
    "community": "",
    "community_code": "",
    "latitude": "46.8667",
    "longitude": "20.55"
  },
  {
    "country_code": "HU",
    "zipcode": "5551",
    "place": "Csabacsűd",
    "state": "Békés",
    "state_code": "BE",
    "province": "",
    "province_code": "",
    "community": "",
    "community_code": "",
    "latitude": "46.8333",
    "longitude": "20.65"
  },
  {
    "country_code": "HU",
    "zipcode": "5552",
    "place": "Kardos",
    "state": "Békés",
    "state_code": "BE",
    "province": "",
    "province_code": "",
    "community": "",
    "community_code": "",
    "latitude": "46.7978",
    "longitude": "20.7179"
  },
  {
    "country_code": "HU",
    "zipcode": "5553",
    "place": "Kondoros",
    "state": "Békés",
    "state_code": "BE",
    "province": "",
    "province_code": "",
    "community": "",
    "community_code": "",
    "latitude": "46.7667",
    "longitude": "20.8"
  },
  {
    "country_code": "HU",
    "zipcode": "5555",
    "place": "Hunya",
    "state": "Békés",
    "state_code": "BE",
    "province": "",
    "province_code": "",
    "community": "",
    "community_code": "",
    "latitude": "46.8167",
    "longitude": "20.85"
  },
  {
    "country_code": "HU",
    "zipcode": "5556",
    "place": "Örménykút",
    "state": "Békés",
    "state_code": "BE",
    "province": "",
    "province_code": "",
    "community": "",
    "community_code": "",
    "latitude": "46.85",
    "longitude": "20.7833"
  },
  {
    "country_code": "HU",
    "zipcode": "5561",
    "place": "Békésszentandrás",
    "state": "Békés",
    "state_code": "BE",
    "province": "",
    "province_code": "",
    "community": "",
    "community_code": "",
    "latitude": "46.8667",
    "longitude": "20.4833"
  },
  {
    "country_code": "HU",
    "zipcode": "5600",
    "place": "Békéscsaba",
    "state": "Békés",
    "state_code": "BE",
    "province": "",
    "province_code": "",
    "community": "",
    "community_code": "",
    "latitude": "46.6833",
    "longitude": "21.1"
  },
  {
    "country_code": "HU",
    "zipcode": "5609",
    "place": "Csabaszabadi",
    "state": "Békés",
    "state_code": "BE",
    "province": "",
    "province_code": "",
    "community": "",
    "community_code": "",
    "latitude": "46.6833",
    "longitude": "21.0833"
  },
  {
    "country_code": "HU",
    "zipcode": "5621",
    "place": "Csárdaszállás",
    "state": "Békés",
    "state_code": "BE",
    "province": "",
    "province_code": "",
    "community": "",
    "community_code": "",
    "latitude": "46.8667",
    "longitude": "20.9333"
  },
  {
    "country_code": "HU",
    "zipcode": "5622",
    "place": "Köröstarcsa",
    "state": "Békés",
    "state_code": "BE",
    "province": "",
    "province_code": "",
    "community": "",
    "community_code": "",
    "latitude": "46.8833",
    "longitude": "21.0333"
  },
  {
    "country_code": "HU",
    "zipcode": "5623",
    "place": "Békéscsaba",
    "state": "Békés",
    "state_code": "BE",
    "province": "",
    "province_code": "",
    "community": "",
    "community_code": "",
    "latitude": "46.6833",
    "longitude": "21.1"
  },
  {
    "country_code": "HU",
    "zipcode": "5624",
    "place": "Doboz",
    "state": "Békés",
    "state_code": "BE",
    "province": "",
    "province_code": "",
    "community": "",
    "community_code": "",
    "latitude": "46.7333",
    "longitude": "21.25"
  },
  {
    "country_code": "HU",
    "zipcode": "5630",
    "place": "Békés",
    "state": "Békés",
    "state_code": "BE",
    "province": "",
    "province_code": "",
    "community": "",
    "community_code": "",
    "latitude": "46.7667",
    "longitude": "21.1333"
  },
  {
    "country_code": "HU",
    "zipcode": "5641",
    "place": "Tarhos",
    "state": "Békés",
    "state_code": "BE",
    "province": "",
    "province_code": "",
    "community": "",
    "community_code": "",
    "latitude": "46.8167",
    "longitude": "21.2167"
  },
  {
    "country_code": "HU",
    "zipcode": "5643",
    "place": "Bélmegyer",
    "state": "Békés",
    "state_code": "BE",
    "province": "",
    "province_code": "",
    "community": "",
    "community_code": "",
    "latitude": "46.8667",
    "longitude": "21.1833"
  },
  {
    "country_code": "HU",
    "zipcode": "5650",
    "place": "Mezőberény",
    "state": "Békés",
    "state_code": "BE",
    "province": "",
    "province_code": "",
    "community": "",
    "community_code": "",
    "latitude": "46.8167",
    "longitude": "21.0333"
  },
  {
    "country_code": "HU",
    "zipcode": "5661",
    "place": "Újkígyós",
    "state": "Békés",
    "state_code": "BE",
    "province": "",
    "province_code": "",
    "community": "",
    "community_code": "",
    "latitude": "46.5833",
    "longitude": "21.0333"
  },
  {
    "country_code": "HU",
    "zipcode": "5662",
    "place": "Csanádapáca",
    "state": "Békés",
    "state_code": "BE",
    "province": "",
    "province_code": "",
    "community": "",
    "community_code": "",
    "latitude": "46.55",
    "longitude": "20.8833"
  },
  {
    "country_code": "HU",
    "zipcode": "5663",
    "place": "Medgyesbodzás",
    "state": "Békés",
    "state_code": "BE",
    "province": "",
    "province_code": "",
    "community": "",
    "community_code": "",
    "latitude": "46.5167",
    "longitude": "20.9667"
  },
  {
    "country_code": "HU",
    "zipcode": "5664",
    "place": "Medgyesbodzás",
    "state": "Békés",
    "state_code": "BE",
    "province": "",
    "province_code": "",
    "community": "",
    "community_code": "",
    "latitude": "46.5167",
    "longitude": "20.9667"
  },
  {
    "country_code": "HU",
    "zipcode": "5665",
    "place": "Pusztaottlaka",
    "state": "Békés",
    "state_code": "BE",
    "province": "",
    "province_code": "",
    "community": "",
    "community_code": "",
    "latitude": "46.55",
    "longitude": "20.9833"
  },
  {
    "country_code": "HU",
    "zipcode": "5666",
    "place": "Medgyesegyháza",
    "state": "Békés",
    "state_code": "BE",
    "province": "",
    "province_code": "",
    "community": "",
    "community_code": "",
    "latitude": "46.5",
    "longitude": "21.0333"
  },
  {
    "country_code": "HU",
    "zipcode": "5667",
    "place": "Magyarbánhegyes",
    "state": "Békés",
    "state_code": "BE",
    "province": "",
    "province_code": "",
    "community": "",
    "community_code": "",
    "latitude": "46.45",
    "longitude": "20.9667"
  },
  {
    "country_code": "HU",
    "zipcode": "5668",
    "place": "Nagybánhegyes",
    "state": "Békés",
    "state_code": "BE",
    "province": "",
    "province_code": "",
    "community": "",
    "community_code": "",
    "latitude": "46.4667",
    "longitude": "20.9"
  },