country_code,zipcode,place,state,state_code,province,province_code,community,community_code,latitude,longitude
GB,DN14,Pollington,England,ENG,East Riding of Yorkshire,11609011,"","",53.6709,-1.0724
GB,DN14,Yokefleet,England,ENG,East Riding of Yorkshire,11609011,"","",53.708,-0.7574
GB,DN14,Hook,England,ENG,East Riding of Yorkshire,11609011,"","",53.7205,-0.8479
GB,DN14,Skelton,England,ENG,East Riding of Yorkshire,11609011,"","",53.7167,-0.8333
GB,DN14,Ousefleet,England,ENG,East Riding of Yorkshire,11609011,"","",53.6982,-0.7409
GB,DN14,Reedness,England,ENG,East Riding of Yorkshire,11609011,"","",53.6993,-0.7986
GB,DN14,Rawcliffe,England,ENG,East Riding of Yorkshire,11609011,"","",53.6833,-0.95
GB,DN14,Goole,England,ENG,East Riding of Yorkshire,11609011,"","",53.7167,-0.8667
GB,DN14,Eastrington,England,ENG,East Riding of Yorkshire,11609011,"","",53.7604,-0.7932
GB,DN14,Kilpin,England,ENG,East Riding of Yorkshire,11609011,"","",53.7316,-0.8312
GB,DN14,Swinefleet,England,ENG,East Riding of Yorkshire,11609011,"","",53.6921,-0.8333
GB,DN14,Spaldington,England,ENG,East Riding of Yorkshire,11609011,"","",53.7927,-0.849
GB,DN14,Howden,England,ENG,East Riding of Yorkshire,11609011,"","",53.7421,-0.8657
GB,DN14,Balkholme,England,ENG,East Riding of Yorkshire,11609011,"","",53.7432,-0.8087
GB,DN14,Adlingfleet,England,ENG,East Riding of Yorkshire,11609011,"","",53.6788,-0.7231
GB,DN14,Faxfleet,England,ENG,East Riding of Yorkshire,11609011,"","",53.7067,-0.6939
GB,DN14,Laxton,England,ENG,East Riding of Yorkshire,11609011,"","",53.7167,-0.8
GB,DN14,Saltmarshe,England,ENG,East Riding of Yorkshire,11609011,"","",53.7216,-0.8049
GB,DN14,Snaith,England,ENG,East Riding of Yorkshire,11609011,"","",53.6911,-1.0286
GB,DN14,Whitgift,England,ENG,East Riding of Yorkshire,11609011,"","",53.6953,-0.7671
GB,DN14,Gowdall,England,ENG,East Riding of Yorkshire,11609011,"","",53.693,-1.0597
GB,DN14,Gribthorpe,England,ENG,East Riding of Yorkshire,11609011,"","",53.7125,-0.8909
GB,DN14,Low Eggborough,England,ENG,East Riding of Yorkshire,11609011,"","",53.7125,-0.8909
GB,DN14,Rawcliffe Bridge,England,ENG,East Riding of Yorkshire,11609011,"","",53.7125,-0.8909
GB,DN14,Bellasize,England,ENG,East Riding of Yorkshire,11609011,"","",53.7125,-0.8909
GB,DN14,East Cowick,England,ENG,East Riding of Yorkshire,11609011,"","",53.7125,-0.8909
GB,DN14,Old Goole,England,ENG,East Riding of Yorkshire,11609011,"","",53.7125,-0.8909
GB,DN14,Newsholme,England,ENG,East Riding of Yorkshire,11609011,"","",53.7125,-0.8909
GB,DN14,Knedlington,England,ENG,East Riding of Yorkshire,11609011,"","",53.7427,-0.8849
GB,DN14,Asselby,England,ENG,East Riding of Yorkshire,11609011,"","",53.7427,-0.8849
GB,DN14,Barmby on the Marsh,England,ENG,East Riding of Yorkshire,11609011,"","",53.749,-0.9561
GB,DN14,Airmyn,England,ENG,East Riding of Yorkshire,11609011,"","",53.7207,-0.8996
GB,DN14,Blacktoft,England,ENG,East Riding of Yorkshire,11609011,"","",53.708,-0.7273
GB,HU1,Kingston upon Hull,England,ENG,East Riding of Yorkshire,11609011,"","",53.7446,-0.3353
GB,HU10,Willerby,England,ENG,East Riding of Yorkshire,11609011,"","",53.761,-0.4419
GB,HU10,Kirk Ella,England,ENG,East Riding of Yorkshire,11609011,"","",53.754,-0.4549
GB,HU10,Anlaby,England,ENG,East Riding of Yorkshire,11609011,"","",53.7512,-0.4417
GB,HU11,Goxhill,England,ENG,East Riding of Yorkshire,11609011,"","",53.8273,-0.2206
GB,HU11,Marton,England,ENG,East Riding of Yorkshire,11609011,"","",53.8273,-0.2206
GB,HU11,West Newton,England,ENG,East Riding of Yorkshire,11609011,"","",53.8273,-0.2206
GB,HU11,South Skirlaugh,England,ENG,East Riding of Yorkshire,11609011,"","",53.8273,-0.2206
GB,HU11,Ganstead,England,ENG,East Riding of Yorkshire,11609011,"","",53.8273,-0.2206
GB,HU11,New Ellerby,England,ENG,East Riding of Yorkshire,11609011,"","",53.8273,-0.2206
GB,HU11,Great Hatfield,England,ENG,East Riding of Yorkshire,11609011,"","",53.8273,-0.2206
GB,HU11,Seaton,England,ENG,East Riding of Yorkshire,11609011,"","",53.9072,-0.2349
GB,HU11,Bilton,England,ENG,East Riding of Yorkshire,11609011,"","",53.7814,-0.2406
GB,HU11,Old Ellerby,England,ENG,East Riding of Yorkshire,11609011,"","",53.8273,-0.2206
GB,HU11,Coniston,England,ENG,East Riding of Yorkshire,11609011,"","",53.7991,-0.2462
GB,HU11,Swine,England,ENG,East Riding of Yorkshire,11609011,"","",53.8063,-0.2759
GB,HU11,Humbleton,England,ENG,East Riding of Yorkshire,11609011,"","",53.7833,-0.15
GB,HU11,Long Riston,England,ENG,East Riding of Yorkshire,11609011,"","",53.865,-0.2889
GB,HU11,Withernwick,England,ENG,East Riding of Yorkshire,11609011,"","",53.8489,-0.1874
GB,HU11,Sproatley,England,ENG,East Riding of Yorkshire,11609011,"","",53.7938,-0.1913
GB,HU11,Sigglesthorne,England,ENG,East Riding of Yorkshire,11609011,"","",53.8983,-0.2438
GB,HU11,Flinton,England,ENG,East Riding of Yorkshire,11609011,"","",53.8078,-0.148
GB,HU11,Rise,England,ENG,East Riding of Yorkshire,11609011,"","",53.863,-0.2463
GB,HU11,Aldbrough,England,ENG,East Riding of Yorkshire,11609011,"","",53.8289,-0.1147
GB,HU11,Garton,England,ENG,East Riding of Yorkshire,11609011,"","",53.8003,-0.0829
GB,HU11,Great Cowden,England,ENG,East Riding of Yorkshire,11609011,"","",53.8655,-0.1348
GB,HU12,Halsham,England,ENG,East Riding of Yorkshire,11609011,"","",53.7299,-0.0745
GB,HU12,Weeton,England,ENG,East Riding of Yorkshire,11609011,"","",53.7244,-0.1277
GB,HU12,Kilnsea,England,ENG,East Riding of Yorkshire,11609011,"","",53.7244,-0.1277
GB,HU12,Owstwick,England,ENG,East Riding of Yorkshire,11609011,"","",53.716,-0.1398
GB,HU12,Wadworth Hill,England,ENG,East Riding of Yorkshire,11609011,"","",53.716,-0.1398
GB,HU12,Lelley,England,ENG,East Riding of Yorkshire,11609011,"","",53.716,-0.1398
GB,HU12,Haven Side,England,ENG,East Riding of Yorkshire,11609011,"","",53.716,-0.1398
GB,HU12,Preston,England,ENG,East Riding of Yorkshire,11609011,"","",53.7509,-0.2072
GB,HU12,Elstronwick,England,ENG,East Riding of Yorkshire,11609011,"","",53.7695,-0.139
GB,HU12,Old Hall,England,ENG,East Riding of Yorkshire,11609011,"","",53.716,-0.1398
GB,HU12,Skeffling,England,ENG,East Riding of Yorkshire,11609011,"","",53.6536,0.0738
GB,HU12,Roos,England,ENG,East Riding of Yorkshire,11609011,"","",53.7529,-0.0446
GB,HU12,Paull,England,ENG,East Riding of Yorkshire,11609011,"","",53.7201,-0.233
GB,HU12,Sunk Island,England,ENG,East Riding of Yorkshire,11609011,"","",53.6517,-0.0841
GB,HU12,Thorngumbald,England,ENG,East Riding of Yorkshire,11609011,"","",53.721,-0.1717
GB,HU12,Keyingham,England,ENG,East Riding of Yorkshire,11609011,"","",53.7096,-0.1133
GB,HU12,Welwick,England,ENG,East Riding of Yorkshire,11609011,"","",53.6682,0.0316
GB,HU12,Easington,England,ENG,East Riding of Yorkshire,11609011,"","",53.6536,0.115
GB,HU12,Tunstall,England,ENG,East Riding of Yorkshire,11609011,"","",53.7688,-0.0201
GB,HU12,Patrington,England,ENG,East Riding of Yorkshire,11609011,"","",53.6839,-0.0133
GB,HU12,Burton Pidsea,England,ENG,East Riding of Yorkshire,11609011,"","",53.7633,-0.107
GB,HU12,Hedon,England,ENG,East Riding of Yorkshire,11609011,"","",53.7396,-0.1966
GB,HU12,Ottringham,England,ENG,East Riding of Yorkshire,11609011,"","",53.7009,-0.0791
GB,HU12,Winestead,England,ENG,East Riding of Yorkshire,11609011,"","",53.702,-0.0327
GB,HU12,Burstwick,England,ENG,East Riding of Yorkshire,11609011,"","",53.7321,-0.1396
GB,HU13,Hessle,England,ENG,East Riding of Yorkshire,11609011,"","",53.7245,-0.4384
GB,HU14,West Ella,England,ENG,East Riding of Yorkshire,11609011,"","",53.7293,-0.4984
GB,HU14,Swanland,England,ENG,East Riding of Yorkshire,11609011,"","",53.7373,-0.4917
GB,HU14,North Ferriby,England,ENG,East Riding of Yorkshire,11609011,"","",53.7212,-0.5052
GB,HU15,Ellerker,England,ENG,East Riding of Yorkshire,11609011,"","",53.7532,-0.6042
GB,HU15,Broomfleet,England,ENG,East Riding of Yorkshire,11609011,"","",53.7333,-0.6667
GB,HU15,Everthorpe,England,ENG,East Riding of Yorkshire,11609011,"","",53.7686,-0.6369
GB,HU15,Gilberdyke,England,ENG,East Riding of Yorkshire,11609011,"","",53.7439,-0.7324
GB,HU15,Staddlethorpe,England,ENG,East Riding of Yorkshire,11609011,"","",53.7439,-0.7324
GB,HU15,Welton,England,ENG,East Riding of Yorkshire,11609011,"","",53.7321,-0.5523
GB,HU15,Newport,England,ENG,East Riding of Yorkshire,11609011,"","",53.7633,-0.6999
GB,HU15,Scalby,England,ENG,East Riding of Yorkshire,11609011,"","",53.7667,-0.7167
GB,HU15,North Cave,England,ENG,East Riding of Yorkshire,11609011,"","",53.7801,-0.6497
GB,HU15,South Cave,England,ENG,East Riding of Yorkshire,11609011,"","",53.7699,-0.6011
GB,HU15,Brough,England,ENG,East Riding of Yorkshire,11609011,"","",53.7481,-0.6189
GB,HU15,Riplingham,England,ENG,East Riding of Yorkshire,11609011,"","",53.7508,-0.6477
GB,HU15,Elloughton,England,ENG,East Riding of Yorkshire,11609011,"","",53.7378,-0.5699
GB,HU15,Brantingham,England,ENG,East Riding of Yorkshire,11609011,"","",53.7518,-0.577
GB,HU15,Sandholme,England,ENG,East Riding of Yorkshire,11609011,"","",53.7662,-0.7455
GB,HU16,Cottingham,England,ENG,East Riding of Yorkshire,11609011,"","",53.7806,-0.4154
GB,HU16,Eppleworth,England,ENG,East Riding of Yorkshire,11609011,"","",53.7849,-0.4384
GB,HU16,Skidby,England,ENG,East Riding of Yorkshire,11609011,"","",53.7892,-0.4613
GB,HU17,Arram,England,ENG,East Riding of Yorkshire,11609011,"","",53.8846,-0.4269
GB,HU17,Catwick,England,ENG,East Riding of Yorkshire,11609011,"","",53.8921,-0.2782
GB,HU17,Bentley,England,ENG,East Riding of Yorkshire,11609011,"","",53.8471,-0.4278
GB,HU17,Thearne,England,ENG,East Riding of Yorkshire,11609011,"","",53.8622,-0.4318
GB,HU17,Little Catwick,England,ENG,East Riding of Yorkshire,11609011,"","",53.8622,-0.4318
GB,HU17,Moles-croft,England,ENG,East Riding of Yorkshire,11609011,"","",53.8622,-0.4318
GB,HU17,Woodmansey,England,ENG,East Riding of Yorkshire,11609011,"","",53.8284,-0.4227
GB,HU17,Holme on the Wolds,England,ENG,East Riding of Yorkshire,11609011,"","",53.8622,-0.4318
GB,HU17,Gardham,England,ENG,East Riding of Yorkshire,11609011,"","",53.8622,-0.4318
GB,HU17,Beverley,England,ENG,East Riding of Yorkshire,11609011,"","",53.8459,-0.4233
GB,HU17,South Dalton,England,ENG,East Riding of Yorkshire,11609011,"","",53.8955,-0.5301
GB,HU17,Leven,England,ENG,East Riding of Yorkshire,11609011,"","",53.8833,-0.3167
GB,HU17,Tickton,England,ENG,East Riding of Yorkshire,11609011,"","",53.8623,-0.3833
GB,HU17,Walkington,England,ENG,East Riding of Yorkshire,11609011,"","",53.8195,-0.4896
GB,HU17,Bishop Burton,England,ENG,East Riding of Yorkshire,11609011,"","",53.8456,-0.4981
GB,HU17,Routh,England,ENG,East Riding of Yorkshire,11609011,"","",53.8696,-0.3438
GB,HU17,Leconfield,England,ENG,East Riding of Yorkshire,11609011,"","",53.8773,-0.4573
GB,HU17,Cherry Burton,England,ENG,East Riding of Yorkshire,11609011,"","",53.8667,-0.5
GB,HU17,Etton,England,ENG,East Riding of Yorkshire,11609011,"","",53.8667,-0.5167
GB,HU18,Rolston,England,ENG,East Riding of Yorkshire,11609011,"","",53.8936,-0.1523
GB,HU18,Hornsea,England,ENG,East Riding of Yorkshire,11609011,"","",53.9104,-0.1681
GB,HU18,Mappleton,England,ENG,East Riding of Yorkshire,11609011,"","",53.8769,-0.1366
GB,HU19,Holmpton,England,ENG,East Riding of Yorkshire,11609011,"","",53.6877,0.0658
GB,HU19,Rimswell,England,ENG,East Riding of Yorkshire,11609011,"","",53.7232,0.0346
GB,HU19,Hollym,England,ENG,East Riding of Yorkshire,11609011,"","",53.704,0.0401
GB,HU19,Out Newton,England,ENG,East Riding of Yorkshire,11609011,"","",53.6757,0.0906
GB,HU19,Withernsea,England,ENG,East Riding of Yorkshire,11609011,"","",53.7311,0.0335
GB,HU19,Waxholme,England,ENG,East Riding of Yorkshire,11609011,"","",53.7411,0.0089
GB,HU2,Hull,England,ENG,East Riding of Yorkshire,11609011,"","",53.7446,-0.3353
GB,HU20,Little Weighton,England,ENG,East Riding of Yorkshire,11609011,"","",53.7902,-0.5068
GB,HU20,Rowley,England,ENG,East Riding of Yorkshire,11609011,"","",53.7902,-0.5068
GB,HU3,Hull,England,ENG,East Riding of Yorkshire,11609011,"","",53.7446,-0.3353
GB,HU4,Hull,England,ENG,East Riding of Yorkshire,11609011,"","",53.7446,-0.3353
GB,HU5,Hull,England,ENG,East Riding of Yorkshire,11609011,"","",53.7603,-0.3758
GB,HU6,Dunswell,England,ENG,East Riding of Yorkshire,11609011,"","",53.8011,-0.3714
GB,HU7,Stoneferry,England,ENG,East Riding of Yorkshire,11609011,"","",53.7985,-0.3267
GB,HU7,Wawne,England,ENG,East Riding of Yorkshire,11609011,"","",53.8171,-0.3484
GB,HU7,Sutton-on-Hull,England,ENG,East Riding of Yorkshire,11609011,"","",53.7799,-0.305
GB,HU8,Hull,England,ENG,East Riding of Yorkshire,11609011,"","",53.7693,-0.2998
GB,HU9,Marfleet,England,ENG,East Riding of Yorkshire,11609011,"","",53.7495,-0.2726
GB,YO15,Buckton,England,ENG,East Riding of Yorkshire,11609011,"","",54.0939,-0.1808
GB,YO15,Sewerby,England,ENG,East Riding of Yorkshire,11609011,"","",54.0939,-0.1808
GB,YO15,Hilderthorpe,England,ENG,East Riding of Yorkshire,11609011,"","",54.0939,-0.1808
GB,YO15,Fraisthorpe,England,ENG,East Riding of Yorkshire,11609011,"","",54.0365,-0.2413
GB,YO15,Flamborough,England,ENG,East Riding of Yorkshire,11609011,"","",54.1149,-0.1227
GB,YO15,Bempton,England,ENG,East Riding of Yorkshire,11609011,"","",54.1304,-0.1785
GB,YO16,Bridlington,England,ENG,East Riding of Yorkshire,11609011,"","",54.0831,-0.1919
GB,YO16,Boynton,England,ENG,East Riding of Yorkshire,11609011,"","",54.0975,-0.2648
GB,YO16,Bessingby,England,ENG,East Riding of Yorkshire,11609011,"","",54.0763,-0.2302
GB,YO16,Carnaby,England,ENG,East Riding of Yorkshire,11609011,"","",54.0726,-0.2493
GB,YO16,Grindale,England,ENG,East Riding of Yorkshire,11609011,"","",54.1245,-0.2736
GB,YO25,Swaythorpe,England,ENG,East Riding of Yorkshire,11609011,"","",53.9377,-0.4425
GB,YO25,Aike,England,ENG,East Riding of Yorkshire,11609011,"","",53.9377,-0.4425
GB,YO25,Little Burton,England,ENG,East Riding of Yorkshire,11609011,"","",53.9377,-0.4425
GB,YO25,Old Sunderlandwick,England,ENG,East Riding of Yorkshire,11609011,"","",53.9377,-0.4425
GB,YO25,Great Kelk,England,ENG,East Riding of Yorkshire,11609011,"","",53.9377,-0.4425
GB,YO25,Kelleythorpe,England,ENG,East Riding of Yorkshire,11609011,"","",53.9377,-0.4425
GB,YO25,Hempholme,England,ENG,East Riding of Yorkshire,11609011,"","",53.9377,-0.4425
GB,YO25,North Frodingham,England,ENG,East Riding of Yorkshire,11609011,"","",53.9595,-0.3239
GB,YO25,Cottam,England,ENG,East Riding of Yorkshire,11609011,"","",54.0732,-0.5082
GB,YO25,Church End,England,ENG,East Riding of Yorkshire,11609011,"","",54.0044,-0.4154
GB,YO25,Scorborough,England,ENG,East Riding of Yorkshire,11609011,"","",54.0044,-0.4154
GB,YO25,Elmswell,England,ENG,East Riding of Yorkshire,11609011,"","",53.9377,-0.4425
GB,YO25,Great Driffield,England,ENG,East Riding of Yorkshire,11609011,"","",53.9377,-0.4425
GB,YO25,West End,England,ENG,East Riding of Yorkshire,11609011,"","",53.9377,-0.4425
GB,YO25,Langtoft,England,ENG,East Riding of Yorkshire,11609011,"","",54.0883,-0.4583
GB,YO25,Cowlam Manor,England,ENG,East Riding of Yorkshire,11609011,"","",53.9377,-0.4425
GB,YO25,Octon,England,ENG,East Riding of Yorkshire,11609011,"","",53.9377,-0.4425
GB,YO25,Haisthorpe,England,ENG,East Riding of Yorkshire,11609011,"","",53.9377,-0.4425
GB,YO25,Eastburn,England,ENG,East Riding of Yorkshire,11609011,"","",53.9377,-0.4425
GB,YO25,Gembling,England,ENG,East Riding of Yorkshire,11609011,"","",53.9377,-0.4425
GB,YO25,Thornholme,England,ENG,East Riding of Yorkshire,11609011,"","",53.9377,-0.4425
GB,YO25,Towthorpe,England,ENG,East Riding of Yorkshire,11609011,"","",53.9377,-0.4425
GB,YO25,Gransmoor,England,ENG,East Riding of Yorkshire,11609011,"","",53.9377,-0.4425
GB,YO25,Thorpe,England,ENG,East Riding of Yorkshire,11609011,"","",54.0044,-0.4154
GB,YO25,Ulrome,England,ENG,East Riding of Yorkshire,11609011,"","",53.992,-0.2297
GB,YO25,Harpham,England,ENG,East Riding of Yorkshire,11609011,"","",54.039,-0.3269
GB,YO25,Fridaythorpe,England,ENG,East Riding of Yorkshire,11609011,"","",54.0201,-0.6653
GB,YO25,Foston on the Wolds,England,ENG,East Riding of Yorkshire,11609011,"","",53.9822,-0.328
GB,YO25,Brigham,England,ENG,East Riding of Yorkshire,11609011,"","",53.9667,-0.35
GB,YO25,Brandesburton,England,ENG,East Riding of Yorkshire,11609011,"","",53.9111,-0.3012
GB,YO25,Lowthorpe,England,ENG,East Riding of Yorkshire,11609011,"","",54.0283,-0.3496
GB,YO25,Skipsea,England,ENG,East Riding of Yorkshire,11609011,"","",53.9767,-0.2208
GB,YO25,North Dalton,England,ENG,East Riding of Yorkshire,11609011,"","",53.9572,-0.5759
GB,YO25,Watton,England,ENG,East Riding of Yorkshire,11609011,"","",53.9333,-0.45
GB,YO25,Kilham,England,ENG,East Riding of Yorkshire,11609011,"","",54.05,-0.3667
GB,YO25,Fordon,England,ENG,East Riding of Yorkshire,11609011,"","",54.15,-0.3833
GB,YO25,Nafferton,England,ENG,East Riding of Yorkshire,11609011,"","",54.0196,-0.3919
GB,YO25,Wansford,England,ENG,East Riding of Yorkshire,11609011,"","",53.9947,-0.3815
GB,YO25,Tibthorpe,England,ENG,East Riding of Yorkshire,11609011,"","",53.9866,-0.5369
GB,YO25,Rudston,England,ENG,East Riding of Yorkshire,11609011,"","",54.0909,-0.3282
GB,YO25,Beswick,England,ENG,East Riding of Yorkshire,11609011,"","",53.9326,-0.4809
GB,YO25,Kilnwick,England,ENG,East Riding of Yorkshire,11609011,"","",53.9326,-0.4809
GB,YO25,Burshill,England,ENG,East Riding of Yorkshire,11609011,"","",53.9167,-0.3333
GB,YO25,Sledmere,England,ENG,East Riding of Yorkshire,11609011,"","",54.0714,-0.5766
GB,YO25,Bainton,England,ENG,East Riding of Yorkshire,11609011,"","",53.95,-0.5333
GB,YO25,Burton Agnes,England,ENG,East Riding of Yorkshire,11609011,"","",54.0514,-0.3156
GB,YO25,Hutton Cranswick,England,ENG,East Riding of Yorkshire,11609011,"","",53.9512,-0.3783
GB,YO25,Rotsea,England,ENG,East Riding of Yorkshire,11609011,"","",53.9512,-0.3783
GB,YO25,Dunnington,England,ENG,East Riding of Yorkshire,11609011,"","",53.95,-0.25
GB,YO25,Ruston Parva,England,ENG,East Riding of Yorkshire,11609011,"","",54.0437,-0.3778
GB,YO25,Little Driffield,England,ENG,East Riding of Yorkshire,11609011,"","",54.0022,-0.4661
GB,YO25,Wold Newton,England,ENG,East Riding of Yorkshire,11609011,"","",54.1333,-0.4
GB,YO25,Burton Fleming,England,ENG,East Riding of Yorkshire,11609011,"","",54.1356,-0.3409
GB,YO25,Atwick,England,ENG,East Riding of Yorkshire,11609011,"","",53.9401,-0.189
GB,YO25,Fimber,England,ENG,East Riding of Yorkshire,11609011,"","",54.0333,-0.633
GB,YO25,Garton-on-the-Wolds,England,ENG,East Riding of Yorkshire,11609011,"","",54.021,-0.5028
GB,YO25,Kirkburn,England,ENG,East Riding of Yorkshire,11609011,"","",53.9834,-0.504
GB,YO25,Beeford,England,ENG,East Riding of Yorkshire,11609011,"","",53.97,-0.2891
GB,YO25,Lissett,England,ENG,East Riding of Yorkshire,11609011,"","",54.0053,-0.2516
GB,YO25,Middleton-on-the-Wolds,England,ENG,East Riding of Yorkshire,11609011,"","",53.9335,-0.5609
GB,YO25,Barmston,England,ENG,East Riding of Yorkshire,11609011,"","",54.0141,-0.2286
GB,YO25,Lockington,England,ENG,East Riding of Yorkshire,11609011,"","",53.9141,-0.4857
GB,YO25,Wetwang,England,ENG,East Riding of Yorkshire,11609011,"","",54.0175,-0.5774
GB,YO25,Bewholme,England,ENG,East Riding of Yorkshire,11609011,"","",53.9331,-0.2266
GB,YO25,Skerne,England,ENG,East Riding of Yorkshire,11609011,"","",53.9836,-0.4069
GB,YO25,Southburn,England,ENG,East Riding of Yorkshire,11609011,"","",53.9762,-0.4927
GB,YO25,Lund,England,ENG,East Riding of Yorkshire,11609011,"","",53.9192,-0.5221
GB,YO25,Thwing,England,ENG,East Riding of Yorkshire,11609011,"","",54.1155,-0.3895
GB,YO41,Helmsley,England,ENG,East Riding of Yorkshire,11609011,"","",53.9697,-0.9024
GB,YO41,Skirpenbeck,England,ENG,East Riding of Yorkshire,11609011,"","",54.0039,-0.8621
GB,YO41,Wilberfoss,England,ENG,East Riding of Yorkshire,11609011,"","",53.9485,-0.8895
GB,YO42,Pocklington,England,ENG,East Riding of Yorkshire,11609011,"","",53.9334,-0.7811
GB,YO42,Huggate,England,ENG,East Riding of Yorkshire,11609011,"","",53.9855,-0.6567
GB,YO42,Melbourne,England,ENG,East Riding of Yorkshire,11609011,"","",53.8875,-0.8593
GB,YO42,Everingham,England,ENG,East Riding of Yorkshire,11609011,"","",53.8738,-0.7802
GB,YO42,Hayton,England,ENG,East Riding of Yorkshire,11609011,"","",53.9,-0.75
GB,YO42,Bielby,England,ENG,East Riding of Yorkshire,11609011,"","",53.8842,-0.7975
GB,YO42,Laytham,England,ENG,East Riding of Yorkshire,11609011,"","",53.9185,-0.7737
GB,YO42,Meltonby,England,ENG,East Riding of Yorkshire,11609011,"","",53.9185,-0.7737
GB,YO42,Storwood,England,ENG,East Riding of Yorkshire,11609011,"","",53.9185,-0.7737
GB,YO42,Barmby Moor,England,ENG,East Riding of Yorkshire,11609011,"","",53.9308,-0.8152
GB,YO43,Shiptonthorpe,England,ENG,East Riding of Yorkshire,11609011,"","",53.8252,-0.6414
GB,YO43,Holme-on-Spalding-Moor,England,ENG,East Riding of Yorkshire,11609011,"","",53.8252,-0.6414
GB,YO43,Hotham,England,ENG,East Riding of Yorkshire,11609011,"","",53.7958,-0.6425
GB,YO43,Market Weighton,England,ENG,East Riding of Yorkshire,11609011,"","",53.8631,-0.6651
GB,YO43,North Newbald,England,ENG,East Riding of Yorkshire,11609011,"","",53.8167,-0.6167
GB,YO8,Wressle,England,ENG,East Riding of Yorkshire,11609011,"","",53.7737,-0.9247
GB,YO8,Bubwith,England,ENG,East Riding of Yorkshire,11609011,"","",53.819,-0.9197
GB,YO8,Foggathorpe,England,ENG,East Riding of Yorkshire,11609011,"","",53.8294,-0.8554
GB,YO8,Breighton,England,ENG,East Riding of Yorkshire,11609011,"","",53.7969,-0.9241
GB,YO8,Highfield,England,ENG,East Riding of Yorkshire,11609011,"","",53.8179,-0.9011
GB,LE15,Barrowden,England,ENG,Rutland,11609012,"","",52.5903,-0.6024
GB,LE15,Langham,England,ENG,Rutland,11609012,"","",52.6915,-0.7539
GB,LE15,Manton,England,ENG,Rutland,11609012,"","",52.6322,-0.7004
GB,LE15,Wing,England,ENG,Rutland,11609012,"","",52.6177,-0.6827
GB,LE15,Oakham,England,ENG,Rutland,11609012,"","",52.6667,-0.7333
GB,LE15,Lyndon,England,ENG,Rutland,11609012,"","",52.6294,-0.6574
GB,LE15,Egleton,England,ENG,Rutland,11609012,"","",52.6572,-0.7068
GB,LE15,Cold Overton,England,ENG,Rutland,11609012,"","",52.6377,-0.7436
GB,LE15,Ayston,England,ENG,Rutland,11609012,"","",52.6005,-0.7299
GB,LE15,Barleythorpe,England,ENG,Rutland,11609012,"","",52.6791,-0.742
GB,LE15,Thorpe by Water,England,ENG,Rutland,11609012,"","",52.6377,-0.7436
GB,LE15,Marefield,England,ENG,Rutland,11609012,"","",52.6561,-0.7007
GB,LE15,Bisbrooke,England,ENG,Rutland,11609012,"","",52.5869,-0.696
GB,LE15,Glaston,England,ENG,Rutland,11609012,"","",52.5949,-0.6762
GB,LE15,Stoke Dry,England,ENG,Rutland,11609012,"","",52.5637,-0.738
GB,LE15,Pilton,England,ENG,Rutland,11609012,"","",52.6164,-0.6504
GB,LE15,Teigh,England,ENG,Rutland,11609012,"","",52.7351,-0.7242
GB,LE15,Whissendine,England,ENG,Rutland,11609012,"","",52.7187,-0.7786
GB,LE15,Barrow,England,ENG,Rutland,11609012,"","",52.7262,-0.6801
GB,LE15,Normanton,England,ENG,Rutland,11609012,"","",52.646,-0.6203
GB,LE15,Preston,England,ENG,Rutland,11609012,"","",52.6125,-0.7143
GB,LE15,Stretton,England,ENG,Rutland,11609012,"","",52.7396,-0.5937
GB,LE15,Whitwell,England,ENG,Rutland,11609012,"","",52.6678,-0.6343
GB,LE15,Cottesmore,England,ENG,Rutland,11609012,"","",52.7138,-0.6633
GB,LE15,Wardley,England,ENG,Rutland,11609012,"","",52.5934,-0.7721
GB,LE15,Thistleton,England,ENG,Rutland,11609012,"","",52.7514,-0.6484
GB,LE15,Empingham,England,ENG,Rutland,11609012,"","",52.6672,-0.596
GB,LE15,Market Overton,England,ENG,Rutland,11609012,"","",52.7381,-0.6863
GB,LE15,Clipsham,England,ENG,Rutland,11609012,"","",52.7361,-0.5655
GB,LE15,Belton,England,ENG,Rutland,11609012,"","",52.6019,-0.795
GB,LE15,Burley,England,ENG,Rutland,11609012,"","",52.6851,-0.6961
GB,LE15,Greetham,England,ENG,Rutland,11609012,"","",52.7206,-0.6307
GB,LE15,Morcott,England,ENG,Rutland,11609012,"","",52.5967,-0.637
GB,LE15,North Luffenham,England,ENG,Rutland,11609012,"","",52.6211,-0.6199
GB,LE15,Ashwell,England,ENG,Rutland,11609012,"","",52.714,-0.7192
GB,LE15,Lyddington,England,ENG,Rutland,11609012,"","",52.5646,-0.7107
GB,LE15,Upper Hambleton,England,ENG,Rutland,11609012,"","",52.6585,-0.6698
GB,LE15,Edith Weston,England,ENG,Rutland,11609012,"","",52.6379,-0.6319
GB,LE15,South Luffenham,England,ENG,Rutland,11609012,"","",52.6086,-0.6123
GB,LE15,Exton,England,ENG,Rutland,11609012,"","",52.6911,-0.6346
GB,LE15,Brooke,England,ENG,Rutland,11609012,"","",52.6432,-0.7464
GB,LE15,Seaton,England,ENG,Rutland,11609012,"","",52.5749,-0.6676
GB,LE15,Uppingham,England,ENG,Rutland,11609012,"","",52.588,-0.7227
GB,LE15,Braunston,England,ENG,Rutland,11609012,"","",52.6517,-0.7689
GB,LE15,Ridlington,England,ENG,Rutland,11609012,"","",52.6134,-0.756
GB,PE9,Tickencote,England,ENG,Rutland,11609012,"","",52.675,-0.537
GB,PE9,Essendine,England,ENG,Rutland,11609012,"","",52.7019,-0.4525
GB,PE9,Ketton,England,ENG,Rutland,11609012,"","",52.628,-0.5546
GB,PE9,Tinwell,England,ENG,Rutland,11609012,"","",52.6463,-0.515
GB,PE9,Ryhall,England,ENG,Rutland,11609012,"","",52.6859,-0.4685
GB,PE9,Pickworth,England,ENG,Rutland,11609012,"","",52.7131,-0.5332
GB,PE9,Little Casterton,England,ENG,Rutland,11609012,"","",52.6714,-0.5021
GB,PE9,Great Casterton,England,ENG,Rutland,11609012,"","",52.6736,-0.5209
GB,PE9,Tixover,England,ENG,Rutland,11609012,"","",52.5996,-0.5568
GB,CW3,Woore,England,ENG,Shropshire,11609013,"","",52.977,-2.4024
GB,DY12,Kinlet,England,ENG,Shropshire,11609013,"","",52.4197,-2.4146
GB,DY14,Neen Savage,England,ENG,Shropshire,11609013,"","",52.3932,-2.4792
GB,DY14,Neen Sollars,England,ENG,Shropshire,11609013,"","",52.3467,-2.498
GB,DY14,Hopton Wafers,England,ENG,Shropshire,11609013,"","",52.3922,-2.5496
GB,DY14,Stottesdon,England,ENG,Shropshire,11609013,"","",52.4361,-2.4808
GB,DY14,Doddington,England,ENG,Shropshire,11609013,"","",52.3805,-2.4665
GB,DY14,Milson,England,ENG,Shropshire,11609013,"","",52.355,-2.5296
GB,DY14,Cleobury Mortimer,England,ENG,Shropshire,11609013,"","",52.3785,-2.482
GB,DY14,Silvington,England,ENG,Shropshire,11609013,"","",52.4167,-2.5667
GB,DY14,Farlow,England,ENG,Shropshire,11609013,"","",52.4225,-2.5301
GB,LD7,Milebrook,England,ENG,Shropshire,11609013,"","",52.4105,-3.0078
GB,LD7,Quabbs,England,ENG,Shropshire,11609013,"","",52.4105,-3.0078
GB,LD7,Dutlas,England,ENG,Shropshire,11609013,"","",52.4105,-3.0078
GB,LD7,Lloyney,England,ENG,Shropshire,11609013,"","",52.4105,-3.0078
GB,LD7,Pilleth,England,ENG,Shropshire,11609013,"","",52.4105,-3.0078
GB,LD7,Rhos-y-Meirch,England,ENG,Shropshire,11609013,"","",52.4105,-3.0078
GB,LD7,Panpunton,England,ENG,Shropshire,11609013,"","",52.4105,-3.0078
GB,LD7,Stowe,England,ENG,Shropshire,11609013,"","",52.3522,-3.0334
GB,LD7,Five Turnings,England,ENG,Shropshire,11609013,"","",52.4105,-3.0078
GB,LD7,Llanfair Waterdine,England,ENG,Shropshire,11609013,"","",52.3833,-3.1167
GB,SY1,Battlefield,England,ENG,Shropshire,11609013,"","",52.7234,-2.7415
GB,SY1,Shrewsbury,England,ENG,Shropshire,11609013,"","",52.7101,-2.7521
GB,SY10,Pant,England,ENG,Shropshire,11609013,"","",52.7833,-3.0667
GB,SY10,Llanyblodwel,England,ENG,Shropshire,11609013,"","",52.7991,-3.1252
GB,SY10,Cedig,England,ENG,Shropshire,11609013,"","",52.8394,-3.1236
GB,SY10,Morton,England,ENG,Shropshire,11609013,"","",52.8394,-3.1236
GB,SY10,Lledrod,England,ENG,Shropshire,11609013,"","",52.8394,-3.1236
GB,SY10,Moelfre,England,ENG,Shropshire,11609013,"","",52.8394,-3.1236
GB,SY10,Woolston,England,ENG,Shropshire,11609013,"","",52.8394,-3.1236
GB,SY10,Hengoed,England,ENG,Shropshire,11609013,"","",52.8394,-3.1236
GB,SY10,Penygarnedd,England,ENG,Shropshire,11609013,"","",52.8394,-3.1236
GB,SY10,Rhewl,England,ENG,Shropshire,11609013,"","",52.8394,-3.1236
GB,SY10,Craignant,England,ENG,Shropshire,11609013,"","",52.8394,-3.1236
GB,SY10,Crickheath,England,ENG,Shropshire,11609013,"","",52.8394,-3.1236
GB,SY10,Alltforgan,England,ENG,Shropshire,11609013,"","",52.8394,-3.1236
GB,SY10,Pencraig,England,ENG,Shropshire,11609013,"","",52.8394,-3.1236
GB,SY10,Preesgweene,England,ENG,Shropshire,11609013,"","",52.8394,-3.1236
GB,SY10,Tan-y-pistyll,England,ENG,Shropshire,11609013,"","",52.8394,-3.1236
GB,SY10,Bwlch-y-ddar,England,ENG,Shropshire,11609013,"","",52.8394,-3.1236
GB,SY10,Pentre,England,ENG,Shropshire,11609013,"","",52.8394,-3.1236
GB,SY10,Penisarcwn,England,ENG,Shropshire,11609013,"","",52.8394,-3.1236
GB,SY10,Tyn-y-ffridd,England,ENG,Shropshire,11609013,"","",52.8394,-3.1236
GB,SY10,Edgerley,England,ENG,Shropshire,11609013,"","",52.8394,-3.1236
GB,SY10,Cefn-coch,England,ENG,Shropshire,11609013,"","",52.8394,-3.1236
GB,SY10,Abertridwr,England,ENG,Shropshire,11609013,"","",52.8394,-3.1236
GB,SY10,Weston Rhyn,England,ENG,Shropshire,11609013,"","",52.9155,-3.0673
GB,SY10,Rhiwlas,England,ENG,Shropshire,11609013,"","",52.8394,-3.1236
GB,SY10,Pentrefelin,England,ENG,Shropshire,11609013,"","",52.8394,-3.1236
GB,SY10,Brogyntyn,England,ENG,Shropshire,11609013,"","",52.8394,-3.1236
GB,SY10,Croesau Bach,England,ENG,Shropshire,11609013,"","",52.8394,-3.1236
GB,SY10,Llawnt,England,ENG,Shropshire,11609013,"","",52.8394,-3.1236
GB,SY10,Morda,England,ENG,Shropshire,11609013,"","",52.8394,-3.1236
GB,SY10,Nantmawr,England,ENG,Shropshire,11609013,"","",52.8394,-3.1236
GB,SY10,Treflach,England,ENG,Shropshire,11609013,"","",52.8394,-3.1236
GB,SY10,Rhiwargor,England,ENG,Shropshire,11609013,"","",52.8394,-3.1236
GB,SY10,Dovaston,England,ENG,Shropshire,11609013,"","",52.8394,-3.1236
GB,SY10,Porth-y-waen,England,ENG,Shropshire,11609013,"","",52.8394,-3.1236
GB,SY10,Knockin,England,ENG,Shropshire,11609013,"","",52.7965,-2.9967
GB,SY10,Selattyn,England,ENG,Shropshire,11609013,"","",52.9,-3.0833
GB,SY10,Llynclys,England,ENG,Shropshire,11609013,"","",52.8097,-3.0661
GB,SY10,Maesbury Marsh,England,ENG,Shropshire,11609013,"","",52.8167,-3.0167
GB,SY10,Kinnerley,England,ENG,Shropshire,11609013,"","",52.7839,-2.9855
GB,SY10,Gobowen,England,ENG,Shropshire,11609013,"","",52.8961,-3.0369
GB,SY10,Ball,England,ENG,Shropshire,11609013,"","",52.8167,-3.0333
GB,SY10,Trefonen,England,ENG,Shropshire,11609013,"","",52.8333,-3.1
GB,SY10,Rhydycroesau,England,ENG,Shropshire,11609013,"","",52.8676,-3.1203
GB,SY11,West Felton,England,ENG,Shropshire,11609013,"","",52.8249,-2.9735
GB,SY11,Hindford,England,ENG,Shropshire,11609013,"","",52.8904,-2.9913
GB,SY11,Whittington,England,ENG,Shropshire,11609013,"","",52.8667,-3
GB,SY11,Haughton,England,ENG,Shropshire,11609013,"","",52.8388,-2.9359
GB,SY11,Eardiston,England,ENG,Shropshire,11609013,"","",52.8167,-2.9333
GB,SY11,Oswestry,England,ENG,Shropshire,11609013,"","",52.8619,-3.055
GB,SY11,Ifton Heath,England,ENG,Shropshire,11609013,"","",52.9254,-3.0062
GB,SY11,New Marton,England,ENG,Shropshire,11609013,"","",52.8054,-2.9458
GB,SY11,Middleton,England,ENG,Shropshire,11609013,"","",52.8695,-3.0318
GB,SY11,St Martin's,England,ENG,Shropshire,11609013,"","",52.8054,-2.9458
GB,SY11,Welsh Frankton,England,ENG,Shropshire,11609013,"","",52.8054,-2.9458
GB,SY11,Weirbrook,England,ENG,Shropshire,11609013,"","",52.8054,-2.9458
GB,SY11,Queen's Head,England,ENG,Shropshire,11609013,"","",52.8054,-2.9458
GB,SY11,Street Dinas,England,ENG,Shropshire,11609013,"","",52.8054,-2.9458
GB,SY11,Rhyn,England,ENG,Shropshire,11609013,"","",52.8054,-2.9458
GB,SY11,Grimpo,England,ENG,Shropshire,11609013,"","",52.8054,-2.9458
GB,SY11,Babbinswood,England,ENG,Shropshire,11609013,"","",52.8054,-2.9458
GB,SY11,Rednal,England,ENG,Shropshire,11609013,"","",52.8486,-2.9475
GB,SY12,English Frankton,England,ENG,Shropshire,11609013,"","",52.8888,-2.8656
GB,SY12,Sodylt Bank,England,ENG,Shropshire,11609013,"","",52.8888,-2.8656
GB,SY12,Kenwick,England,ENG,Shropshire,11609013,"","",52.8888,-2.8656
GB,SY12,Perthy,England,ENG,Shropshire,11609013,"","",52.8888,-2.8656
GB,SY12,Lyneal,England,ENG,Shropshire,11609013,"","",52.8888,-2.8656
GB,SY12,Dudleston Heath,England,ENG,Shropshire,11609013,"","",52.8888,-2.8656
GB,SY12,Hordley,England,ENG,Shropshire,11609013,"","",52.8511,-2.8975
GB,SY12,Lower Hordley,England,ENG,Shropshire,11609013,"","",52.8888,-2.8656
GB,SY12,Tetchill,England,ENG,Shropshire,11609013,"","",52.8888,-2.8656
GB,SY12,Lee,England,ENG,Shropshire,11609013,"","",52.8888,-2.8656
GB,SY12,Elson,England,ENG,Shropshire,11609013,"","",52.8888,-2.8656
GB,SY12,Bagley,England,ENG,Shropshire,11609013,"","",52.8888,-2.8656
GB,SY12,Welshampton,England,ENG,Shropshire,11609013,"","",52.9099,-2.8385
GB,SY12,Colemere,England,ENG,Shropshire,11609013,"","",52.8893,-2.8429
GB,SY12,Cockshutt,England,ENG,Shropshire,11609013,"","",52.8568,-2.8409
GB,SY12,Ellesmere,England,ENG,Shropshire,11609013,"","",52.9167,-2.8833
GB,SY13,Prees,England,ENG,Shropshire,11609013,"","",52.8969,-2.664
GB,SY13,Whixall,England,ENG,Shropshire,11609013,"","",52.9054,-2.721
GB,SY13,Whitchurch,England,ENG,Shropshire,11609013,"","",52.9667,-2.6833
GB,SY13,Ash Magna,England,ENG,Shropshire,11609013,"","",52.9441,-2.6649
GB,SY13,Hollinwood,England,ENG,Shropshire,11609013,"","",52.9523,-2.6903
GB,SY13,Alkington,England,ENG,Shropshire,11609013,"","",52.9441,-2.6649
GB,SY13,Edgeley,England,ENG,Shropshire,11609013,"","",52.9441,-2.6649
GB,SY13,Millenheath,England,ENG,Shropshire,11609013,"","",52.9441,-2.6649
GB,SY13,Bronington,England,ENG,Shropshire,11609013,"","",52.9441,-2.6649
GB,SY13,Darliston,England,ENG,Shropshire,11609013,"","",52.9441,-2.6649
GB,SY13,Welsh End,England,ENG,Shropshire,11609013,"","",52.9441,-2.6649
GB,SY13,Prees Higher Heath,England,ENG,Shropshire,11609013,"","",52.9441,-2.6649
GB,SY13,Platt Lane,England,ENG,Shropshire,11609013,"","",52.9441,-2.6649
GB,SY13,Wilkesley,England,ENG,Shropshire,11609013,"","",52.9441,-2.6649
GB,SY13,The Chequer,England,ENG,Shropshire,11609013,"","",52.9441,-2.6649
GB,SY13,Horseman's Green,England,ENG,Shropshire,11609013,"","",52.9441,-2.6649
GB,SY13,Marley Green,England,ENG,Shropshire,11609013,"","",52.9441,-2.6649
GB,SY13,Calverhall,England,ENG,Shropshire,11609013,"","",52.9441,-2.6649
GB,SY13,Eglwys Cross,England,ENG,Shropshire,11609013,"","",52.9441,-2.6649
GB,SY13,Broughall,England,ENG,Shropshire,11609013,"","",52.9441,-2.6649
GB,SY13,Prees Green,England,ENG,Shropshire,11609013,"","",52.9523,-2.6903
GB,SY13,Arowry,England,ENG,Shropshire,11609013,"","",52.9441,-2.6649
GB,SY13,Burleydam,England,ENG,Shropshire,11609013,"","",52.9441,-2.6649
GB,SY13,Fauls,England,ENG,Shropshire,11609013,"","",52.8904,-2.6129
GB,SY13,Tilstock,England,ENG,Shropshire,11609013,"","",52.9356,-2.6838
GB,SY13,Ightfield,England,ENG,Shropshire,11609013,"","",52.9413,-2.6058
GB,SY15,Chirbury,England,ENG,Shropshire,11609013,"","",52.5783,-3.0903
GB,SY2,Sutton,England,ENG,Shropshire,11609013,"","",52.7065,-2.7295
GB,SY21,Marton,England,ENG,Shropshire,11609013,"","",52.6167,-3.05
GB,SY3,Meole Brace,England,ENG,Shropshire,11609013,"","",52.6872,-2.7561
GB,SY3,Bayston Hill,England,ENG,Shropshire,11609013,"","",52.6755,-2.7616
GB,SY3,Shelton,England,ENG,Shropshire,11609013,"","",52.699,-2.7725
GB,SY3,The Isle,England,ENG,Shropshire,11609013,"","",52.699,-2.7725
GB,SY3,Bicton Heath,England,ENG,Shropshire,11609013,"","",52.699,-2.7725
GB,SY3,Great Lyth,England,ENG,Shropshire,11609013,"","",52.699,-2.7725
GB,SY3,Bicton,England,ENG,Shropshire,11609013,"","",52.7333,-2.8167
GB,SY4,Stanwardine in the Fields,England,ENG,Shropshire,11609013,"","",52.691,-2.6049
GB,SY4,Newtown,England,ENG,Shropshire,11609013,"","",52.7981,-2.752
GB,SY4,Aston,England,ENG,Shropshire,11609013,"","",52.7981,-2.752
GB,SY4,Forton,England,ENG,Shropshire,11609013,"","",52.7981,-2.752
GB,SY4,Alderton,England,ENG,Shropshire,11609013,"","",52.7981,-2.752
GB,SY4,Norton,England,ENG,Shropshire,11609013,"","",52.7981,-2.752
GB,SY4,Northwood,England,ENG,Shropshire,11609013,"","",52.7981,-2.752
GB,SY4,Grafton,England,ENG,Shropshire,11609013,"","",52.7981,-2.752
GB,SY4,Yeaton,England,ENG,Shropshire,11609013,"","",52.691,-2.6049
GB,SY4,Preston Brockhurst,England,ENG,Shropshire,11609013,"","",52.691,-2.6049
GB,SY4,Poynton Green,England,ENG,Shropshire,11609013,"","",52.691,-2.6049
GB,SY4,Harmer Hill,England,ENG,Shropshire,11609013,"","",52.691,-2.6049
GB,SY4,Great Wytheford,England,ENG,Shropshire,11609013,"","",52.691,-2.6049
GB,SY4,Nesscliffe,England,ENG,Shropshire,11609013,"","",52.691,-2.6049
GB,SY4,Felton Butler,England,ENG,Shropshire,11609013,"","",52.691,-2.6049
GB,SY4,Paddolgreen,England,ENG,Shropshire,11609013,"","",52.691,-2.6049
GB,SY4,Quina Brook,England,ENG,Shropshire,11609013,"","",52.691,-2.6049
GB,SY4,Noneley,England,ENG,Shropshire,11609013,"","",52.691,-2.6049
GB,SY4,Ensdon,England,ENG,Shropshire,11609013,"","",52.691,-2.6049
GB,SY4,High Hatton,England,ENG,Shropshire,11609013,"","",52.691,-2.6049
GB,SY4,Booley,England,ENG,Shropshire,11609013,"","",52.691,-2.6049
GB,SY4,Wykey,England,ENG,Shropshire,11609013,"","",52.691,-2.6049
GB,SY4,Myddlewood,England,ENG,Shropshire,11609013,"","",52.691,-2.6049
GB,SY4,Besford,England,ENG,Shropshire,11609013,"","",52.7981,-2.752
GB,SY4,Pentre,England,ENG,Shropshire,11609013,"","",52.7981,-2.752
GB,SY4,Montford Bridge,England,ENG,Shropshire,11609013,"","",52.691,-2.6049
GB,SY4,Edgebolton,England,ENG,Shropshire,11609013,"","",52.691,-2.6049
GB,SY4,Bomere Heath,England,ENG,Shropshire,11609013,"","",52.691,-2.6049
GB,SY4,Wolverley,England,ENG,Shropshire,11609013,"","",52.7981,-2.752
GB,SY4,Prescott,England,ENG,Shropshire,11609013,"","",52.7981,-2.752
GB,SY4,Uffington,England,ENG,Shropshire,11609013,"","",52.7217,-2.7002
GB,SY4,Ruyton-XI-Towns,England,ENG,Shropshire,11609013,"","",52.7972,-2.9055
GB,SY4,Milford,England,ENG,Shropshire,11609013,"","",52.7981,-2.752
GB,SY4,Upton Magna,England,ENG,Shropshire,11609013,"","",52.7081,-2.6604
GB,SY4,Baschurch,England,ENG,Shropshire,11609013,"","",52.7885,-2.8528
GB,SY4,Weston,England,ENG,Shropshire,11609013,"","",52.8547,-2.647
GB,SY4,Fitz,England,ENG,Shropshire,11609013,"","",52.7558,-2.8195
GB,SY4,Great Ness,England,ENG,Shropshire,11609013,"","",52.7638,-2.8915
GB,SY4,Leaton,England,ENG,Shropshire,11609013,"","",52.7618,-2.7913
GB,SY4,Albrighton,England,ENG,Shropshire,11609013,"","",52.75,-2.75
GB,SY4,Myddle,England,ENG,Shropshire,11609013,"","",52.8102,-2.789
GB,SY4,Withington,England,ENG,Shropshire,11609013,"","",52.7167,-2.6
GB,SY4,Wem,England,ENG,Shropshire,11609013,"","",52.8584,-2.7183
GB,SY4,Merrington,England,ENG,Shropshire,11609013,"","",52.7823,-2.7847
GB,SY4,Kinton,England,ENG,Shropshire,11609013,"","",52.7683,-2.9336
GB,SY4,Loppington,England,ENG,Shropshire,11609013,"","",52.8589,-2.7875
GB,SY4,Stanton upon Hine Heath,England,ENG,Shropshire,11609013,"","",52.8117,-2.6408
GB,SY4,Lee Brockhurst,England,ENG,Shropshire,11609013,"","",52.8399,-2.6737
GB,SY4,Weston Lullingfields,England,ENG,Shropshire,11609013,"","",52.8187,-2.8546
GB,SY4,Little Ness,England,ENG,Shropshire,11609013,"","",52.7713,-2.8796
GB,SY4,Edstaston,England,ENG,Shropshire,11609013,"","",52.8821,-2.7167
GB,SY4,Rodington,England,ENG,Shropshire,11609013,"","",52.7255,-2.61
GB,SY4,Preston Gubbals,England,ENG,Shropshire,11609013,"","",52.7721,-2.7531
GB,SY4,Hadnall,England,ENG,Shropshire,11609013,"","",52.7738,-2.71
GB,SY4,Marchamley,England,ENG,Shropshire,11609013,"","",52.8615,-2.6007
GB,SY4,Tilley,England,ENG,Shropshire,11609013,"","",52.8333,-2.7333
GB,SY4,Astley,England,ENG,Shropshire,11609013,"","",52.7667,-2.7
GB,SY4,Petton,England,ENG,Shropshire,11609013,"","",52.8333,-2.8333
GB,SY4,Burlton,England,ENG,Shropshire,11609013,"","",52.829,-2.8067
GB,SY4,Haughton,England,ENG,Shropshire,11609013,"","",52.8388,-2.9359
GB,SY4,Yorton,England,ENG,Shropshire,11609013,"","",52.8092,-2.7385
GB,SY4,Shrawardine,England,ENG,Shropshire,11609013,"","",52.732,-2.8904
GB,SY4,Shawbury,England,ENG,Shropshire,11609013,"","",52.7833,-2.65
GB,SY4,Montford,England,ENG,Shropshire,11609013,"","",52.732,-2.8904
GB,SY4,Grinshill,England,ENG,Shropshire,11609013,"","",52.806,-2.7118
GB,SY4,Clive,England,ENG,Shropshire,11609013,"","",52.8,-2.7167
GB,SY4,Walford,England,ENG,Shropshire,11609013,"","",52.8,-2.8333
GB,SY4,Moreton Corbet,England,ENG,Shropshire,11609013,"","",52.8058,-2.657
GB,SY4,Wilcott,England,ENG,Shropshire,11609013,"","",52.7633,-2.9271
GB,SY5,Habberley,England,ENG,Shropshire,11609013,"","",52.6167,-2.8833
GB,SY5,Worthen,England,ENG,Shropshire,11609013,"","",52.6358,-2.9951
GB,SY5,Brockton,England,ENG,Shropshire,11609013,"","",52.6333,-3
GB,SY5,Ratlinghope,England,ENG,Shropshire,11609013,"","",52.565,-2.883
GB,SY5,Pontesbury,England,ENG,Shropshire,11609013,"","",52.6483,-2.8903
GB,SY5,Alberbury,England,ENG,Shropshire,11609013,"","",52.7223,-2.9507
GB,SY5,Dorrington,England,ENG,Shropshire,11609013,"","",52.6167,-2.7833
GB,SY5,Pitchford,England,ENG,Shropshire,11609013,"","",52.6284,-2.6955
GB,SY5,Snailbeach,England,ENG,Shropshire,11609013,"","",52.6515,-2.8327
GB,SY5,Sheinton,England,ENG,Shropshire,11609013,"","",52.6309,-2.5734
GB,SY5,The Bog,England,ENG,Shropshire,11609013,"","",52.6515,-2.8327
GB,SY5,Shoot Hill,England,ENG,Shropshire,11609013,"","",52.6515,-2.8327
GB,SY5,Black Marsh,England,ENG,Shropshire,11609013,"","",52.6515,-2.8327
GB,SY5,Perkins Beach,England,ENG,Shropshire,11609013,"","",52.6515,-2.8327
GB,SY5,Vennington,England,ENG,Shropshire,11609013,"","",52.6515,-2.8327
GB,SY5,Annscroft,England,ENG,Shropshire,11609013,"","",52.6515,-2.8327
GB,SY5,Binweston,England,ENG,Shropshire,11609013,"","",52.6515,-2.8327
GB,SY5,Halfway House,England,ENG,Shropshire,11609013,"","",52.6515,-2.8327
GB,SY5,Wrentnall,England,ENG,Shropshire,11609013,"","",52.6515,-2.8327
GB,SY5,Longwood,England,ENG,Shropshire,11609013,"","",52.6515,-2.8327
GB,SY5,Acton Pigott,England,ENG,Shropshire,11609013,"","",52.6515,-2.8327
GB,SY5,Aston Rogers,England,ENG,Shropshire,11609013,"","",52.6515,-2.8327
GB,SY5,Pennerley,England,ENG,Shropshire,11609013,"","",52.6515,-2.8327
GB,SY5,Pontesford,England,ENG,Shropshire,11609013,"","",52.6515,-2.8327
GB,SY5,Betton,England,ENG,Shropshire,11609013,"","",52.6515,-2.8327
GB,SY5,Gravels,England,ENG,Shropshire,11609013,"","",52.6515,-2.8327
GB,SY5,Westley,England,ENG,Shropshire,11609013,"","",52.6515,-2.8327
GB,SY5,Longden,England,ENG,Shropshire,11609013,"","",52.6563,-2.8175
GB,SY5,Lea,England,ENG,Shropshire,11609013,"","",52.6515,-2.8327
GB,SY5,Cantlop,England,ENG,Shropshire,11609013,"","",52.6515,-2.8327
GB,SY5,Cruckmeole,England,ENG,Shropshire,11609013,"","",52.6515,-2.8327
GB,SY5,Cruckton,England,ENG,Shropshire,11609013,"","",52.6515,-2.8327
GB,SY5,Great Ryton,England,ENG,Shropshire,11609013,"","",52.6515,-2.8327
GB,SY5,Upper Cound,England,ENG,Shropshire,11609013,"","",52.6515,-2.8327
GB,SY5,Edge,England,ENG,Shropshire,11609013,"","",52.6515,-2.8327
GB,SY5,Cross Houses,England,ENG,Shropshire,11609013,"","",52.6515,-2.8327
GB,SY5,Farley,England,ENG,Shropshire,11609013,"","",52.6515,-2.8327
GB,SY5,Rowley,England,ENG,Shropshire,11609013,"","",52.6515,-2.8327
GB,SY5,Bridges,England,ENG,Shropshire,11609013,"","",52.6515,-2.8327
GB,SY5,Eaton Constantine,England,ENG,Shropshire,11609013,"","",52.6515,-2.8327
GB,SY5,The Marsh,England,ENG,Shropshire,11609013,"","",52.6515,-2.8327
GB,SY5,Exfords Green,England,ENG,Shropshire,11609013,"","",52.6515,-2.8327
GB,SY5,Hook-a-Gate,England,ENG,Shropshire,11609013,"","",52.6515,-2.8327
GB,SY5,Lower Wallop,England,ENG,Shropshire,11609013,"","",52.6515,-2.8327
GB,SY5,Dryton,England,ENG,Shropshire,11609013,"","",52.6515,-2.8327
GB,SY5,Ploxgreen,England,ENG,Shropshire,11609013,"","",52.6515,-2.8327
GB,SY5,Ruckley,England,ENG,Shropshire,11609013,"","",52.6515,-2.8327
GB,SY5,Donnington,England,ENG,Shropshire,11609013,"","",52.6515,-2.8327
GB,SY5,Leigh,England,ENG,Shropshire,11609013,"","",52.6515,-2.8327
GB,SY5,Hope,England,ENG,Shropshire,11609013,"","",52.6515,-2.8327
GB,SY5,Hinton,England,ENG,Shropshire,11609013,"","",52.6515,-2.8327
GB,SY5,Golding,England,ENG,Shropshire,11609013,"","",52.6515,-2.8327
GB,SY5,Leighton,England,ENG,Shropshire,11609013,"","",52.6515,-2.8327
GB,SY5,Crewgreen,England,ENG,Shropshire,11609013,"","",52.6515,-2.8327
GB,SY5,Nox,England,ENG,Shropshire,11609013,"","",52.6515,-2.8327
GB,SY5,Stoney Stretton,England,ENG,Shropshire,11609013,"","",52.6515,-2.8327
GB,SY5,Stretton Heath,England,ENG,Shropshire,11609013,"","",52.6515,-2.8327
GB,SY5,Cound,England,ENG,Shropshire,11609013,"","",52.6401,-2.6545
GB,SY5,Church Pulverbatch,England,ENG,Shropshire,11609013,"","",52.6202,-2.8443
GB,SY5,Pulverbatch,England,ENG,Shropshire,11609013,"","",52.6202,-2.8443
GB,SY5,Condover,England,ENG,Shropshire,11609013,"","",52.6483,-2.7503
GB,SY5,Harley,England,ENG,Shropshire,11609013,"","",52.6,-2.6
GB,SY5,Yockleton,England,ENG,Shropshire,11609013,"","",52.6855,-2.8892
GB,SY5,Great Hanwood,England,ENG,Shropshire,11609013,"","",52.6833,-2.8167
GB,SY5,Ford,England,ENG,Shropshire,11609013,"","",52.7167,-2.85
GB,SY5,Westbury,England,ENG,Shropshire,11609013,"","",52.6833,-2.95
GB,SY5,Minsterley,England,ENG,Shropshire,11609013,"","",52.6399,-2.9281
GB,SY5,Stapleton,England,ENG,Shropshire,11609013,"","",52.6333,-2.7833
GB,SY5,Plealey,England,ENG,Shropshire,11609013,"","",52.6568,-2.8546
GB,SY5,Wollaston,England,ENG,Shropshire,11609013,"","",52.7,-3
GB,SY5,Atcham,England,ENG,Shropshire,11609013,"","",52.6796,-2.6797
GB,SY5,Berrington,England,ENG,Shropshire,11609013,"","",52.65,-2.7
GB,SY5,Acton Burnell,England,ENG,Shropshire,11609013,"","",52.6139,-2.6947
GB,SY5,Meadowtown,England,ENG,Shropshire,11609013,"","",52.6042,-3.0185
GB,SY5,Wroxeter,England,ENG,Shropshire,11609013,"","",52.6704,-2.6476
GB,SY5,Cressage,England,ENG,Shropshire,11609013,"","",52.6336,-2.605
GB,SY5,Frodesley,England,ENG,Shropshire,11609013,"","",52.6079,-2.7202
GB,SY5,Shelve,England,ENG,Shropshire,11609013,"","",52.5848,-2.9801
GB,SY5,Longnor,England,ENG,Shropshire,11609013,"","",52.6,-2.75
GB,SY5,Cardeston,England,ENG,Shropshire,11609013,"","",52.7051,-2.8969
GB,SY5,Kenley,England,ENG,Shropshire,11609013,"","",52.6,-2.6333
GB,SY5,Asterley,England,ENG,Shropshire,11609013,"","",52.6576,-2.9256
GB,SY5,Hughley,England,ENG,Shropshire,11609013,"","",52.5775,-2.6433
GB,SY6,Plaish,England,ENG,Shropshire,11609013,"","",52.5364,-2.7923
GB,SY6,Hatton,England,ENG,Shropshire,11609013,"","",52.5364,-2.7923
GB,SY6,Enchmarsh,England,ENG,Shropshire,11609013,"","",52.5364,-2.7923
GB,SY6,Alcaston,England,ENG,Shropshire,11609013,"","",52.5364,-2.7923
GB,SY6,Wall Bank,England,ENG,Shropshire,11609013,"","",52.5364,-2.7923
GB,SY6,Harton,England,ENG,Shropshire,11609013,"","",52.5364,-2.7923
GB,SY6,Woolston,England,ENG,Shropshire,11609013,"","",52.5364,-2.7923
GB,SY6,Wall under Heywood,England,ENG,Shropshire,11609013,"","",52.5364,-2.7923
GB,SY6,Minton,England,ENG,Shropshire,11609013,"","",52.5364,-2.7923
GB,SY6,Upper Affcot,England,ENG,Shropshire,11609013,"","",52.5364,-2.7923
GB,SY6,Whittingslow,England,ENG,Shropshire,11609013,"","",52.5364,-2.7923
GB,SY6,Church Preen,England,ENG,Shropshire,11609013,"","",52.5775,-2.6727
GB,SY6,Gretton,England,ENG,Shropshire,11609013,"","",52.5364,-2.7923
GB,SY6,Cardington,England,ENG,Shropshire,11609013,"","",52.55,-2.7333
GB,SY6,Acton Scott,England,ENG,Shropshire,11609013,"","",52.501,-2.8048
GB,SY6,Picklescott,England,ENG,Shropshire,11609013,"","",52.5899,-2.8347
GB,SY6,Woolstaston,England,ENG,Shropshire,11609013,"","",52.5808,-2.81
GB,SY6,Little Stretton,England,ENG,Shropshire,11609013,"","",52.5167,-2.8167
GB,SY6,Ticklerton,England,ENG,Shropshire,11609013,"","",52.5129,-2.7615
GB,SY6,Eaton,England,ENG,Shropshire,11609013,"","",52.5,-2.75
GB,SY6,Church Stretton,England,ENG,Shropshire,11609013,"","",52.5378,-2.8015
GB,SY6,Rushbury,England,ENG,Shropshire,11609013,"","",52.5226,-2.7182
GB,SY6,Marshbrook,England,ENG,Shropshire,11609013,"","",52.5035,-2.8238
GB,SY6,All Stretton,England,ENG,Shropshire,11609013,"","",52.5539,-2.7979
GB,SY6,Hope Bowdler,England,ENG,Shropshire,11609013,"","",52.5274,-2.7757
GB,SY6,Leebotwood,England,ENG,Shropshire,11609013,"","",52.5846,-2.7752
GB,SY7,Clungunford,England,ENG,Shropshire,11609013,"","",52.4039,-2.8848
GB,SY7,Lydbury North,England,ENG,Shropshire,11609013,"","",52.4676,-2.957
GB,SY7,Sibdon Carwood,England,ENG,Shropshire,11609013,"","",52.443,-2.8661
GB,SY7,Bedstone,England,ENG,Shropshire,11609013,"","",52.3748,-2.9273
GB,SY7,Edgton,England,ENG,Shropshire,11609013,"","",52.4669,-2.9038
GB,SY7,Diddlebury,England,ENG,Shropshire,11609013,"","",52.4658,-2.7325
GB,SY7,Wistanstow,England,ENG,Shropshire,11609013,"","",52.4647,-2.8376
GB,SY7,Horderley,England,ENG,Shropshire,11609013,"","",52.4764,-2.8704
GB,SY7,Onibury,England,ENG,Shropshire,11609013,"","",52.4083,-2.8031
GB,SY7,Clun,England,ENG,Shropshire,11609013,"","",52.4214,-3.0275
GB,SY7,Hopesay,England,ENG,Shropshire,11609013,"","",52.4454,-2.8982
GB,SY7,Clee St Margaret,England,ENG,Shropshire,11609013,"","",52.45,-2.65
GB,SY7,Hoptonheath,England,ENG,Shropshire,11609013,"","",52.3833,-2.9167
GB,SY7,Stokesay,England,ENG,Shropshire,11609013,"","",52.4283,-2.83
GB,SY7,Newcastle,England,ENG,Shropshire,11609013,"","",52.4333,-3.1167
GB,SY7,Munslow,England,ENG,Shropshire,11609013,"","",52.4849,-2.7057
GB,SY7,Llwyn,England,ENG,Shropshire,11609013,"","",52.451,-2.7599
GB,SY7,Myndtown,England,ENG,Shropshire,11609013,"","",52.5109,-2.8973
GB,SY7,Walford,England,ENG,Shropshire,11609013,"","",52.4258,-2.8872
GB,SY7,Kinton,England,ENG,Shropshire,11609013,"","",52.4258,-2.8872
GB,SY7,Eyton,England,ENG,Shropshire,11609013,"","",52.4258,-2.8872
GB,SY7,Norton,England,ENG,Shropshire,11609013,"","",52.4258,-2.8872
GB,SY7,Wootton,England,ENG,Shropshire,11609013,"","",52.4258,-2.8872
GB,SY7,Anchor,England,ENG,Shropshire,11609013,"","",52.4258,-2.8872
GB,SY7,Newton,England,ENG,Shropshire,11609013,"","",52.4258,-2.8872
GB,SY7,Hopton Castle,England,ENG,Shropshire,11609013,"","",52.3902,-2.9459
GB,SY7,Kempton,England,ENG,Shropshire,11609013,"","",52.451,-2.7599
GB,SY7,Westhope,England,ENG,Shropshire,11609013,"","",52.451,-2.7599
GB,SY7,Corfton,England,ENG,Shropshire,11609013,"","",52.451,-2.7599
GB,SY7,Birtley,England,ENG,Shropshire,11609013,"","",52.451,-2.7599
GB,SY7,Purslow,England,ENG,Shropshire,11609013,"","",52.451,-2.7599
GB,SY7,Purlogue,England,ENG,Shropshire,11609013,"","",52.451,-2.7599
GB,SY7,Lower Down,England,ENG,Shropshire,11609013,"","",52.451,-2.7599
GB,SY7,Little Brampton,England,ENG,Shropshire,11609013,"","",52.451,-2.7599
GB,SY7,Hobarris,England,ENG,Shropshire,11609013,"","",52.451,-2.7599
GB,SY7,Hall of the Forest,England,ENG,Shropshire,11609013,"","",52.451,-2.7599
GB,SY7,Chapel Lawn,England,ENG,Shropshire,11609013,"","",52.451,-2.7599
GB,SY7,Buckton,England,ENG,Shropshire,11609013,"","",52.451,-2.7599
GB,SY7,Whitcott Keysett,England,ENG,Shropshire,11609013,"","",52.451,-2.7599
GB,SY7,Vernolds Common,England,ENG,Shropshire,11609013,"","",52.451,-2.7599
GB,SY7,Strefford,England,ENG,Shropshire,11609013,"","",52.451,-2.7599
GB,SY7,Peaton,England,ENG,Shropshire,11609013,"","",52.451,-2.7599
GB,SY7,Obley,England,ENG,Shropshire,11609013,"","",52.451,-2.7599
GB,SY7,Lower Dinchope,England,ENG,Shropshire,11609013,"","",52.451,-2.7599
GB,SY7,Shelderton,England,ENG,Shropshire,11609013,"","",52.451,-2.7599
GB,SY7,Middlehope,England,ENG,Shropshire,11609013,"","",52.451,-2.7599
GB,SY7,Cheney Longville,England,ENG,Shropshire,11609013,"","",52.451,-2.7599
GB,SY7,Aston on Clun,England,ENG,Shropshire,11609013,"","",52.451,-2.7599
GB,SY7,Broadstone,England,ENG,Shropshire,11609013,"","",52.451,-2.7599
GB,SY7,Bouldon,England,ENG,Shropshire,11609013,"","",52.451,-2.7599
GB,SY7,Aston Munslow,England,ENG,Shropshire,11609013,"","",52.451,-2.7599
GB,SY7,Asterton,England,ENG,Shropshire,11609013,"","",52.451,-2.7599
GB,SY7,Brockton,England,ENG,Shropshire,11609013,"","",52.4258,-2.8872
GB,SY7,Letton,England,ENG,Shropshire,11609013,"","",52.4258,-2.8872
GB,SY7,Woodside,England,ENG,Shropshire,11609013,"","",52.4258,-2.8872
GB,SY7,Walcot,England,ENG,Shropshire,11609013,"","",52.4258,-2.8872
GB,SY7,Bicton,England,ENG,Shropshire,11609013,"","",52.4258,-2.8872
GB,SY7,New Invention,England,ENG,Shropshire,11609013,"","",52.451,-2.7599
GB,SY7,Twitchen,England,ENG,Shropshire,11609013,"","",52.451,-2.7599
GB,SY7,Upper Heath,England,ENG,Shropshire,11609013,"","",52.451,-2.7599
GB,SY7,Plowden,England,ENG,Shropshire,11609013,"","",52.4841,-2.9152
GB,SY7,Abdon,England,ENG,Shropshire,11609013,"","",52.4806,-2.6535
GB,SY7,Tugford,England,ENG,Shropshire,11609013,"","",52.4806,-2.6535
GB,SY7,Halford,England,ENG,Shropshire,11609013,"","",52.4467,-2.8256
GB,SY7,Bucknell,England,ENG,Shropshire,11609013,"","",52.3667,-2.95
GB,SY7,Bettws-y-crwyn,England,ENG,Shropshire,11609013,"","",52.4333,-3.1667
GB,SY7,Clunbury,England,ENG,Shropshire,11609013,"","",52.4187,-2.9255
GB,SY7,Craven Arms,England,ENG,Shropshire,11609013,"","",52.4431,-2.8356
GB,SY7,Clunton,England,ENG,Shropshire,11609013,"","",52.426,-2.9798
GB,SY7,Broome,England,ENG,Shropshire,11609013,"","",52.4167,-2.8833
GB,SY8,Hopton Cangeford,England,ENG,Shropshire,11609013,"","",52.4196,-2.6673
GB,SY8,Stanton Lacy,England,ENG,Shropshire,11609013,"","",52.4048,-2.7426
GB,SY8,Bromfield,England,ENG,Shropshire,11609013,"","",52.3833,-2.7667
GB,SY8,Hayton's Bent,England,ENG,Shropshire,11609013,"","",52.383,-2.6942
GB,SY8,Farden,England,ENG,Shropshire,11609013,"","",52.383,-2.6942
GB,SY8,Aston,England,ENG,Shropshire,11609013,"","",52.3654,-2.6954
GB,SY8,Comberton,England,ENG,Shropshire,11609013,"","",52.3654,-2.6954
GB,SY8,Whitton,England,ENG,Shropshire,11609013,"","",52.3529,-2.6243
GB,SY8,Nash,England,ENG,Shropshire,11609013,"","",52.3534,-2.5843
GB,SY8,Great Sutton,England,ENG,Shropshire,11609013,"","",52.3654,-2.6954
GB,SY8,Knowle,England,ENG,Shropshire,11609013,"","",52.3654,-2.6954
GB,SY8,Henley,England,ENG,Shropshire,11609013,"","",52.383,-2.6942
GB,SY8,Orleton Common,England,ENG,Shropshire,11609013,"","",52.383,-2.6942
GB,SY8,Wyson,England,ENG,Shropshire,11609013,"","",52.383,-2.6942
GB,SY8,Siefton,England,ENG,Shropshire,11609013,"","",52.383,-2.6942
GB,SY8,Knowbury,England,ENG,Shropshire,11609013,"","",52.383,-2.6942
GB,SY8,Ashford Bowdler,England,ENG,Shropshire,11609013,"","",52.331,-2.713
GB,SY8,Overton,England,ENG,Shropshire,11609013,"","",52.3654,-2.6954
GB,SY8,Middleton on the Hill,England,ENG,Shropshire,11609013,"","",52.3654,-2.6954
GB,SY8,Ludford,England,ENG,Shropshire,11609013,"","",52.383,-2.6942
GB,SY8,Hints,England,ENG,Shropshire,11609013,"","",52.383,-2.6942
GB,SY8,Snitton,England,ENG,Shropshire,11609013,"","",52.383,-2.6942
GB,SY8,Upper Hayton,England,ENG,Shropshire,11609013,"","",52.383,-2.6942
GB,SY8,Greete,England,ENG,Shropshire,11609013,"","",52.3394,-2.6404
GB,SY8,Lower Hayton,England,ENG,Shropshire,11609013,"","",52.383,-2.6942
GB,SY8,Cleedownton,England,ENG,Shropshire,11609013,"","",52.383,-2.6942
GB,SY8,Cleehill,England,ENG,Shropshire,11609013,"","",52.383,-2.6942
GB,SY8,Downton on the Rock,England,ENG,Shropshire,11609013,"","",52.383,-2.6942
GB,SY8,Hope Bagot,England,ENG,Shropshire,11609013,"","",52.3627,-2.6049
GB,SY8,Bitterley,England,ENG,Shropshire,11609013,"","",52.393,-2.6449
GB,SY8,Middleton,England,ENG,Shropshire,11609013,"","",52.3833,-2.6833
GB,SY8,Richard's Castle,England,ENG,Shropshire,11609013,"","",52.3126,-2.7051
GB,SY8,Woofferton,England,ENG,Shropshire,11609013,"","",52.3126,-2.7051
GB,SY8,Stoke St Milborough,England,ENG,Shropshire,11609013,"","",52.4333,-2.6333
GB,SY8,Coreley,England,ENG,Shropshire,11609013,"","",52.3597,-2.5616
GB,SY8,Culmington,England,ENG,Shropshire,11609013,"","",52.4339,-2.7473
GB,SY8,Caynham,England,ENG,Shropshire,11609013,"","",52.3537,-2.6617
GB,SY8,Ludlow,England,ENG,Shropshire,11609013,"","",52.3743,-2.7131
GB,SY8,Ashford Carbonel,England,ENG,Shropshire,11609013,"","",52.3318,-2.6991
GB,SY9,More,England,ENG,Shropshire,11609013,"","",52.5175,-2.9692
GB,SY9,Wentnor,England,ENG,Shropshire,11609013,"","",52.5294,-2.9093
GB,SY9,Acton,England,ENG,Shropshire,11609013,"","",52.45,-3.0167
GB,SY9,Norbury,England,ENG,Shropshire,11609013,"","",52.5333,-2.95
GB,SY9,Mainstone,England,ENG,Shropshire,11609013,"","",52.4833,-3.0833
GB,SY9,Bishop's Castle,England,ENG,Shropshire,11609013,"","",52.4921,-3.0021
GB,SY9,Lydham,England,ENG,Shropshire,11609013,"","",52.5148,-2.9797
GB,SY99,Shrewsbury,England,ENG,Shropshire,11609013,"","",52.7101,-2.7521
GB,TF1,Arleston,England,ENG,Shropshire,11609013,"","",52.7,-2.5
GB,TF1,Leegomery,England,ENG,Shropshire,11609013,"","",52.7,-2.5
GB,TF1,Hadley,England,ENG,Shropshire,11609013,"","",52.7,-2.4833
GB,TF1,Wellington,England,ENG,Shropshire,11609013,"","",52.7,-2.5167
GB,TF10,Woodcote,England,ENG,Shropshire,11609013,"","",52.7333,-2.3333
GB,TF10,Edgmond,England,ENG,Shropshire,11609013,"","",52.774,-2.4097
GB,TF10,Newport,England,ENG,Shropshire,11609013,"","",52.7833,-2.3833
GB,TF10,Lilleshall,England,ENG,Shropshire,11609013,"","",52.7342,-2.4032
GB,TF10,Forton,England,ENG,Shropshire,11609013,"","",52.7833,-2.3667
GB,TF10,Longford,England,ENG,Shropshire,11609013,"","",52.7592,-2.4119
GB,TF10,Church Aston,England,ENG,Shropshire,11609013,"","",52.7579,-2.3854
GB,TF10,Sutton,England,ENG,Shropshire,11609013,"","",52.7689,-2.3882
GB,TF10,Tibberton,England,ENG,Shropshire,11609013,"","",52.7833,-2.4667
GB,TF10,Chetwynd Aston,England,ENG,Shropshire,11609013,"","",52.7549,-2.3676
GB,TF11,Sheriffhales,England,ENG,Shropshire,11609013,"","",52.6959,-2.3582
GB,TF11,Crackleybank,England,ENG,Shropshire,11609013,"","",52.6959,-2.3582
GB,TF11,Ryton,England,ENG,Shropshire,11609013,"","",52.6167,-2.35
GB,TF11,Sutton Maddock,England,ENG,Shropshire,11609013,"","",52.61,-2.4104
GB,TF11,Shifnal,England,ENG,Shropshire,11609013,"","",52.6704,-2.3725
GB,TF11,Weston Heath,England,ENG,Shropshire,11609013,"","",52.6306,-2.3342
GB,TF11,Tong Norton,England,ENG,Shropshire,11609013,"","",52.6306,-2.3342
GB,TF11,Grindle,England,ENG,Shropshire,11609013,"","",52.6306,-2.3342
GB,TF11,Brineton,England,ENG,Shropshire,11609013,"","",52.6306,-2.3342
GB,TF11,Kemberton,England,ENG,Shropshire,11609013,"","",52.6384,-2.3987
GB,TF11,The Wyke,England,ENG,Shropshire,11609013,"","",52.6306,-2.3342
GB,TF11,Brockton,England,ENG,Shropshire,11609013,"","",52.6641,-2.3583
GB,TF11,Stockton,England,ENG,Shropshire,11609013,"","",52.5988,-2.3999
GB,TF11,Heath Hill,England,ENG,Shropshire,11609013,"","",52.6306,-2.3342
GB,TF11,Norton,England,ENG,Shropshire,11609013,"","",52.6641,-2.3583
GB,TF11,Tong,England,ENG,Shropshire,11609013,"","",52.6667,-2.3
GB,TF11,Beckbury,England,ENG,Shropshire,11609013,"","",52.6121,-2.3482
GB,TF12,Barrow,England,ENG,Shropshire,11609013,"","",52.6032,-2.4897
GB,TF12,Willey,England,ENG,Shropshire,11609013,"","",52.5833,-2.4833
GB,TF12,Broseley,England,ENG,Shropshire,11609013,"","",52.6132,-2.4827
GB,TF12,Benthall,England,ENG,Shropshire,11609013,"","",52.6192,-2.4963
GB,TF13,Longville in the Dale,England,ENG,Shropshire,11609013,"","",52.5397,-2.6803
GB,TF13,Easthope,England,ENG,Shropshire,11609013,"","",52.5533,-2.6407
GB,TF13,Much Wenlock,England,ENG,Shropshire,11609013,"","",52.5958,-2.5575
GB,TF13,Shipton,England,ENG,Shropshire,11609013,"","",52.525,-2.6452
GB,TF13,Brockton,England,ENG,Shropshire,11609013,"","",52.5793,-2.5809
GB,TF13,Homer,England,ENG,Shropshire,11609013,"","",52.5793,-2.5809
GB,TF13,Holdgate,England,ENG,Shropshire,11609013,"","",52.5793,-2.5809
GB,TF13,Wyke,England,ENG,Shropshire,11609013,"","",52.5793,-2.5809
GB,TF13,East Wall,England,ENG,Shropshire,11609013,"","",52.5793,-2.5809
GB,TF13,Weston,England,ENG,Shropshire,11609013,"","",52.5793,-2.5809
GB,TF13,Stretton Westwood,England,ENG,Shropshire,11609013,"","",52.5793,-2.5809
GB,TF13,Presthope,England,ENG,Shropshire,11609013,"","",52.5727,-2.6179
GB,TF13,Bourton,England,ENG,Shropshire,11609013,"","",52.5667,-2.6
GB,TF13,Stanton Long,England,ENG,Shropshire,11609013,"","",52.5119,-2.631
GB,TF2,Oakengates,England,ENG,Shropshire,11609013,"","",52.695,-2.4504
GB,TF2,Trench,England,ENG,Shropshire,11609013,"","",52.7167,-2.4667
GB,TF2,Redhill,England,ENG,Shropshire,11609013,"","",52.7041,-2.4402
GB,TF2,Donnington,England,ENG,Shropshire,11609013,"","",52.7041,-2.4402
GB,TF3,Stirchley,England,ENG,Shropshire,11609013,"","",52.6766,-2.4493
GB,TF3,Hollinswood,England,ENG,Shropshire,11609013,"","",52.6766,-2.4493
GB,TF3,Oldpark,England,ENG,Shropshire,11609013,"","",52.6766,-2.4493
GB,TF3,Telford,England,ENG,Shropshire,11609013,"","",52.6766,-2.4493
GB,TF4,Horsehay,England,ENG,Shropshire,11609013,"","",52.6589,-2.4886
GB,TF4,Dawley,England,ENG,Shropshire,11609013,"","",52.6649,-2.4674
GB,TF4,Lawley,England,ENG,Shropshire,11609013,"","",52.6833,-2.4833
GB,TF5,Admaston,England,ENG,Shropshire,11609013,"","",52.7167,-2.55
GB,TF6,Long Waste,England,ENG,Shropshire,11609013,"","",52.7365,-2.5555
GB,TF6,Sleapford,England,ENG,Shropshire,11609013,"","",52.7365,-2.5555
GB,TF6,Rushmoor,England,ENG,Shropshire,11609013,"","",52.7365,-2.5555
GB,TF6,Muckleton,England,ENG,Shropshire,11609013,"","",52.7365,-2.5555
GB,TF6,Poynton,England,ENG,Shropshire,11609013,"","",52.7365,-2.5555
GB,TF6,Aston,England,ENG,Shropshire,11609013,"","",52.7365,-2.5555
GB,TF6,Rushton,England,ENG,Shropshire,11609013,"","",52.7365,-2.5555
GB,TF6,Roden,England,ENG,Shropshire,11609013,"","",52.7365,-2.5555
GB,TF6,Longdon upon Tern,England,ENG,Shropshire,11609013,"","",52.7365,-2.5555
GB,TF6,Marsh Green,England,ENG,Shropshire,11609013,"","",52.7365,-2.5555
GB,TF6,Ellerdine Heath,England,ENG,Shropshire,11609013,"","",52.7365,-2.5555
GB,TF6,Kynnersley,England,ENG,Shropshire,11609013,"","",52.7501,-2.4928
GB,TF6,Waters Upton,England,ENG,Shropshire,11609013,"","",52.7706,-2.5364
GB,TF6,Walton,England,ENG,Shropshire,11609013,"","",52.7365,-2.5555
GB,TF6,Osbaston,England,ENG,Shropshire,11609013,"","",52.7365,-2.5555
GB,TF6,Isombridge,England,ENG,Shropshire,11609013,"","",52.7365,-2.5555
GB,TF6,Eyton upon the Weald Moors,England,ENG,Shropshire,11609013,"","",52.7333,-2.5167
GB,TF6,Crudgington,England,ENG,Shropshire,11609013,"","",52.7592,-2.5491
GB,TF6,High Ercall,England,ENG,Shropshire,11609013,"","",52.7541,-2.6024
GB,TF6,Cherrington,England,ENG,Shropshire,11609013,"","",52.7763,-2.4964
GB,TF6,Uppington,England,ENG,Shropshire,11609013,"","",52.6704,-2.6476
GB,TF6,Rowton,England,ENG,Shropshire,11609013,"","",52.7667,-2.5833
GB,TF6,Great Bolas,England,ENG,Shropshire,11609013,"","",52.7891,-2.5223
GB,TF6,Wrockwardine,England,ENG,Shropshire,11609013,"","",52.7045,-2.5568
GB,TF6,Walcot,England,ENG,Shropshire,11609013,"","",52.7,-2.6
GB,TF6,Preston upon the Weald Moors,England,ENG,Shropshire,11609013,"","",52.7357,-2.4732
GB,TF6,Little Wenlock,England,ENG,Shropshire,11609013,"","",52.6799,-2.5369
GB,TF7,Madeley,England,ENG,Shropshire,11609013,"","",52.6333,-2.4333
GB,TF8,Ironbridge,England,ENG,Shropshire,11609013,"","",52.6279,-2.4847
GB,TF8,Buildwas,England,ENG,Shropshire,11609013,"","",52.6343,-2.5267
GB,TF8,Coalbrookdale,England,ENG,Shropshire,11609013,"","",52.6382,-2.4917
GB,TF8,Coalport,England,ENG,Shropshire,11609013,"","",52.6192,-2.4507
GB,TF9,Lockleywood,England,ENG,Shropshire,11609013,"","",52.8515,-2.46
GB,TF9,Hodnet,England,ENG,Shropshire,11609013,"","",52.8505,-2.5682
GB,TF9,Market Drayton,England,ENG,Shropshire,11609013,"","",52.9054,-2.4901
GB,TF9,Moreton Say,England,ENG,Shropshire,11609013,"","",52.9061,-2.5524
GB,TF9,Peplow,England,ENG,Shropshire,11609013,"","",52.8166,-2.5456
GB,TF9,Ternhill,England,ENG,Shropshire,11609013,"","",52.8857,-2.5431
GB,TF9,Longford,England,ENG,Shropshire,11609013,"","",52.8971,-2.4704
GB,TF9,Cheswardine,England,ENG,Shropshire,11609013,"","",52.8652,-2.4145
GB,TF9,Child's Ercall,England,ENG,Shropshire,11609013,"","",52.8248,-2.4925
GB,TF9,Ollerton,England,ENG,Shropshire,11609013,"","",52.8971,-2.4704
GB,TF9,Knighton,England,ENG,Shropshire,11609013,"","",52.8971,-2.4704
GB,TF9,Soudley,England,ENG,Shropshire,11609013,"","",52.8971,-2.4704
GB,TF9,Hopton,England,ENG,Shropshire,11609013,"","",52.8971,-2.4704
GB,TF9,Aston,England,ENG,Shropshire,11609013,"","",52.8971,-2.4704
GB,TF9,Sutton,England,ENG,Shropshire,11609013,"","",52.8971,-2.4704
GB,TF9,Pipe Gate,England,ENG,Shropshire,11609013,"","",52.9632,-2.3915
GB,TF9,Norton in Hales,England,ENG,Shropshire,11609013,"","",52.9441,-2.4431
GB,TF9,Hinstock,England,ENG,Shropshire,11609013,"","",52.8371,-2.4576
GB,TF9,Adderley,England,ENG,Shropshire,11609013,"","",52.954,-2.5047
GB,WR15,Boraston,England,ENG,Shropshire,11609013,"","",52.3263,-2.5673
GB,WV15,Quatt,England,ENG,Shropshire,11609013,"","",52.4913,-2.3616
GB,WV15,Hilton,England,ENG,Shropshire,11609013,"","",52.5667,-2.3167
GB,WV15,Birdsgreen,England,ENG,Shropshire,11609013,"","",52.5154,-2.375
GB,WV15,Swancote,England,ENG,Shropshire,11609013,"","",52.5154,-2.375
GB,WV15,Wyken,England,ENG,Shropshire,11609013,"","",52.5154,-2.375
GB,WV15,Chesterton,England,ENG,Shropshire,11609013,"","",52.5154,-2.375
GB,WV15,Allscot,England,ENG,Shropshire,11609013,"","",52.5154,-2.375
GB,WV15,Roughton,England,ENG,Shropshire,11609013,"","",52.5154,-2.375
GB,WV15,Six Ashes,England,ENG,Shropshire,11609013,"","",52.5154,-2.375
GB,WV15,Romsley,England,ENG,Shropshire,11609013,"","",52.45,-2.3167
GB,WV15,Quatford,England,ENG,Shropshire,11609013,"","",52.5164,-2.3875
GB,WV15,Worfield,England,ENG,Shropshire,11609013,"","",52.5581,-2.3576
GB,WV15,Alveley,England,ENG,Shropshire,11609013,"","",52.4571,-2.3543
GB,WV16,Cleobury North,England,ENG,Shropshire,11609013,"","",52.4777,-2.5561
GB,WV16,Chetton,England,ENG,Shropshire,11609013,"","",52.5108,-2.4966
GB,WV16,Aston Botterell,England,ENG,Shropshire,11609013,"","",52.4548,-2.5428
GB,WV16,Billingsley,England,ENG,Shropshire,11609013,"","",52.4555,-2.4233
GB,WV16,Burwarton,England,ENG,Shropshire,11609013,"","",52.4624,-2.5609
GB,WV16,Highley,England,ENG,Shropshire,11609013,"","",52.4487,-2.3825
GB,WV16,Eardington,England,ENG,Shropshire,11609013,"","",52.5141,-2.4121
GB,WV16,Glazeley,England,ENG,Shropshire,11609013,"","",52.4905,-2.4413
GB,WV16,Morville,England,ENG,Shropshire,11609013,"","",52.5442,-2.4892
GB,WV16,Bridgnorth,England,ENG,Shropshire,11609013,"","",52.5366,-2.4203
GB,WV16,Astley Abbotts,England,ENG,Shropshire,11609013,"","",52.562,-2.4309
GB,WV16,Monkhopton,England,ENG,Shropshire,11609013,"","",52.5383,-2.5531
GB,WV16,Acton Round,England,ENG,Shropshire,11609013,"","",52.5571,-2.5372
GB,WV16,Loughton,England,ENG,Shropshire,11609013,"","",52.4333,-2.5667
GB,WV16,Ditton Priors,England,ENG,Shropshire,11609013,"","",52.4991,-2.5775
GB,WV16,Neenton,England,ENG,Shropshire,11609013,"","",52.4873,-2.5373
GB,WV16,Woodlands,England,ENG,Shropshire,11609013,"","",52.5642,-2.4534
GB,WV16,Oldbury,England,ENG,Shropshire,11609013,"","",52.5108,-2.4404
GB,WV16,Middleton Scriven,England,ENG,Shropshire,11609013,"","",52.4889,-2.4803
GB,WV16,The Smithies,England,ENG,Shropshire,11609013,"","",52.5642,-2.4534
GB,WV16,Cross Lane Head,England,ENG,Shropshire,11609013,"","",52.5642,-2.4534
GB,WV16,Tasley,England,ENG,Shropshire,11609013,"","",52.5642,-2.4534
GB,WV16,Nordley,England,ENG,Shropshire,11609013,"","",52.5642,-2.4534
GB,WV16,Woodhill,England,ENG,Shropshire,11609013,"","",52.5642,-2.4534
GB,WV16,Chorley,England,ENG,Shropshire,11609013,"","",52.5108,-2.4404
GB,WV16,Haughton,England,ENG,Shropshire,11609013,"","",52.5108,-2.4404
GB,WV16,Sutton,England,ENG,Shropshire,11609013,"","",52.5642,-2.4534
GB,WV16,Aston Eyre,England,ENG,Shropshire,11609013,"","",52.5472,-2.5131
GB,WV16,Middleton Priors,England,ENG,Shropshire,11609013,"","",52.5642,-2.4534
GB,WV16,Chelmarsh,England,ENG,Shropshire,11609013,"","",52.4843,-2.4053
GB,WV16,Upton Cressett,England,ENG,Shropshire,11609013,"","",52.5285,-2.5171
GB,WV16,Sidbury,England,ENG,Shropshire,11609013,"","",52.4633,-2.4613
GB,WV16,Deuxhill,England,ENG,Shropshire,11609013,"","",52.4795,-2.4451
GB,WV16,Wheathill,England,ENG,Shropshire,11609013,"","",52.4328,-2.582
GB,WV16,Hampton,England,ENG,Shropshire,11609013,"","",52.4667,-2.3833
GB,WV5,Claverley,England,ENG,Shropshire,11609013,"","",52.5379,-2.3065
GB,WV6,Badger,England,ENG,Shropshire,11609013,"","",52.5928,-2.3444
GB,WV7,Albrighton,England,ENG,Shropshire,11609013,"","",52.6333,-2.2667
GB,WV7,Boningale,England,ENG,Shropshire,11609013,"","",52.6203,-2.272
GB,WV7,Shackerley,England,ENG,Shropshire,11609013,"","",52.6358,-2.2794
GB,WV7,Cosford,England,ENG,Shropshire,11609013,"","",52.6358,-2.2794
GB,BA12,Barrow Street,England,ENG,Wiltshire,11609014,"","",51.1594,-2.1537
GB,BA12,Upton Lovell,England,ENG,Wiltshire,11609014,"","",51.1685,-2.0785
GB,BA12,Crockerton,England,ENG,Wiltshire,11609014,"","",51.1594,-2.1537
GB,BA12,Kilmington Street,England,ENG,Wiltshire,11609014,"","",51.1594,-2.1537
GB,BA12,Shear Cross,England,ENG,Wiltshire,11609014,"","",51.1594,-2.1537
GB,BA12,Norton Ferris,England,ENG,Wiltshire,11609014,"","",51.1594,-2.1537
GB,BA12,Codford St Peter,England,ENG,Wiltshire,11609014,"","",51.1597,-2.0531
GB,BA12,Heytesbury,England,ENG,Wiltshire,11609014,"","",51.1824,-2.1068
GB,BA12,Codford St Mary,England,ENG,Wiltshire,11609014,"","",51.1558,-2.0389
GB,BA12,Corsley,England,ENG,Wiltshire,11609014,"","",51.2189,-2.2481
GB,BA12,Upton Scudamore,England,ENG,Wiltshire,11609014,"","",51.23,-2.1933
GB,BA12,Wylye,England,ENG,Wiltshire,11609014,"","",51.1371,-1.9895
GB,BA12,Maiden Bradley,England,ENG,Wiltshire,11609014,"","",51.1497,-2.2858
GB,BA12,Corton,England,ENG,Wiltshire,11609014,"","",51.1631,-2.09
GB,BA12,Tytherington,England,ENG,Wiltshire,11609014,"","",51.1683,-2.1211
GB,BA12,Chitterne,England,ENG,Wiltshire,11609014,"","",51.1995,-2.008
GB,BA12,Zeals,England,ENG,Wiltshire,11609014,"","",51.0856,-2.3123
GB,BA12,Corsley Heath,England,ENG,Wiltshire,11609014,"","",51.2069,-2.2578
GB,BA12,Boreham,England,ENG,Wiltshire,11609014,"","",51.1994,-2.1656
GB,BA12,Brixton Deverill,England,ENG,Wiltshire,11609014,"","",51.1473,-2.198
GB,BA12,Norton Bavant,England,ENG,Wiltshire,11609014,"","",51.187,-2.1306
GB,BA12,Knook,England,ENG,Wiltshire,11609014,"","",51.1759,-2.0906
GB,BA12,Mere,England,ENG,Wiltshire,11609014,"","",51.0889,-2.2669
GB,BA12,Deptford,England,ENG,Wiltshire,11609014,"","",51.15,-1.9833
GB,BA12,Stockton,England,ENG,Wiltshire,11609014,"","",51.1453,-2.0319
GB,BA12,Horningsham,England,ENG,Wiltshire,11609014,"","",51.1695,-2.2707
GB,BA12,Warminster,England,ENG,Wiltshire,11609014,"","",51.2043,-2.1787
GB,BA12,Boyton,England,ENG,Wiltshire,11609014,"","",51.155,-2.0711
GB,BA12,West Knoyle,England,ENG,Wiltshire,11609014,"","",51.0878,-2.2076
GB,BA12,Sutton Veny,England,ENG,Wiltshire,11609014,"","",51.1782,-2.1499
GB,BA12,Kingston Deverill,England,ENG,Wiltshire,11609014,"","",51.1326,-2.2167
GB,BA12,Monkton Deverill,England,ENG,Wiltshire,11609014,"","",51.1348,-2.209
GB,BA12,Longbridge Deverill,England,ENG,Wiltshire,11609014,"","",51.1665,-2.1883
GB,BA12,Sherrington,England,ENG,Wiltshire,11609014,"","",51.1511,-2.0564
GB,BA12,Bishopstrow,England,ENG,Wiltshire,11609014,"","",51.1931,-2.1553
GB,BA12,Kilmington,England,ENG,Wiltshire,11609014,"","",51.1269,-2.3269
GB,BA12,Fisherton de la Mere,England,ENG,Wiltshire,11609014,"","",51.1457,-2.0017
GB,BA12,Stourton,England,ENG,Wiltshire,11609014,"","",51.105,-2.3156
GB,BA13,Chapmanslade,England,ENG,Wiltshire,11609014,"","",51.2292,-2.2489
GB,BA13,Heywood,England,ENG,Wiltshire,11609014,"","",51.2768,-2.1987
GB,BA13,Hawkeridge,England,ENG,Wiltshire,11609014,"","",51.2615,-2.1595
GB,BA13,Westbury Leigh,England,ENG,Wiltshire,11609014,"","",51.2615,-2.1595
GB,BA13,Coulston,England,ENG,Wiltshire,11609014,"","",51.2859,-2.0715
GB,BA13,Edington,England,ENG,Wiltshire,11609014,"","",51.2758,-2.1064
GB,BA13,Bratton,England,ENG,Wiltshire,11609014,"","",51.2706,-2.1244
GB,BA13,Westbury,England,ENG,Wiltshire,11609014,"","",51.26,-2.1875
GB,BA13,Dilton Marsh,England,ENG,Wiltshire,11609014,"","",51.2478,-2.2183
GB,BA14,Steeple Ashton,England,ENG,Wiltshire,11609014,"","",51.3103,-2.1354
GB,BA14,West Ashton,England,ENG,Wiltshire,11609014,"","",51.2988,-2.1738
GB,BA14,Southwick,England,ENG,Wiltshire,11609014,"","",51.2969,-2.2325
GB,BA14,Wingfield,England,ENG,Wiltshire,11609014,"","",51.3089,-2.2528
GB,BA14,Keevil,England,ENG,Wiltshire,11609014,"","",51.3213,-2.115
GB,BA14,Semington,England,ENG,Wiltshire,11609014,"","",51.3449,-2.148
GB,BA14,Holt,England,ENG,Wiltshire,11609014,"","",51.3556,-2.1972
GB,BA14,Trowbridge,England,ENG,Wiltshire,11609014,"","",51.3189,-2.2086
GB,BA14,Ashton Common,England,ENG,Wiltshire,11609014,"","",51.3194,-2.2026
GB,BA14,Trowle Common,England,ENG,Wiltshire,11609014,"","",51.3194,-2.2026
GB,BA14,Great Hinton,England,ENG,Wiltshire,11609014,"","",51.3299,-2.1373
GB,BA14,Staverton,England,ENG,Wiltshire,11609014,"","",51.3399,-2.2071
GB,BA14,Yarnbrook,England,ENG,Wiltshire,11609014,"","",51.3194,-2.2026
GB,BA14,North Bradley,England,ENG,Wiltshire,11609014,"","",51.295,-2.2047
GB,BA14,Hilperton,England,ENG,Wiltshire,11609014,"","",51.3367,-2.1949
GB,BA15,Winsley,England,ENG,Wiltshire,11609014,"","",51.3497,-2.2858
GB,BA15,Bradford Leigh,England,ENG,Wiltshire,11609014,"","",51.3536,-2.2556
GB,BA15,Monkton Farleigh,England,ENG,Wiltshire,11609014,"","",51.3858,-2.2814
GB,BA15,South Wraxall,England,ENG,Wiltshire,11609014,"","",51.3818,-2.2424
GB,BA15,Bradford-on-Avon,England,ENG,Wiltshire,11609014,"","",51.3477,-2.2506
GB,BA15,Westwood,England,ENG,Wiltshire,11609014,"","",51.3311,-2.2739
GB,RG17,Chilton Foliat,England,ENG,Wiltshire,11609014,"","",51.4324,-1.5391
GB,SN1,Swindon,England,ENG,Wiltshire,11609014,"","",51.558,-1.7812
GB,SN10,Patney,England,ENG,Wiltshire,11609014,"","",51.3279,-1.8978
GB,SN10,Marston,England,ENG,Wiltshire,11609014,"","",51.3108,-2.0497
GB,SN10,Worton,England,ENG,Wiltshire,11609014,"","",51.3161,-2.0411
GB,SN10,Poulshot,England,ENG,Wiltshire,11609014,"","",51.3355,-2.0449
GB,SN10,Bulkington,England,ENG,Wiltshire,11609014,"","",51.3236,-2.0836
GB,SN10,Little Cheverell,England,ENG,Wiltshire,11609014,"","",51.281,-2.0133
GB,SN10,Bishops Cannings,England,ENG,Wiltshire,11609014,"","",51.3766,-1.948
GB,SN10,Potterne,England,ENG,Wiltshire,11609014,"","",51.3292,-2.0052
GB,SN10,Roundway,England,ENG,Wiltshire,11609014,"","",51.368,-1.9808
GB,SN10,Erlestoke,England,ENG,Wiltshire,11609014,"","",51.2847,-2.0544
GB,SN10,Market Lavington,England,ENG,Wiltshire,11609014,"","",51.2876,-1.9773
GB,SN10,Urchfont,England,ENG,Wiltshire,11609014,"","",51.3122,-1.9429
GB,SN10,Devizes,England,ENG,Wiltshire,11609014,"","",51.3508,-1.9942
GB,SN10,Rowde,England,ENG,Wiltshire,11609014,"","",51.3633,-2.031
GB,SN10,Eastcott,England,ENG,Wiltshire,11609014,"","",51.3255,-2.0607
GB,SN10,Etchilhampton,England,ENG,Wiltshire,11609014,"","",51.3422,-1.933
GB,SN10,Horton,England,ENG,Wiltshire,11609014,"","",51.3369,-1.9872
GB,SN10,Allington,England,ENG,Wiltshire,11609014,"","",51.3369,-1.9872
GB,SN10,West Lavington,England,ENG,Wiltshire,11609014,"","",51.2787,-1.9963
GB,SN10,Chirton,England,ENG,Wiltshire,11609014,"","",51.3143,-1.8971
GB,SN10,Littleton Panell,England,ENG,Wiltshire,11609014,"","",51.3255,-2.0607
GB,SN10,Coate,England,ENG,Wiltshire,11609014,"","",51.3255,-2.0607
GB,SN10,All Cannings,England,ENG,Wiltshire,11609014,"","",51.3574,-1.898
GB,SN10,Wedhampton,England,ENG,Wiltshire,11609014,"","",51.3255,-2.0607
GB,SN10,Potterne Wick,England,ENG,Wiltshire,11609014,"","",51.3255,-2.0607
GB,SN10,Stert,England,ENG,Wiltshire,11609014,"","",51.3332,-1.9548
GB,SN10,Easterton,England,ENG,Wiltshire,11609014,"","",51.2965,-1.9718
GB,SN10,Marden,England,ENG,Wiltshire,11609014,"","",51.3211,-1.8777
GB,SN10,Calstone Wellington,England,ENG,Wiltshire,11609014,"","",51.3369,-1.9872
GB,SN10,Great Cheverell,England,ENG,Wiltshire,11609014,"","",51.2878,-2.0269
GB,SN11,Highway,England,ENG,Wiltshire,11609014,"","",51.4667,-1.9333
GB,SN11,Charlcutt,England,ENG,Wiltshire,11609014,"","",51.4503,-1.9747
GB,SN11,Mile Elm,England,ENG,Wiltshire,11609014,"","",51.4503,-1.9747
GB,SN11,Heddington,England,ENG,Wiltshire,11609014,"","",51.3973,-2.0086
GB,SN11,Stockley,England,ENG,Wiltshire,11609014,"","",51.4503,-1.9747
GB,SN11,Spirthill,England,ENG,Wiltshire,11609014,"","",51.4503,-1.9747
GB,SN11,Blackland,England,ENG,Wiltshire,11609014,"","",51.4503,-1.9747
GB,SN11,Clevancy,England,ENG,Wiltshire,11609014,"","",51.4503,-1.9747
GB,SN11,Quemerford,England,ENG,Wiltshire,11609014,"","",51.4503,-1.9747
GB,SN11,Derry Hill,England,ENG,Wiltshire,11609014,"","",51.4503,-1.9747
GB,SN11,Goatacre,England,ENG,Wiltshire,11609014,"","",51.4503,-1.9747
GB,SN11,Calne,England,ENG,Wiltshire,11609014,"","",51.4388,-2.0057
GB,SN11,Hilmarton,England,ENG,Wiltshire,11609014,"","",51.4766,-1.9719
GB,SN11,Yatesbury,England,ENG,Wiltshire,11609014,"","",51.442,-1.908
GB,SN11,Cherhill,England,ENG,Wiltshire,11609014,"","",51.4299,-1.9509
GB,SN11,Bremhill,England,ENG,Wiltshire,11609014,"","",51.4567,-2.0303
GB,SN11,Compton Bassett,England,ENG,Wiltshire,11609014,"","",51.4495,-1.9481
GB,SN11,Studley,England,ENG,Wiltshire,11609014,"","",51.4422,-2.0497
GB,SN12,Atworth,England,ENG,Wiltshire,11609014,"","",51.3923,-2.193
GB,SN12,Broughton Gifford,England,ENG,Wiltshire,11609014,"","",51.3721,-2.1755
GB,SN12,Seend,England,ENG,Wiltshire,11609014,"","",51.3481,-2.0847
GB,SN12,Seend Cleeve,England,ENG,Wiltshire,11609014,"","",51.3723,-2.1373
GB,SN12,Melksham Forest,England,ENG,Wiltshire,11609014,"","",51.3723,-2.1373
GB,SN12,Norrington Common,England,ENG,Wiltshire,11609014,"","",51.3723,-2.1373
GB,SN12,Sandridge,England,ENG,Wiltshire,11609014,"","",51.3723,-2.1373
GB,SN12,Sells Green,England,ENG,Wiltshire,11609014,"","",51.3723,-2.1373
GB,SN12,Shaw,England,ENG,Wiltshire,11609014,"","",51.3723,-2.1373
GB,SN12,Melksham,England,ENG,Wiltshire,11609014,"","",51.3728,-2.14
GB,SN12,Beanacre,England,ENG,Wiltshire,11609014,"","",51.3929,-2.1402
GB,SN13,Hawthorn,England,ENG,Wiltshire,11609014,"","",51.4242,-2.2236
GB,SN13,Box,England,ENG,Wiltshire,11609014,"","",51.4147,-2.2456
GB,SN13,Easton,England,ENG,Wiltshire,11609014,"","",51.4255,-2.2106
GB,SN13,Ashley,England,ENG,Wiltshire,11609014,"","",51.4255,-2.2106
GB,SN13,Neston,England,ENG,Wiltshire,11609014,"","",51.4122,-2.2006
GB,SN13,Gastard,England,ENG,Wiltshire,11609014,"","",51.4158,-2.1667
GB,SN13,Corsham,England,ENG,Wiltshire,11609014,"","",51.4343,-2.1844
GB,SN13,Cross Keys,England,ENG,Wiltshire,11609014,"","",51.4411,-2.1853
GB,SN14,Hullavington,England,ENG,Wiltshire,11609014,"","",51.5378,-2.1516
GB,SN14,Grittleton,England,ENG,Wiltshire,11609014,"","",51.5186,-2.2057
GB,SN14,Luckington,England,ENG,Wiltshire,11609014,"","",51.5544,-2.2422
GB,SN14,Kington St Michael,England,ENG,Wiltshire,11609014,"","",51.4961,-2.1403
GB,SN14,Colerne,England,ENG,Wiltshire,11609014,"","",51.4383,-2.2628
GB,SN14,Slaughterford,England,ENG,Wiltshire,11609014,"","",51.4641,-2.2317
GB,SN14,Stanton St Quintin,England,ENG,Wiltshire,11609014,"","",51.5178,-2.1353
GB,SN14,Hardenhuish,England,ENG,Wiltshire,11609014,"","",51.4703,-2.1311
GB,SN14,Sopworth,England,ENG,Wiltshire,11609014,"","",51.5744,-2.2512
GB,SN14,Nettleton,England,ENG,Wiltshire,11609014,"","",51.5022,-2.2625
GB,SN14,Castle Combe,England,ENG,Wiltshire,11609014,"","",51.4929,-2.229
GB,SN14,Yatton Keynell,England,ENG,Wiltshire,11609014,"","",51.4861,-2.1934
GB,SN14,The Shoe,England,ENG,Wiltshire,11609014,"","",51.451,-2.1347
GB,SN14,Burton,England,ENG,Wiltshire,11609014,"","",51.4756,-2.1985
GB,SN14,Alderton,England,ENG,Wiltshire,11609014,"","",51.4756,-2.1985
GB,SN14,Ditteridge,England,ENG,Wiltshire,11609014,"","",51.451,-2.1347
GB,SN14,Littleton Drew,England,ENG,Wiltshire,11609014,"","",51.451,-2.1347
GB,SN14,Lower Stanton St Quintin,England,ENG,Wiltshire,11609014,"","",51.451,-2.1347
GB,SN14,Pennsylvania,England,ENG,Wiltshire,11609014,"","",51.451,-2.1347
GB,SN14,Ford,England,ENG,Wiltshire,11609014,"","",51.4756,-2.1985
GB,SN14,Upper Wraxall,England,ENG,Wiltshire,11609014,"","",51.451,-2.1347
GB,SN14,Leigh Delamere,England,ENG,Wiltshire,11609014,"","",51.451,-2.1347
GB,SN14,Thickwood,England,ENG,Wiltshire,11609014,"","",51.451,-2.1347
GB,SN14,West Littleton,England,ENG,Wiltshire,11609014,"","",51.451,-2.1347
GB,SN14,West Kington,England,ENG,Wiltshire,11609014,"","",51.4955,-2.2728
GB,SN14,Biddestone,England,ENG,Wiltshire,11609014,"","",51.4608,-2.1983
GB,SN14,North Wraxall,England,ENG,Wiltshire,11609014,"","",51.4734,-2.263
GB,SN15,Chippenham,England,ENG,Wiltshire,11609014,"","",51.46,-2.1247
GB,SN15,Great Somerford,England,ENG,Wiltshire,11609014,"","",51.5435,-2.0521
GB,SN15,Lacock,England,ENG,Wiltshire,11609014,"","",51.4153,-2.1219
GB,SN15,Upper Seagry,England,ENG,Wiltshire,11609014,"","",51.526,-2.0783
GB,SN15,Christian Malford,England,ENG,Wiltshire,11609014,"","",51.5104,-2.0551
GB,SN15,Lyneham,England,ENG,Wiltshire,11609014,"","",51.5167,-1.9667
GB,SN15,Kington Langley,England,ENG,Wiltshire,11609014,"","",51.4888,-2.1166
GB,SN15,Sutton Benger,England,ENG,Wiltshire,11609014,"","",51.5069,-2.0801
GB,SN15,Foxham,England,ENG,Wiltshire,11609014,"","",51.4943,-2.036
GB,SN15,Brinkworth,England,ENG,Wiltshire,11609014,"","",51.5589,-1.9822
GB,SN15,Tytherton Lucas,England,ENG,Wiltshire,11609014,"","",51.4678,-2.0764
GB,SN15,Chittoe,England,ENG,Wiltshire,11609014,"","",51.3994,-2.0662
GB,SN15,Stanley,England,ENG,Wiltshire,11609014,"","",51.4721,-2.0837
GB,SN15,Startley,England,ENG,Wiltshire,11609014,"","",51.4721,-2.0837
GB,SN15,Bromham,England,ENG,Wiltshire,11609014,"","",51.388,-2.0489
GB,SN15,Lower Seagry,England,ENG,Wiltshire,11609014,"","",51.4721,-2.0837
GB,SN15,Bowden Hill,England,ENG,Wiltshire,11609014,"","",51.4721,-2.0837
GB,SN15,Little Somerford,England,ENG,Wiltshire,11609014,"","",51.5588,-2.0492
GB,SN15,Bewley Common,England,ENG,Wiltshire,11609014,"","",51.4721,-2.0837
GB,SN15,East Tytherton,England,ENG,Wiltshire,11609014,"","",51.4721,-2.0837
GB,SN15,Grittenham,England,ENG,Wiltshire,11609014,"","",51.4721,-2.0837
GB,SN15,St Edith's Marsh,England,ENG,Wiltshire,11609014,"","",51.4721,-2.0837
GB,SN15,Sandy Lane,England,ENG,Wiltshire,11609014,"","",51.4721,-2.0837
GB,SN15,Notton,England,ENG,Wiltshire,11609014,"","",51.4721,-2.0837
GB,SN15,Dauntsey,England,ENG,Wiltshire,11609014,"","",51.5343,-2.0108
GB,SN15,Callow Hill,England,ENG,Wiltshire,11609014,"","",51.4721,-2.0837
GB,SN15,Langley Burrell,England,ENG,Wiltshire,11609014,"","",51.4721,-2.0837
GB,SN15,Church End,England,ENG,Wiltshire,11609014,"","",51.4721,-2.0837
GB,SN15,Bradenstoke,England,ENG,Wiltshire,11609014,"","",51.4721,-2.0837
GB,SN15,Cleverton,England,ENG,Wiltshire,11609014,"","",51.4721,-2.0837
GB,SN15,Preston,England,ENG,Wiltshire,11609014,"","",51.4721,-2.0837
GB,SN15,Netherstreet,England,ENG,Wiltshire,11609014,"","",51.4721,-2.0837
GB,SN16,Rodbourne,England,ENG,Wiltshire,11609014,"","",51.6434,-2.0165
GB,SN16,Norton,England,ENG,Wiltshire,11609014,"","",51.5611,-2.1625
GB,SN16,Upper Minety,England,ENG,Wiltshire,11609014,"","",51.6434,-2.0165
GB,SN16,Chedglow,England,ENG,Wiltshire,11609014,"","",51.6434,-2.0165
GB,SN16,Eastcourt,England,ENG,Wiltshire,11609014,"","",51.6434,-2.0165
GB,SN16,Chelworth,England,ENG,Wiltshire,11609014,"","",51.6434,-2.0165
GB,SN16,Malmesbury,England,ENG,Wiltshire,11609014,"","",51.5817,-2.0971
GB,SN16,Corston,England,ENG,Wiltshire,11609014,"","",51.5561,-2.1108
GB,SN16,Minety,England,ENG,Wiltshire,11609014,"","",51.6167,-1.95
GB,SN16,Foxley,England,ENG,Wiltshire,11609014,"","",51.5722,-2.155
GB,SN16,Oaksey,England,ENG,Wiltshire,11609014,"","",51.6413,-2.017
GB,SN16,Lea,England,ENG,Wiltshire,11609014,"","",51.5753,-2.0631
GB,SN16,Charlton,England,ENG,Wiltshire,11609014,"","",51.5992,-2.0564
GB,SN16,Hankerton,England,ENG,Wiltshire,11609014,"","",51.6144,-2.045
GB,SN16,Easton Grey,England,ENG,Wiltshire,11609014,"","",51.588,-2.1729
GB,SN16,Garsdon,England,ENG,Wiltshire,11609014,"","",51.5893,-2.0461
GB,SN16,Brokenborough,England,ENG,Wiltshire,11609014,"","",51.6013,-2.1186
GB,SN16,Crudwell,England,ENG,Wiltshire,11609014,"","",51.6332,-2.0696
GB,SN16,Sherston,England,ENG,Wiltshire,11609014,"","",51.572,-2.2128
GB,SN2,Haydon Wick,England,ENG,Wiltshire,11609014,"","",51.5912,-1.8191
GB,SN2,Blunsdon St Andrew,England,ENG,Wiltshire,11609014,"","",51.5787,-1.7833
GB,SN2,Broad Blunsdon,England,ENG,Wiltshire,11609014,"","",51.5787,-1.7833
GB,SN25,Swindon,England,ENG,Wiltshire,11609014,"","",51.558,-1.7812
GB,SN26,Swindon,England,ENG,Wiltshire,11609014,"","",51.6124,-1.7873
GB,SN3,Coate,England,ENG,Wiltshire,11609014,"","",51.5892,-1.7194
GB,SN3,Stratton St Margaret,England,ENG,Wiltshire,11609014,"","",51.5892,-1.7194
GB,SN3,South Marston,England,ENG,Wiltshire,11609014,"","",51.5892,-1.7194
GB,SN38,Swindon,England,ENG,Wiltshire,11609014,"","",51.558,-1.7812
GB,SN4,Liddington,England,ENG,Wiltshire,11609014,"","",51.5316,-1.703
GB,SN4,Winterbourne Bassett,England,ENG,Wiltshire,11609014,"","",51.4727,-1.8519
GB,SN4,Wanborough,England,ENG,Wiltshire,11609014,"","",51.5426,-1.6984
GB,SN4,Broad Hinton,England,ENG,Wiltshire,11609014,"","",51.4887,-1.8479
GB,SN4,Wroughton,England,ENG,Wiltshire,11609014,"","",51.5241,-1.7956
GB,SN4,Chiseldon,England,ENG,Wiltshire,11609014,"","",51.5161,-1.7321
GB,SN4,Winterbourne Monkton,England,ENG,Wiltshire,11609014,"","",51.5301,-1.8364
GB,SN4,Hook,England,ENG,Wiltshire,11609014,"","",51.5301,-1.8364
GB,SN4,Uffcott,England,ENG,Wiltshire,11609014,"","",51.4849,-1.7519
GB,SN4,Clyffe Pypard,England,ENG,Wiltshire,11609014,"","",51.5014,-1.9071
GB,SN4,Hinton Parva,England,ENG,Wiltshire,11609014,"","",51.4849,-1.7519
GB,SN4,North Wroughton,England,ENG,Wiltshire,11609014,"","",51.4849,-1.7519
GB,SN4,Badbury,England,ENG,Wiltshire,11609014,"","",51.4849,-1.7519
GB,SN4,Tockenham Wick,England,ENG,Wiltshire,11609014,"","",51.4849,-1.7519
GB,SN4,Bushton,England,ENG,Wiltshire,11609014,"","",51.4849,-1.7519
GB,SN4,Wootton Bassett,England,ENG,Wiltshire,11609014,"","",51.5419,-1.9045
GB,SN4,Berwick Bassett,England,ENG,Wiltshire,11609014,"","",51.4592,-1.858
GB,SN4,Tockenham,England,ENG,Wiltshire,11609014,"","",51.5124,-1.9452
GB,SN4,Broad Town,England,ENG,Wiltshire,11609014,"","",51.4985,-1.8702
GB,SN5,Purton Stoke,England,ENG,Wiltshire,11609014,"","",51.6132,-1.8723
GB,SN5,Nine Elms,England,ENG,Wiltshire,11609014,"","",51.5661,-1.8396
GB,SN5,Shaw,England,ENG,Wiltshire,11609014,"","",51.5661,-1.8396
GB,SN5,Purton,England,ENG,Wiltshire,11609014,"","",51.5833,-1.8667
GB,SN5,Lydiard Millicent,England,ENG,Wiltshire,11609014,"","",51.5712,-1.8635
GB,SN6,Highworth,England,ENG,Wiltshire,11609014,"","",51.6305,-1.711
GB,SN6,Castle Eaton,England,ENG,Wiltshire,11609014,"","",51.6605,-1.7921
GB,SN6,Latton,England,ENG,Wiltshire,11609014,"","",51.6589,-1.8706
GB,SN6,Ashton Keynes,England,ENG,Wiltshire,11609014,"","",51.6452,-1.9323
GB,SN6,Bishopstone,England,ENG,Wiltshire,11609014,"","",51.5513,-1.647
GB,SN6,Stanton Fitzwarren,England,ENG,Wiltshire,11609014,"","",51.612,-1.7446
GB,SN6,Cricklade,England,ENG,Wiltshire,11609014,"","",51.6406,-1.8574
GB,SN6,Inglesham,England,ENG,Wiltshire,11609014,"","",51.6708,-1.7043
GB,SN6,Upper Inglesham,England,ENG,Wiltshire,11609014,"","",51.6165,-1.7412
GB,SN6,Hannington Wick,England,ENG,Wiltshire,11609014,"","",51.6165,-1.7412
GB,SN6,Leigh,England,ENG,Wiltshire,11609014,"","",51.6167,-1.9
GB,SN6,Sevenhampton,England,ENG,Wiltshire,11609014,"","",51.6,-1.7
GB,SN6,Hannington,England,ENG,Wiltshire,11609014,"","",51.6333,-1.75
GB,SN6,Marston Meysey,England,ENG,Wiltshire,11609014,"","",51.6732,-1.8167
GB,SN8,Wootton Rivers,England,ENG,Wiltshire,11609014,"","",51.3677,-1.7187
GB,SN8,Tidcombe,England,ENG,Wiltshire,11609014,"","",51.3238,-1.5854
GB,SN8,Collingbourne Ducis,England,ENG,Wiltshire,11609014,"","",51.2852,-1.6525
GB,SN8,Fyfield,England,ENG,Wiltshire,11609014,"","",51.4167,-1.7833
GB,SN8,Everleigh,England,ENG,Wiltshire,11609014,"","",51.2815,-1.7095
GB,SN8,Beckhampton,England,ENG,Wiltshire,11609014,"","",51.4194,-1.8746
GB,SN8,Aldbourne,England,ENG,Wiltshire,11609014,"","",51.481,-1.6183
GB,SN8,Ogbourne St George,England,ENG,Wiltshire,11609014,"","",51.469,-1.7141
GB,SN8,Avebury,England,ENG,Wiltshire,11609014,"","",51.4167,-1.8667
GB,SN8,Great Bedwyn,England,ENG,Wiltshire,11609014,"","",51.3795,-1.6015
GB,SN8,Oxenwood,England,ENG,Wiltshire,11609014,"","",51.3303,-1.5648
GB,SN8,Ramsbury,England,ENG,Wiltshire,11609014,"","",51.4437,-1.6026
GB,SN8,Huish,England,ENG,Wiltshire,11609014,"","",51.3711,-1.7927
GB,SN8,Little Bedwyn,England,ENG,Wiltshire,11609014,"","",51.3918,-1.5824
GB,SN8,Ogbourne St Andrew,England,ENG,Wiltshire,11609014,"","",51.4484,-1.7283
GB,SN8,Shalbourne,England,ENG,Wiltshire,11609014,"","",51.3636,-1.5505
GB,SN8,Mildenhall,England,ENG,Wiltshire,11609014,"","",51.4256,-1.6999
GB,SN8,Burbage,England,ENG,Wiltshire,11609014,"","",51.3518,-1.6709
GB,SN8,Marlborough,England,ENG,Wiltshire,11609014,"","",51.4203,-1.7295
GB,SN8,Baydon,England,ENG,Wiltshire,11609014,"","",51.5004,-1.597
GB,SN8,Froxfield,England,ENG,Wiltshire,11609014,"","",51.4108,-1.572
GB,SN8,Ham,England,ENG,Wiltshire,11609014,"","",51.3652,-1.5259
GB,SN8,Rivar,England,ENG,Wiltshire,11609014,"","",51.3524,-1.6468
GB,SN8,East Grafton,England,ENG,Wiltshire,11609014,"","",51.3524,-1.6468
GB,SN8,Lockeridge,England,ENG,Wiltshire,11609014,"","",51.3524,-1.6468
GB,SN8,Crofton,England,ENG,Wiltshire,11609014,"","",51.3524,-1.6468
GB,SN8,Clench Common,England,ENG,Wiltshire,11609014,"","",51.3524,-1.6468
GB,SN8,Stock Lane,England,ENG,Wiltshire,11609014,"","",51.3524,-1.6468
GB,SN8,West Kennett,England,ENG,Wiltshire,11609014,"","",51.3524,-1.6468
GB,SN8,Cadley,England,ENG,Wiltshire,11609014,"","",51.3524,-1.6468
GB,SN8,Axford,England,ENG,Wiltshire,11609014,"","",51.4067,-1.6872
GB,SN8,East Kennett,England,ENG,Wiltshire,11609014,"","",51.4054,-1.8301
GB,SN8,West Overton,England,ENG,Wiltshire,11609014,"","",51.4071,-1.7995
GB,SN8,Stibb Green,England,ENG,Wiltshire,11609014,"","",51.3524,-1.6468
GB,SN8,Durley,England,ENG,Wiltshire,11609014,"","",51.4067,-1.6872
GB,SN8,West Grafton,England,ENG,Wiltshire,11609014,"","",51.3524,-1.6468
GB,SN8,Wilton,England,ENG,Wiltshire,11609014,"","",51.4067,-1.6872
GB,SN8,Upper Upham,England,ENG,Wiltshire,11609014,"","",51.3524,-1.6468
GB,SN8,Stanton St Bernard,England,ENG,Wiltshire,11609014,"","",51.3524,-1.6468
GB,SN8,Chisbury,England,ENG,Wiltshire,11609014,"","",51.3524,-1.6468
GB,SN8,Ogbourne Maizey,England,ENG,Wiltshire,11609014,"","",51.3524,-1.6468
GB,SN8,Rockley,England,ENG,Wiltshire,11609014,"","",51.3524,-1.6468
GB,SN8,West Stowell,England,ENG,Wiltshire,11609014,"","",51.3524,-1.6468
GB,SN8,Whittonditch,England,ENG,Wiltshire,11609014,"","",51.3524,-1.6468
GB,SN8,Woodsend,England,ENG,Wiltshire,11609014,"","",51.3524,-1.6468
GB,SN8,Oare,England,ENG,Wiltshire,11609014,"","",51.3651,-1.7749
GB,SN8,Buttermere,England,ENG,Wiltshire,11609014,"","",51.3474,-1.5116
GB,SN8,Wexcombe,England,ENG,Wiltshire,11609014,"","",51.3304,-1.6094
GB,SN8,Alton Priors,England,ENG,Wiltshire,11609014,"","",51.3601,-1.8429
GB,SN8,Manton,England,ENG,Wiltshire,11609014,"","",51.4152,-1.7562
GB,SN8,Collingbourne Kingston,England,ENG,Wiltshire,11609014,"","",51.3011,-1.6588
GB,SN8,Fosbury,England,ENG,Wiltshire,11609014,"","",51.3203,-1.5425
GB,SN9,North Newnton,England,ENG,Wiltshire,11609014,"","",51.3233,-1.8372
GB,SN9,Hilcott,England,ENG,Wiltshire,11609014,"","",51.3233,-1.8372
GB,SN9,Rushall,England,ENG,Wiltshire,11609014,"","",51.2833,-1.8167
GB,SN9,Manningford Abbots,England,ENG,Wiltshire,11609014,"","",51.3167,-1.8
GB,SN9,Upavon,England,ENG,Wiltshire,11609014,"","",51.2946,-1.8079
GB,SN9,Alton Barnes,England,ENG,Wiltshire,11609014,"","",51.3592,-1.8496
GB,SN9,Manningford Bruce,England,ENG,Wiltshire,11609014,"","",51.3252,-1.8018
GB,SN9,Pewsey,England,ENG,Wiltshire,11609014,"","",51.3385,-1.7655
GB,SN9,Woodborough,England,ENG,Wiltshire,11609014,"","",51.3333,-1.8333
GB,SN9,Wilsford,England,ENG,Wiltshire,11609014,"","",51.3,-1.85
GB,SN9,Milton Lilbourne,England,ENG,Wiltshire,11609014,"","",51.3454,-1.7336
GB,SN9,Easton Royal,England,ENG,Wiltshire,11609014,"","",51.332,-1.8334
GB,SN9,East Chisenbury,England,ENG,Wiltshire,11609014,"","",51.332,-1.8334
GB,SN9,Charlton,England,ENG,Wiltshire,11609014,"","",51.3033,-1.8381
GB,SN9,Longstreet,England,ENG,Wiltshire,11609014,"","",51.3259,-1.7871
GB,SN9,Manningford Bohune,England,ENG,Wiltshire,11609014,"","",51.3209,-1.8071
GB,SN9,Wilcot,England,ENG,Wiltshire,11609014,"","",51.3491,-1.7958
GB,SN9,Enford,England,ENG,Wiltshire,11609014,"","",51.2628,-1.8
GB,SN9,Beechingstoke,England,ENG,Wiltshire,11609014,"","",51.3323,-1.8761
GB,SN99,Swindon,England,ENG,Wiltshire,11609014,"","",51.558,-1.7812
GB,SP1,Salisbury,England,ENG,Wiltshire,11609014,"","",51.0693,-1.7957
GB,SP1,Laverstock,England,ENG,Wiltshire,11609014,"","",51.0693,-1.7957
GB,SP1,Stratford sub Castle,England,ENG,Wiltshire,11609014,"","",51.0693,-1.7957
GB,SP11,Ludgershall,England,ENG,Wiltshire,11609014,"","",51.2556,-1.6222
GB,SP2,Great Wishford,England,ENG,Wiltshire,11609014,"","",51.119,-1.8884
GB,SP2,South Newton,England,ENG,Wiltshire,11609014,"","",51.1065,-1.8753
GB,SP2,Harnham,England,ENG,Wiltshire,11609014,"","",51.1016,-1.8753
GB,SP2,Netherhampton,England,ENG,Wiltshire,11609014,"","",51.063,-1.8296
GB,SP2,Quidhampton,England,ENG,Wiltshire,11609014,"","",51.0787,-1.8442
GB,SP2,Fugglestone St Peter,England,ENG,Wiltshire,11609014,"","",51.1016,-1.8753
GB,SP2,Stoford,England,ENG,Wiltshire,11609014,"","",51.1016,-1.8753
GB,SP2,Burcombe,England,ENG,Wiltshire,11609014,"","",51.1016,-1.8753
GB,SP2,Wilton,England,ENG,Wiltshire,11609014,"","",51.0793,-1.8621
GB,SP3,Compton Chamberlayne,England,ENG,Wiltshire,11609014,"","",51.0672,-1.9614
GB,SP3,Fonthill Gifford,England,ENG,Wiltshire,11609014,"","",51.0824,-2.1079
GB,SP3,Newtown,England,ENG,Wiltshire,11609014,"","",51.1023,-2.0104
GB,SP3,Barford St Martin,England,ENG,Wiltshire,11609014,"","",51.1507,-1.8909
GB,SP3,Sutton Mandeville,England,ENG,Wiltshire,11609014,"","",51.0588,-2.0253
GB,SP3,Fonthill Bishop,England,ENG,Wiltshire,11609014,"","",51.0977,-2.0926
GB,SP3,East Hatch,England,ENG,Wiltshire,11609014,"","",51.1507,-1.8909
GB,SP3,Ridge,England,ENG,Wiltshire,11609014,"","",51.1023,-2.0104
GB,SP3,Berwick St Leonard,England,ENG,Wiltshire,11609014,"","",51.1507,-1.8909
GB,SP3,The Green,England,ENG,Wiltshire,11609014,"","",51.1507,-1.8909
GB,SP3,Orcheston,England,ENG,Wiltshire,11609014,"","",51.2072,-1.9175
GB,SP3,Chilmark,England,ENG,Wiltshire,11609014,"","",51.0918,-2.0438
GB,SP3,Hanging Langford,England,ENG,Wiltshire,11609014,"","",51.133,-1.9555
GB,SP3,Hindon,England,ENG,Wiltshire,11609014,"","",51.0922,-2.1258
GB,SP3,Teffont Magna,England,ENG,Wiltshire,11609014,"","",51.0897,-2.0169
GB,SP3,Stapleford,England,ENG,Wiltshire,11609014,"","",51.1167,-1.9
GB,SP3,Chicklade,England,ENG,Wiltshire,11609014,"","",51.1092,-2.1267
GB,SP3,Tilshead,England,ENG,Wiltshire,11609014,"","",51.2297,-1.951
GB,SP3,Steeple Langford,England,ENG,Wiltshire,11609014,"","",51.1365,-1.9481
GB,SP3,Winterbourne Stoke,England,ENG,Wiltshire,11609014,"","",51.1673,-1.8981
GB,SP3,Tisbury,England,ENG,Wiltshire,11609014,"","",51.0628,-2.0806
GB,SP3,Berwick St James,England,ENG,Wiltshire,11609014,"","",51.1557,-1.8987
GB,SP3,Fovant,England,ENG,Wiltshire,11609014,"","",51.0559,-1.9921
GB,SP3,Dinton,England,ENG,Wiltshire,11609014,"","",51.0833,-1.9833
GB,SP3,Little Langford,England,ENG,Wiltshire,11609014,"","",51.1275,-1.9303
GB,SP3,East Knoyle,England,ENG,Wiltshire,11609014,"","",51.0744,-2.1705
GB,SP3,Ansty,England,ENG,Wiltshire,11609014,"","",51.0364,-2.0639
GB,SP3,Teffont Evias,England,ENG,Wiltshire,11609014,"","",51.0804,-2.013
GB,SP3,Rollestone,England,ENG,Wiltshire,11609014,"","",51.1898,-1.8992
GB,SP3,Baverstock,England,ENG,Wiltshire,11609014,"","",51.0834,-1.9608
GB,SP3,Swallowcliffe,England,ENG,Wiltshire,11609014,"","",51.0401,-2.0425
GB,SP3,Shrewton,England,ENG,Wiltshire,11609014,"","",51.1919,-1.9026
GB,SP4,Bulford,England,ENG,Wiltshire,11609014,"","",51.1893,-1.7601
GB,SP4,Lower Woodford,England,ENG,Wiltshire,11609014,"","",51.1679,-1.7646
GB,SP4,Lake,England,ENG,Wiltshire,11609014,"","",51.1679,-1.7646
GB,SP4,Great Durnford,England,ENG,Wiltshire,11609014,"","",51.1679,-1.7646
GB,SP4,Countess,England,ENG,Wiltshire,11609014,"","",51.1679,-1.7646
GB,SP4,West Amesbury,England,ENG,Wiltshire,11609014,"","",51.1679,-1.7646
GB,SP4,Gomeldon,England,ENG,Wiltshire,11609014,"","",51.1679,-1.7646
GB,SP4,Wilsford,England,ENG,Wiltshire,11609014,"","",51.1679,-1.7646
GB,SP4,Upper Woodford,England,ENG,Wiltshire,11609014,"","",51.1679,-1.7646
GB,SP4,Middle Woodford,England,ENG,Wiltshire,11609014,"","",51.1679,-1.7646
GB,SP4,Netton,England,ENG,Wiltshire,11609014,"","",51.1679,-1.7646
GB,SP4,Bulford Camp,England,ENG,Wiltshire,11609014,"","",51.1679,-1.7646
GB,SP4,Durrington,England,ENG,Wiltshire,11609014,"","",51.1987,-1.7718
GB,SP4,Milston,England,ENG,Wiltshire,11609014,"","",51.2062,-1.769
GB,SP4,Winterbourne Dauntsey,England,ENG,Wiltshire,11609014,"","",51.1122,-1.75
GB,SP4,Boscombe,England,ENG,Wiltshire,11609014,"","",51.15,-1.7167
GB,SP4,Allington,England,ENG,Wiltshire,11609014,"","",51.15,-1.7
GB,SP4,Figheldean,England,ENG,Wiltshire,11609014,"","",51.2232,-1.7827
GB,SP4,Porton,England,ENG,Wiltshire,11609014,"","",51.1284,-1.7323
GB,SP4,Winterbourne Earls,England,ENG,Wiltshire,11609014,"","",51.1063,-1.755
GB,SP4,Cholderton,England,ENG,Wiltshire,11609014,"","",51.1793,-1.6785
GB,SP4,Fittleton,England,ENG,Wiltshire,11609014,"","",51.2456,-1.7913
GB,SP4,Winterbourne Gunner,England,ENG,Wiltshire,11609014,"","",51.1161,-1.7444
GB,SP4,Netheravon,England,ENG,Wiltshire,11609014,"","",51.2361,-1.7908
GB,SP4,Idmiston,England,ENG,Wiltshire,11609014,"","",51.1376,-1.7208
GB,SP4,Amesbury,England,ENG,Wiltshire,11609014,"","",51.1751,-1.7806
GB,SP4,Larkhill,England,ENG,Wiltshire,11609014,"","",51.2,-1.8167
GB,SP4,Newton Tony,England,ENG,Wiltshire,11609014,"","",51.1644,-1.6899
GB,SP5,Odstock,England,ENG,Wiltshire,11609014,"","",51.0344,-1.7926
GB,SP5,West Winterslow,England,ENG,Wiltshire,11609014,"","",51.0898,-1.6705
GB,SP5,Coombe Bissett,England,ENG,Wiltshire,11609014,"","",51.0363,-1.8458
GB,SP5,Landford,England,ENG,Wiltshire,11609014,"","",50.9683,-1.6354
GB,SP5,Farley,England,ENG,Wiltshire,11609014,"","",51.05,-1.6833
GB,SP5,Britford,England,ENG,Wiltshire,11609014,"","",51.0542,-1.7735
GB,SP5,West Grimstead,England,ENG,Wiltshire,11609014,"","",51.0393,-1.7009
GB,SP5,Alderbury,England,ENG,Wiltshire,11609014,"","",51.0435,-1.7338
GB,SP5,Fifield Bavant,England,ENG,Wiltshire,11609014,"","",51.1024,-1.8434
GB,SP5,Ebbesborne Wake,England,ENG,Wiltshire,11609014,"","",51.0147,-2.0119
GB,SP5,Morgan's Vale,England,ENG,Wiltshire,11609014,"","",51.1024,-1.8434
GB,SP5,Mead End,England,ENG,Wiltshire,11609014,"","",51.1024,-1.8434
GB,SP5,Homington,England,ENG,Wiltshire,11609014,"","",51.1024,-1.8434
GB,SP5,Hamptworth,England,ENG,Wiltshire,11609014,"","",51.1024,-1.8434
GB,SP5,North Charford,England,ENG,Wiltshire,11609014,"","",51.1024,-1.8434
GB,SP5,Woodminton,England,ENG,Wiltshire,11609014,"","",51.1024,-1.8434
GB,SP5,Nunton,England,ENG,Wiltshire,11609014,"","",51.1024,-1.8434
GB,SP5,Woodcutts,England,ENG,Wiltshire,11609014,"","",51.1024,-1.8434
GB,SP5,Woodyates,England,ENG,Wiltshire,11609014,"","",51.1024,-1.8434
GB,SP5,Woodfalls,England,ENG,Wiltshire,11609014,"","",51.1024,-1.8434
GB,SP5,Lover,England,ENG,Wiltshire,11609014,"","",51.1024,-1.8434
GB,SP5,Firs Road,England,ENG,Wiltshire,11609014,"","",51.1024,-1.8434
GB,SP5,Deanland,England,ENG,Wiltshire,11609014,"","",51.1024,-1.8434
GB,SP5,Charlton-All-Saints,England,ENG,Wiltshire,11609014,"","",51.1024,-1.8434
GB,SP5,The Common,England,ENG,Wiltshire,11609014,"","",51.1024,-1.8434
GB,SP5,Stratford Tony,England,ENG,Wiltshire,11609014,"","",51.1024,-1.8434
GB,SP5,Nomansland,England,ENG,Wiltshire,11609014,"","",51.1024,-1.8434
GB,SP5,Dean,England,ENG,Wiltshire,11609014,"","",51.1024,-1.8434
GB,SP5,Lopcombe Corner,England,ENG,Wiltshire,11609014,"","",51.1024,-1.8434
GB,SP5,Newton,England,ENG,Wiltshire,11609014,"","",51.0209,-1.7739
GB,SP5,Bodenham,England,ENG,Wiltshire,11609014,"","",51.0209,-1.7739
GB,SP5,Whaddon,England,ENG,Wiltshire,11609014,"","",51.0209,-1.7739
GB,SP5,Wick,England,ENG,Wiltshire,11609014,"","",51.0209,-1.7739
GB,SP5,Bowerchalke,England,ENG,Wiltshire,11609014,"","",51,-1.9667
GB,SP5,West Dean,England,ENG,Wiltshire,11609014,"","",51.0426,-1.6351
GB,SP5,Middle Winterslow,England,ENG,Wiltshire,11609014,"","",51.0935,-1.6545
GB,SP5,Whiteparish,England,ENG,Wiltshire,11609014,"","",51.0104,-1.6486
GB,SP5,Winterslow,England,ENG,Wiltshire,11609014,"","",51.0972,-1.6631
GB,SP5,East Grimstead,England,ENG,Wiltshire,11609014,"","",51.0505,-1.6785
GB,SP5,Tollard Royal,England,ENG,Wiltshire,11609014,"","",50.9596,-2.0805
GB,SP5,Bishopstone,England,ENG,Wiltshire,11609014,"","",51.0303,-1.9027
GB,SP5,Downton,England,ENG,Wiltshire,11609014,"","",51,-1.7333
GB,SP5,Redlynch,England,ENG,Wiltshire,11609014,"","",50.9873,-1.7116
GB,SP5,Broad Chalke,England,ENG,Wiltshire,11609014,"","",51.0272,-1.9485
