[
  {
    "country_code": "AZ",
    "zipcode": "AZ 0100",
    "place": "Abşeron",
    "state": "Abşeron",
    "state_code": "01",
    "province": "",
    "province_code": "",
    "community": "",
    "community_code": "",
    "latitude": "40.4982",
    "longitude": "49.7582"
  },
  {
    "country_code": "AZ",
    "zipcode": "AZ 0101",
    "place": "1 Sayli",
    "state": "Abşeron",
    "state_code": "01",
    "province": "",
    "province_code": "",
    "community": "",
    "community_code": "",
    "latitude": "40.4982",
    "longitude": "49.7582"
  },
  {
    "country_code": "AZ",
    "zipcode": "AZ 0102",
    "place": "2 Sayli",
    "state": "Abşeron",
    "state_code": "01",
    "province": "",
    "province_code": "",
    "community": "",
    "community_code": "",
    "latitude": "40.4982",
    "longitude": "49.7582"
  },
  {
    "country_code": "AZ",
    "zipcode": "AZ 0111",
    "place": "Aşaği Güzdək",
    "state": "Abşeron",
    "state_code": "01",
    "province": "",
    "province_code": "",
    "community": "",
    "community_code": "",
    "latitude": "40.4813",
    "longitude": "49.6656"
  },
  {
    "country_code": "AZ",
    "zipcode": "AZ 0112",
    "place": "Ceyranbatan",
    "state": "Abşeron",
    "state_code": "01",
    "province": "",
    "province_code": "",
    "community": "",
    "community_code": "",
    "latitude": "40.5419",
    "longitude": "49.6607"
  },
  {
    "country_code": "AZ",
    "zipcode": "AZ 0113",
    "place": "Fatmayi",
    "state": "Abşeron",
    "state_code": "01",
    "province": "",
    "province_code": "",
    "community": "",
    "community_code": "",
    "latitude": "40.5301",
    "longitude": "49.8449"
  },
  {
    "country_code": "AZ",
    "zipcode": "AZ 0114",
    "place": "Güzdək-2",
    "state": "Abşeron",
    "state_code": "01",
    "province": "",
    "province_code": "",
    "community": "",
    "community_code": "",
    "latitude": "40.4879",
    "longitude": "49.7507"
  },
  {
    "country_code": "AZ",
    "zipcode": "AZ 0115",
    "place": "Hökməli",
    "state": "Abşeron",
    "state_code": "01",
    "province": "",
    "province_code": "",
    "community": "",
    "community_code": "",
    "latitude": "40.4311",
    "longitude": "49.7372"
  },
  {
    "country_code": "AZ",
    "zipcode": "AZ 0116",
    "place": "Masazir-1",
    "state": "Abşeron",
    "state_code": "01",
    "province": "",
    "province_code": "",
    "community": "",
    "community_code": "",
    "latitude": "40.4879",
    "longitude": "49.7507"
  },
  {
    "country_code": "AZ",
    "zipcode": "AZ 0117",
    "place": "Qobu",
    "state": "Abşeron",
    "state_code": "01",
    "province": "",
    "province_code": "",
    "community": "",
    "community_code": "",
    "latitude": "40.4047",
    "longitude": "49.7131"
  },
  {
    "country_code": "AZ",
    "zipcode": "AZ 0118",
    "place": "Mehdiabad",
    "state": "Abşeron",
    "state_code": "01",
    "province": "",
    "province_code": "",
    "community": "",
    "community_code": "",
    "latitude": "40.4969",
    "longitude": "49.8517"
  },
  {
    "country_code": "AZ",
    "zipcode": "AZ 0119",
    "place": "Novxani",
    "state": "Abşeron",
    "state_code": "01",
    "province": "",
    "province_code": "",
    "community": "",
    "community_code": "",
    "latitude": "40.5291",
    "longitude": "49.7819"
  },
  {
    "country_code": "AZ",
    "zipcode": "AZ 0120",
    "place": "Pirəkəşkül",
    "state": "Abşeron",
    "state_code": "01",
    "province": "",
    "province_code": "",
    "community": "",
    "community_code": "",
    "latitude": "40.4843",
    "longitude": "49.5925"
  },
  {
    "country_code": "AZ",
    "zipcode": "AZ 0121",
    "place": "Saray-1pş",
    "state": "Abşeron",
    "state_code": "01",
    "province": "",
    "province_code": "",
    "community": "",
    "community_code": "",
    "latitude": "40.5085",
    "longitude": "49.7657"
  },
  {
    "country_code": "AZ",
    "zipcode": "AZ 0122",
    "place": "Goradil",
    "state": "Abşeron",
    "state_code": "01",
    "province": "",
    "province_code": "",
    "community": "",
    "community_code": "",
    "latitude": "40.5486",
    "longitude": "49.8297"
  },
  {
    "country_code": "AZ",
    "zipcode": "AZ 0123",
    "place": "Masazir-2",
    "state": "Abşeron",
    "state_code": "01",
    "province": "",
    "province_code": "",
    "community": "",
    "community_code": "",
    "latitude": "40.5085",
    "longitude": "49.7657"
  },
  {
    "country_code": "AZ",
    "zipcode": "AZ 0124",
    "place": "Çayli",
    "state": "Abşeron",
    "state_code": "01",
    "province": "",
    "province_code": "",
    "community": "",
    "community_code": "",
    "latitude": "40.5085",
    "longitude": "49.7657"
  },
  {
    "country_code": "AZ",
    "zipcode": "AZ 0125",
    "place": "Məhəmmmədli",
    "state": "Abşeron",
    "state_code": "01",
    "province": "",
    "province_code": "",
    "community": "",
    "community_code": "",
    "latitude": "40.5085",
    "longitude": "49.7657"
  },
  {
    "country_code": "AZ",
    "zipcode": "AZ 0127",
    "place": "Digah",
    "state": "Abşeron",
    "state_code": "01",
    "province": "",
    "province_code": "",
    "community": "",
    "community_code": "",
    "latitude": "40.4926",
    "longitude": "49.8748"
  },
  {
    "country_code": "AZ",
    "zipcode": "AZ 0128",
    "place": "Saray-2",
    "state": "Abşeron",
    "state_code": "01",
    "province": "",
    "province_code": "",
    "community": "",
    "community_code": "",
    "latitude": "40.5085",
    "longitude": "49.7657"
  },
  {
    "country_code": "AZ",
    "zipcode": "AZ 0129",
    "place": "Mexkalon",
    "state": "Abşeron",
    "state_code": "01",
    "province": "",
    "province_code": "",
    "community": "",
    "community_code": "",
    "latitude": "40.5085",
    "longitude": "49.7657"
  },
  {
    "country_code": "AZ",
    "zipcode": "AZ 0130",
    "place": "At Yali",
    "state": "Abşeron",
    "state_code": "01",
    "province": "",
    "province_code": "",
    "community": "",
    "community_code": "",
    "latitude": "40.4982",
    "longitude": "49.7582"
  },
  {
    "country_code": "AZ",
    "zipcode": "AZ 0131",
    "place": "Goradil-2",
    "state": "Abşeron",
    "state_code": "01",
    "province": "",
    "province_code": "",
    "community": "",
    "community_code": "",
    "latitude": "40.4982",
    "longitude": "49.7582"
  },
  {
    "country_code": "AZ",
    "zipcode": "AZ 0155",
    "place": "Müşviqabad",
    "state": "Abşeron",
    "state_code": "01",
    "province": "",
    "province_code": "",
    "community": "",
    "community_code": "",
    "latitude": "40.4982",
    "longitude": "49.7582"
  },
  {
    "country_code": "AZ",
    "zipcode": "AZ 0400",
    "place": "Ağcabədi",
    "state": "Ağcabədi",
    "state_code": "02",
    "province": "",
    "province_code": "",
    "community": "",
    "community_code": "",
    "latitude": "40.0501",
    "longitude": "47.4594"
  },
  {
    "country_code": "AZ",
    "zipcode": "AZ 0402",
    "place": "2 Sayli",
    "state": "Ağcabədi",
    "state_code": "02",
    "province": "",
    "province_code": "",
    "community": "",
    "community_code": "",
    "latitude": "40.0501",
    "longitude": "47.4594"
  },
  {
    "country_code": "AZ",
    "zipcode": "AZ 0403",
    "place": "3 Sayli",
    "state": "Ağcabədi",
    "state_code": "02",
    "province": "",
    "province_code": "",
    "community": "",
    "community_code": "",
    "latitude": "40.0501",
    "longitude": "47.4594"
  },
  {
    "country_code": "AZ",
    "zipcode": "AZ 0404",
    "place": "4 Sayli",
    "state": "Ağcabədi",
    "state_code": "02",
    "province": "",
    "province_code": "",
    "community": "",
    "community_code": "",
    "latitude": "40.0501",
    "longitude": "47.4594"
  },
  {
    "country_code": "AZ",
    "zipcode": "AZ 0411",
    "place": "Avşar",
    "state": "Ağcabədi",
    "state_code": "02",
    "province": "",
    "province_code": "",
    "community": "",
    "community_code": "",
    "latitude": "39.9739",
    "longitude": "47.4239"
  },
  {
    "country_code": "AZ",
    "zipcode": "AZ 0412",
    "place": "Boyad",
    "state": "Ağcabədi",
    "state_code": "02",
    "province": "",
    "province_code": "",
    "community": "",
    "community_code": "",
    "latitude": "40.0302",
    "longitude": "47.3447"
  },
  {
    "country_code": "AZ",
    "zipcode": "AZ 0413",
    "place": "Gələbədin",
    "state": "Ağcabədi",
    "state_code": "02",
    "province": "",
    "province_code": "",
    "community": "",
    "community_code": "",
    "latitude": "40.1387",
    "longitude": "47.2514"
  },
  {
    "country_code": "AZ",
    "zipcode": "AZ 0414",
    "place": "Hacibədəlli",
    "state": "Ağcabədi",
    "state_code": "02",
    "province": "",
    "province_code": "",
    "community": "",
    "community_code": "",
    "latitude": "40.0622",
    "longitude": "47.3676"
  },
  {
    "country_code": "AZ",
    "zipcode": "AZ 0415",
    "place": "Hindarx",
    "state": "Ağcabədi",
    "state_code": "02",
    "province": "",
    "province_code": "",
    "community": "",
    "community_code": "",
    "latitude": "40.0687",
    "longitude": "47.2078"
  },
  {
    "country_code": "AZ",
    "zipcode": "AZ 0416",
    "place": "Hüsülü",
    "state": "Ağcabədi",
    "state_code": "02",
    "province": "",
    "province_code": "",
    "community": "",
    "community_code": "",
    "latitude": "40.0694",
    "longitude": "47.2995"
  },
  {
    "country_code": "AZ",
    "zipcode": "AZ 0417",
    "place": "Xocavənd",
    "state": "Ağcabədi",
    "state_code": "02",
    "province": "",
    "province_code": "",
    "community": "",
    "community_code": "",
    "latitude": "40.032",
    "longitude": "47.4099"
  },
  {
    "country_code": "AZ",
    "zipcode": "AZ 0418",
    "place": "Kəbirli",
    "state": "Ağcabədi",
    "state_code": "02",
    "province": "",
    "province_code": "",
    "community": "",
    "community_code": "",
    "latitude": "39.8667",
    "longitude": "47.4528"
  },
  {
    "country_code": "AZ",
    "zipcode": "AZ 0419",
    "place": "Kəhrizli",
    "state": "Ağcabədi",
    "state_code": "02",
    "province": "",
    "province_code": "",
    "community": "",
    "community_code": "",
    "latitude": "40.0302",
    "longitude": "47.3447"
  },
  {
    "country_code": "AZ",
    "zipcode": "AZ 0420",
    "place": "Qaradolaq",
    "state": "Ağcabədi",
    "state_code": "02",
    "province": "",
    "province_code": "",
    "community": "",
    "community_code": "",
    "latitude": "39.9277",
    "longitude": "47.4677"
  },
  {
    "country_code": "AZ",
    "zipcode": "AZ 0421",
    "place": "Qaravəlli",
    "state": "Ağcabədi",
    "state_code": "02",
    "province": "",
    "province_code": "",
    "community": "",
    "community_code": "",
    "latitude": "40.1696",
    "longitude": "47.7802"
  },
  {
    "country_code": "AZ",
    "zipcode": "AZ 0422",
    "place": "Yuxari Qiyamadinli",
    "state": "Ağcabədi",
    "state_code": "02",
    "province": "",
    "province_code": "",
    "community": "",
    "community_code": "",
    "latitude": "40.0601",
    "longitude": "47.4194"
  },
  {
    "country_code": "AZ",
    "zipcode": "AZ 0424",
    "place": "Minəxorlu",
    "state": "Ağcabədi",
    "state_code": "02",
    "province": "",
    "province_code": "",
    "community": "",
    "community_code": "",
    "latitude": "40.0601",
    "longitude": "47.4194"
  },
  {
    "country_code": "AZ",
    "zipcode": "AZ 0425",
    "place": "Muğanli",
    "state": "Ağcabədi",
    "state_code": "02",
    "province": "",
    "province_code": "",
    "community": "",
    "community_code": "",
    "latitude": "40.0084",
    "longitude": "47.2743"
  },
  {
    "country_code": "AZ",
    "zipcode": "AZ 0426",
    "place": "Pərioğullar",
    "state": "Ağcabədi",
    "state_code": "02",
    "province": "",
    "province_code": "",
    "community": "",
    "community_code": "",
    "latitude": "40.0601",
    "longitude": "47.4194"
  },
  {
    "country_code": "AZ",
    "zipcode": "AZ 0427",
    "place": "Salmanbəyli",
    "state": "Ağcabədi",
    "state_code": "02",
    "province": "",
    "province_code": "",
    "community": "",
    "community_code": "",
    "latitude": "39.9809",
    "longitude": "47.3785"
  },
  {
    "country_code": "AZ",
    "zipcode": "AZ 0428",
    "place": "Saricali",
    "state": "Ağcabədi",
    "state_code": "02",
    "province": "",
    "province_code": "",
    "community": "",
    "community_code": "",
    "latitude": "40.1415",
    "longitude": "47.1834"
  },
  {
    "country_code": "AZ",
    "zipcode": "AZ 0429",
    "place": "Şənlik",
    "state": "Ağcabədi",
    "state_code": "02",
    "province": "",
    "province_code": "",
    "community": "",
    "community_code": "",
    "latitude": "40.1322",
    "longitude": "47.4324"
  },
  {
    "country_code": "AZ",
    "zipcode": "AZ 0430",
    "place": "Təzəkənd",
    "state": "Ağcabədi",
    "state_code": "02",
    "province": "",
    "province_code": "",
    "community": "",
    "community_code": "",
    "latitude": "39.9876",
    "longitude": "47.3022"
  },
  {
    "country_code": "AZ",
    "zipcode": "AZ 0431",
    "place": "Yeniqaradolaq",
    "state": "Ağcabədi",
    "state_code": "02",
    "province": "",
    "province_code": "",
    "community": "",
    "community_code": "",
    "latitude": "39.9876",
    "longitude": "47.3022"
  },
  {
    "country_code": "AZ",
    "zipcode": "AZ 0432",
    "place": "Aran",
    "state": "Ağcabədi",
    "state_code": "02",
    "province": "",
    "province_code": "",
    "community": "",
    "community_code": "",
    "latitude": "39.9241",
    "longitude": "47.4291"
  },
  {
    "country_code": "AZ",
    "zipcode": "AZ 0433",
    "place": "Şərəfxanli",
    "state": "Ağcabədi",
    "state_code": "02",
    "province": "",
    "province_code": "",
    "community": "",
    "community_code": "",
    "latitude": "40.0512",
    "longitude": "47.1754"
  },
  {
    "country_code": "AZ",
    "zipcode": "AZ 0200",
    "place": "Ağdam",
    "state": "Ağdam",
    "state_code": "03",
    "province": "",
    "province_code": "",
    "community": "",
    "community_code": "",
    "latitude": "40.002",
    "longitude": "46.9545"
  },
  {
    "country_code": "AZ",
    "zipcode": "AZ 0216",
    "place": "Çəmənli",
    "state": "Ağdam",
    "state_code": "03",
    "province": "",
    "province_code": "",
    "community": "",
    "community_code": "",
    "latitude": "40.0706",
    "longitude": "47.0428"
  },
  {
    "country_code": "AZ",
    "zipcode": "AZ 0217",
    "place": "Əfətli",
    "state": "Ağdam",
    "state_code": "03",
    "province": "",
    "province_code": "",
    "community": "",
    "community_code": "",
    "latitude": "40.0094",
    "longitude": "47.0858"
  },
  {
    "country_code": "AZ",
    "zipcode": "AZ 0227",
    "place": "Xindiristan",
    "state": "Ağdam",
    "state_code": "03",
    "province": "",
    "province_code": "",
    "community": "",
    "community_code": "",
    "latitude": "40.125",
    "longitude": "47.1026"
  },
  {
    "country_code": "AZ",
    "zipcode": "AZ 0230",
    "place": "Qaradağli",
    "state": "Ağdam",
    "state_code": "03",
    "province": "",
    "province_code": "",
    "community": "",
    "community_code": "",
    "latitude": "40.0254",
    "longitude": "47.0681"
  },
  {
    "country_code": "AZ",
    "zipcode": "AZ 0233",
    "place": "Quzanli",
    "state": "Ağdam",
    "state_code": "03",
    "province": "",
    "province_code": "",
    "community": "",
    "community_code": "",
    "latitude": "40.1591",
    "longitude": "47.1653"
  },
  {
    "country_code": "AZ",
    "zipcode": "AZ 0234",
    "place": "Mahrizli",
    "state": "Ağdam",
    "state_code": "03",
    "province": "",
    "province_code": "",
    "community": "",
    "community_code": "",
    "latitude": "40.0415",
    "longitude": "47.0599"
  },
  {
    "country_code": "AZ",
    "zipcode": "AZ 0246",
    "place": "Üç Oğlan",
    "state": "Ağdam",
    "state_code": "03",
    "province": "",
    "province_code": "",
    "community": "",
    "community_code": "",
    "latitude": "40.0619",
    "longitude": "47.0684"
  },
  {
    "country_code": "AZ",
    "zipcode": "AZ 0300",
    "place": "Ağdaş",
    "state": "Ağdaş",
    "state_code": "04",
    "province": "",
    "province_code": "",
    "community": "",
    "community_code": "",
    "latitude": "40.647",
    "longitude": "47.4738"
  },
  {
    "country_code": "AZ",
    "zipcode": "AZ 0301",
    "place": "1 Sayli",
    "state": "Ağdaş",
    "state_code": "04",
    "province": "",
    "province_code": "",
    "community": "",
    "community_code": "",
    "latitude": "40.647",
    "longitude": "47.4738"
  },
  {
    "country_code": "AZ",
    "zipcode": "AZ 0302",
    "place": "2 Sayli (Maşad)",
    "state": "Ağdaş",
    "state_code": "04",
    "province": "",
    "province_code": "",
    "community": "",
    "community_code": "",
    "latitude": "40.647",
    "longitude": "47.4738"
  },
  {
    "country_code": "AZ",
    "zipcode": "AZ 0311",
    "place": "Abad",
    "state": "Ağdaş",
    "state_code": "04",
    "province": "",
    "province_code": "",
    "community": "",
    "community_code": "",
    "latitude": "40.4666",
    "longitude": "47.336"
  },
  {
    "country_code": "AZ",
    "zipcode": "AZ 0313",
    "place": "Şordəhnə",
    "state": "Ağdaş",
    "state_code": "04",
    "province": "",
    "province_code": "",
    "community": "",
    "community_code": "",
    "latitude": "40.5126",
    "longitude": "47.3651"
  },
  {
    "country_code": "AZ",
    "zipcode": "AZ 0318",
    "place": "Güvəkənd",
    "state": "Ağdaş",
    "state_code": "04",
    "province": "",
    "province_code": "",
    "community": "",
    "community_code": "",
    "latitude": "40.5585",
    "longitude": "47.3942"
  },
  {
    "country_code": "AZ",
    "zipcode": "AZ 0321",
    "place": "Kükəl",
    "state": "Ağdaş",
    "state_code": "04",
    "province": "",
    "province_code": "",
    "community": "",
    "community_code": "",
    "latitude": "40.6709",
    "longitude": "47.5679"
  },
  {
    "country_code": "AZ",
    "zipcode": "AZ 0324",
    "place": "Qolqəti",
    "state": "Ağdaş",
    "state_code": "04",
    "province": "",
    "province_code": "",
    "community": "",
    "community_code": "",
    "latitude": "40.676",
    "longitude": "47.4744"
  },
  {
    "country_code": "AZ",
    "zipcode": "AZ 0325",
    "place": "Ləki",
    "state": "Ağdaş",
    "state_code": "04",
    "province": "",
    "province_code": "",
    "community": "",
    "community_code": "",
    "latitude": "40.57",
    "longitude": "47.4522"
  },
  {
    "country_code": "AZ",
    "zipcode": "AZ 0327",
    "place": "Orta Ləki",
    "state": "Ağdaş",
    "state_code": "04",
    "province": "",
    "province_code": "",
    "community": "",
    "community_code": "",
    "latitude": "40.5199",
    "longitude": "47.4201"
  },
  {
    "country_code": "AZ",
    "zipcode": "AZ 0328",
    "place": "Pirəzə",
    "state": "Ağdaş",
    "state_code": "04",
    "province": "",
    "province_code": "",
    "community": "",
    "community_code": "",
    "latitude": "40.4131",
    "longitude": "47.3463"
  },
  {
    "country_code": "AZ",
    "zipcode": "AZ 0331",
    "place": "Dəhnəxəlil",
    "state": "Ağdaş",
    "state_code": "04",
    "province": "",
    "province_code": "",
    "community": "",
    "community_code": "",
    "latitude": "40.6802",
    "longitude": "47.5207"
  },
  {
    "country_code": "AZ",
    "zipcode": "AZ 0332",
    "place": "Yenicə",
    "state": "Ağdaş",
    "state_code": "04",
    "province": "",
    "province_code": "",
    "community": "",
    "community_code": "",
    "latitude": "40.5419",
    "longitude": "47.4851"
  },
  {
    "country_code": "AZ",
    "zipcode": "AZ 0333",
    "place": "Yuxari Qəsil",
    "state": "Ağdaş",
    "state_code": "04",
    "province": "",
    "province_code": "",
    "community": "",
    "community_code": "",
    "latitude": "40.651",
    "longitude": "47.5176"
  },
  {
    "country_code": "AZ",
    "zipcode": "AZ 0340",
    "place": "Ərəb",
    "state": "Ağdaş",
    "state_code": "04",
    "province": "",
    "province_code": "",
    "community": "",
    "community_code": "",
    "latitude": "40.6714",
    "longitude": "47.5892"
  },
  {
    "country_code": "AZ",
    "zipcode": "AZ 0500",
    "place": "Ağstafa",
    "state": "Ağstafa",
    "state_code": "05",
    "province": "",
    "province_code": "",
    "community": "",
    "community_code": "",
    "latitude": "41.1189",
    "longitude": "45.4539"
  },
  {
    "country_code": "AZ",
    "zipcode": "AZ 0511",
    "place": "Ağstafa Vağzal",
    "state": "Ağstafa",
    "state_code": "05",
    "province": "",
    "province_code": "",
    "community": "",
    "community_code": "",
    "latitude": "41.156",
    "longitude": "45.4352"
  },
  {
    "country_code": "AZ",
    "zipcode": "AZ 0512",
    "place": "Aşaği Göycəli",
    "state": "Ağstafa",
    "state_code": "05",
    "province": "",
    "province_code": "",
    "community": "",
    "community_code": "",
    "latitude": "41.1156",
    "longitude": "45.485"
  },
  {
    "country_code": "AZ",
    "zipcode": "AZ 0513",
    "place": "Aşaği Kəsəmən",
    "state": "Ağstafa",
    "state_code": "05",
    "province": "",
    "province_code": "",
    "community": "",
    "community_code": "",
    "latitude": "41.1532",
    "longitude": "45.4892"
  },
  {
    "country_code": "AZ",
    "zipcode": "AZ 0514",
    "place": "Böyük Kəsik",
    "state": "Ağstafa",
    "state_code": "05",
    "province": "",
    "province_code": "",
    "community": "",
    "community_code": "",
    "latitude": "41.3902",
    "longitude": "45.1876"
  },
  {
    "country_code": "AZ",
    "zipcode": "AZ 0515",
    "place": "Dağkəsəmən",
    "state": "Ağstafa",
    "state_code": "05",
    "province": "",
    "province_code": "",
    "community": "",
    "community_code": "",
    "latitude": "41.156",
    "longitude": "45.4352"
  },
  {
    "country_code": "AZ",
    "zipcode": "AZ 0517",
    "place": "Eynalli",
    "state": "Ağstafa",
    "state_code": "05",
    "province": "",
    "province_code": "",
    "community": "",
    "community_code": "",
    "latitude": "41.068",
    "longitude": "45.4991"
  },
  {
    "country_code": "AZ",
    "zipcode": "AZ 0518",
    "place": "Həsənsu",
    "state": "Ağstafa",
    "state_code": "05",
    "province": "",
    "province_code": "",
    "community": "",
    "community_code": "",
    "latitude": "41.0822",
    "longitude": "45.4925"
  },
  {
    "country_code": "AZ",
    "zipcode": "AZ 0519",
    "place": "Xətai",
    "state": "Ağstafa",
    "state_code": "05",
    "province": "",
    "province_code": "",
    "community": "",
    "community_code": "",
    "latitude": "41.1268",
    "longitude": "45.458"
  },
  {
    "country_code": "AZ",
    "zipcode": "AZ 0520",
    "place": "Kənd Poylu",
    "state": "Ağstafa",
    "state_code": "05",
    "province": "",
    "province_code": "",
    "community": "",
    "community_code": "",
    "latitude": "41.107",
    "longitude": "45.6362"
  },
  {
    "country_code": "AZ",
    "zipcode": "AZ 0521",
    "place": "Köçəsgər",
    "state": "Ağstafa",
    "state_code": "05",
    "province": "",
    "province_code": "",
    "community": "",
    "community_code": "",
    "latitude": "41.0575",
    "longitude": "45.5211"
  },
  {
    "country_code": "AZ",
    "zipcode": "AZ 0523",
    "place": "Qirli",
    "state": "Ağstafa",
    "state_code": "05",
    "province": "",
    "province_code": "",
    "community": "",
    "community_code": "",
    "latitude": "41.107",
    "longitude": "45.6362"
  },
  {
    "country_code": "AZ",
    "zipcode": "AZ 0525",
    "place": "Muğanli",
    "state": "Ağstafa",
    "state_code": "05",
    "province": "",
    "province_code": "",
    "community": "",
    "community_code": "",
    "latitude": "41.3446",
    "longitude": "45.197"
  },
  {
    "country_code": "AZ",
    "zipcode": "AZ 0527",
    "place": "Poylu Vağzal",
    "state": "Ağstafa",
    "state_code": "05",
    "province": "",
    "province_code": "",
    "community": "",
    "community_code": "",
    "latitude": "41.107",
    "longitude": "45.6362"
  },
  {
    "country_code": "AZ",
    "zipcode": "AZ 0528",
    "place": "Səməd Vurğun",
    "state": "Ağstafa",
    "state_code": "05",
    "province": "",
    "province_code": "",
    "community": "",
    "community_code": "",
    "latitude": "40.919",
    "longitude": "46.1906"
  },
  {
    "country_code": "AZ",
    "zipcode": "AZ 0529",
    "place": "Sadixli",
    "state": "Ağstafa",
    "state_code": "05",
    "province": "",
    "province_code": "",
    "community": "",
    "community_code": "",
    "latitude": "41.107",
    "longitude": "45.6362"
  },
  {
    "country_code": "AZ",
    "zipcode": "AZ 0532",
    "place": "Tatli",
    "state": "Ağstafa",
    "state_code": "05",
    "province": "",
    "province_code": "",
    "community": "",
    "community_code": "",
    "latitude": "41.0257",
    "longitude": "45.4495"
  },
  {
    "country_code": "AZ",
    "zipcode": "AZ 0533",
    "place": "Sadixli-1 Gomruk",
    "state": "Ağstafa",
    "state_code": "05",
    "province": "",
    "province_code": "",
    "community": "",
    "community_code": "",
    "latitude": "41.0257",
    "longitude": "45.4495"
  },
  {
    "country_code": "AZ",
    "zipcode": "AZ 0600",
    "place": "Ağsu",
    "state": "Ağsu",
    "state_code": "06",
    "province": "",
    "province_code": "",
    "community": "",
    "community_code": "",
    "latitude": "40.5703",
    "longitude": "48.4009"
  },
  {
    "country_code": "AZ",
    "zipcode": "AZ 0601",
    "place": "1 Sayli",
    "state": "Ağsu",
    "state_code": "06",
    "province": "",
    "province_code": "",
    "community": "",
    "community_code": "",
    "latitude": "40.5703",
    "longitude": "48.4009"
  },
  {
    "country_code": "AZ",
    "zipcode": "AZ 0611",
    "place": "Bico",
    "state": "Ağsu",
    "state_code": "06",
    "province": "",
    "province_code": "",
    "community": "",
    "community_code": "",
    "latitude": "40.5087",
    "longitude": "48.5578"
  },
  {
    "country_code": "AZ",
    "zipcode": "AZ 0612",
    "place": "Bozavand",
    "state": "Ağsu",
    "state_code": "06",
    "province": "",
    "province_code": "",
    "community": "",
    "community_code": "",
    "latitude": "40.5049",
    "longitude": "48.3762"
  },
  {
    "country_code": "AZ",
    "zipcode": "AZ 0614",
    "place": "Çaparli",
    "state": "Ağsu",
    "state_code": "06",
    "province": "",
    "province_code": "",
    "community": "",
    "community_code": "",
    "latitude": "40.5096",
    "longitude": "48.4538"
  },
  {
    "country_code": "AZ",
    "zipcode": "AZ 0615",
    "place": "Çiyni",
    "state": "Ağsu",
    "state_code": "06",
    "province": "",
    "province_code": "",
    "community": "",
    "community_code": "",
    "latitude": "40.523",
    "longitude": "48.2458"
  },
  {
    "country_code": "AZ",
    "zipcode": "AZ 0616",
    "place": "Ərəbmehdibəy",
    "state": "Ağsu",
    "state_code": "06",
    "province": "",
    "province_code": "",
    "community": "",
    "community_code": "",
    "latitude": "40.5439",
    "longitude": "48.1855"
  },
  {
    "country_code": "AZ",
    "zipcode": "AZ 0617",
    "place": "Ərəbuşaği",
    "state": "Ağsu",
    "state_code": "06",
    "province": "",
    "province_code": "",
    "community": "",
    "community_code": "",
    "latitude": "40.5274",
    "longitude": "48.4156"
  },
  {
    "country_code": "AZ",
    "zipcode": "AZ 0618",
    "place": "Gəgəli",
    "state": "Ağsu",
    "state_code": "06",
    "province": "",
    "province_code": "",
    "community": "",
    "community_code": "",
    "latitude": "40.5385",
    "longitude": "48.4942"
  },
  {
    "country_code": "AZ",
    "zipcode": "AZ 0620",
    "place": "Ilxiçi",
    "state": "Ağsu",
    "state_code": "06",
    "province": "",
    "province_code": "",
    "community": "",
    "community_code": "",
    "latitude": "40.4907",
    "longitude": "48.2952"
  },
  {
    "country_code": "AZ",
    "zipcode": "AZ 0621",
    "place": "Kalva",
    "state": "Ağsu",
    "state_code": "06",
    "province": "",
    "province_code": "",
    "community": "",
    "community_code": "",
    "latitude": "40.7268",
    "longitude": "48.4811"
  },
  {
    "country_code": "AZ",
    "zipcode": "AZ 0623",
    "place": "Qaraqoyunlu",
    "state": "Ağsu",
    "state_code": "06",
    "province": "",
    "province_code": "",
    "community": "",
    "community_code": "",
    "latitude": "40.5404",
    "longitude": "48.2995"
  },
  {
    "country_code": "AZ",
    "zipcode": "AZ 0625",
    "place": "Növcü",
    "state": "Ağsu",
    "state_code": "06",
    "province": "",
    "province_code": "",
    "community": "",
    "community_code": "",
    "latitude": "40.5187",
    "longitude": "48.2595"
  },
  {
    "country_code": "AZ",
    "zipcode": "AZ 0627",
    "place": "Padar",
    "state": "Ağsu",
    "state_code": "06",
    "province": "",
    "province_code": "",
    "community": "",
    "community_code": "",
    "latitude": "40.5881",
    "longitude": "48.2512"
  },
  {
    "country_code": "AZ",
    "zipcode": "AZ 0629",
    "place": "Pirhəsənli",
    "state": "Ağsu",
    "state_code": "06",
    "province": "",
    "province_code": "",
    "community": "",
    "community_code": "",
    "latitude": "40.5806",
    "longitude": "48.3604"
  },
  {
    "country_code": "AZ",
    "zipcode": "AZ 0630",
    "place": "Rəhimli",
    "state": "Ağsu",
    "state_code": "06",
    "province": "",
    "province_code": "",
    "community": "",
    "community_code": "",
    "latitude": "40.4477",
    "longitude": "48.3826"
  },
  {
    "country_code": "AZ",
    "zipcode": "AZ 1800",
    "place": "Şirvan",
    "state": "Şirvan",
    "state_code": "07",
    "province": "",
    "province_code": "",
    "community": "",
    "community_code": "",
    "latitude": "39.9378",
    "longitude": "48.929"
  },
  {
    "country_code": "AZ",
    "zipcode": "AZ 1801",
    "place": "1 Sayli",
    "state": "Şirvan",
    "state_code": "07",
    "province": "",
    "province_code": "",
    "community": "",
    "community_code": "",
    "latitude": "39.9378",
    "longitude": "48.929"
  },
  {
    "country_code": "AZ",
    "zipcode": "AZ 1802",
    "place": "2 Sayli",
    "state": "Şirvan",
    "state_code": "07",
    "province": "",
    "province_code": "",
    "community": "",
    "community_code": "",
    "latitude": "39.9378",
    "longitude": "48.929"
  },
  {
    "country_code": "AZ",
    "zipcode": "AZ 1803",
    "place": "3 Sayli",
    "state": "Şirvan",
    "state_code": "07",
    "province": "",
    "province_code": "",
    "community": "",
    "community_code": "",
    "latitude": "39.9378",
    "longitude": "48.929"
  },
  {
    "country_code": "AZ",
    "zipcode": "AZ 1804",
    "place": "4 Sayli",
    "state": "Şirvan",
    "state_code": "07",
    "province": "",
    "province_code": "",
    "community": "",
    "community_code": "",
    "latitude": "39.9378",
    "longitude": "48.929"
  },
  {
    "country_code": "AZ",
    "zipcode": "AZ 1806",
    "place": "6 Sayli",
    "state": "Şirvan",
    "state_code": "07",
    "province": "",
    "province_code": "",
    "community": "",
    "community_code": "",
    "latitude": "39.9378",
    "longitude": "48.929"
  },
  {
    "country_code": "AZ",
    "zipcode": "AZ 1812",
    "place": "12 Sayli",
    "state": "Şirvan",
    "state_code": "07",
    "province": "",
    "province_code": "",
    "community": "",
    "community_code": "",
    "latitude": "39.9378",
    "longitude": "48.929"
  },
  {
    "country_code": "AZ",
    "zipcode": "AZ 0700",
    "place": "Astara",
    "state": "Astara",
    "state_code": "08",
    "province": "",
    "province_code": "",
    "community": "",
    "community_code": "",
    "latitude": "38.456",
    "longitude": "48.875"
  },
  {
    "country_code": "AZ",
    "zipcode": "AZ 0701",
    "place": "1 Sayli",
    "state": "Astara",
    "state_code": "08",
    "province": "",
    "province_code": "",
    "community": "",
    "community_code": "",
    "latitude": "38.456",
    "longitude": "48.875"
  },
  {
    "country_code": "AZ",
    "zipcode": "AZ 0702",
    "place": "2 Sayli",
    "state": "Astara",
    "state_code": "08",
    "province": "",
    "province_code": "",
    "community": "",
    "community_code": "",
    "latitude": "38.456",
    "longitude": "48.875"
  },
  {
    "country_code": "AZ",
    "zipcode": "AZ 0704",
    "place": "Astara Gomruk",
    "state": "Astara",
    "state_code": "08",
    "province": "",
    "province_code": "",
    "community": "",
    "community_code": "",
    "latitude": "38.456",
    "longitude": "48.875"
  },
  {
    "country_code": "AZ",
    "zipcode": "AZ 0711",
    "place": "Ərçivan",
    "state": "Astara",
    "state_code": "08",
    "province": "",
    "province_code": "",
    "community": "",
    "community_code": "",
    "latitude": "38.5043",
    "longitude": "48.8316"
  },
  {
    "country_code": "AZ",
    "zipcode": "AZ 0714",
    "place": "Kakalos",
    "state": "Astara",
    "state_code": "08",
    "province": "",
    "province_code": "",
    "community": "",
    "community_code": "",
    "latitude": "38.6114",
    "longitude": "48.8429"
  },
  {
    "country_code": "AZ",
    "zipcode": "AZ 0715",
    "place": "Kicabə",
    "state": "Astara",
    "state_code": "08",
    "province": "",
    "province_code": "",
    "community": "",
    "community_code": "",
    "latitude": "38.5487",
    "longitude": "48.8242"
  },
  {
    "country_code": "AZ",
    "zipcode": "AZ 0716",
    "place": "Maşxan",
    "state": "Astara",
    "state_code": "08",
    "province": "",
    "province_code": "",
    "community": "",
    "community_code": "",
    "latitude": "38.5492",
    "longitude": "48.8203"
  },
  {
    "country_code": "AZ",
    "zipcode": "AZ 0717",
    "place": "Pensər",
    "state": "Astara",
    "state_code": "08",
    "province": "",
    "province_code": "",
    "community": "",
    "community_code": "",
    "latitude": "38.6097",
    "longitude": "48.8175"
  },
  {
    "country_code": "AZ",
    "zipcode": "AZ 0719",
    "place": "Səncərədi",
    "state": "Astara",
    "state_code": "08",
    "province": "",
    "province_code": "",
    "community": "",
    "community_code": "",
    "latitude": "38.4688",
    "longitude": "48.8086"
  },
  {
    "country_code": "AZ",
    "zipcode": "AZ 0720",
    "place": "Siyəkü",
    "state": "Astara",
    "state_code": "08",
    "province": "",
    "province_code": "",
    "community": "",
    "community_code": "",
    "latitude": "38.5229",
    "longitude": "48.8251"
  },
  {
    "country_code": "AZ",
    "zipcode": "AZ 0721",
    "place": "Suparibağ",
    "state": "Astara",
    "state_code": "08",
    "province": "",
    "province_code": "",
    "community": "",
    "community_code": "",
    "latitude": "38.4609",
    "longitude": "48.8523"
  },
  {
    "country_code": "AZ",
    "zipcode": "AZ 0722",
    "place": "Şahağaci",
    "state": "Astara",
    "state_code": "08",
    "province": "",
    "province_code": "",
    "community": "",
    "community_code": "",
    "latitude": "38.5229",
    "longitude": "48.8251"
  },
  {
    "country_code": "AZ",
    "zipcode": "AZ 0723",
    "place": "Şiyəkəran",
    "state": "Astara",
    "state_code": "08",
    "province": "",
    "province_code": "",
    "community": "",
    "community_code": "",
    "latitude": "38.5576",
    "longitude": "48.8694"
  },
  {
    "country_code": "AZ",
    "zipcode": "AZ 0724",
    "place": "Şuvi",
    "state": "Astara",
    "state_code": "08",
    "province": "",
    "province_code": "",
    "community": "",
    "community_code": "",
    "latitude": "38.4952",
    "longitude": "48.7621"
  },
  {
    "country_code": "AZ",
    "zipcode": "AZ 0725",
    "place": "Təngərüd",
    "state": "Astara",
    "state_code": "08",
    "province": "",
    "province_code": "",
    "community": "",
    "community_code": "",
    "latitude": "38.578",
    "longitude": "48.8167"
  },
  {
    "country_code": "AZ",
    "zipcode": "AZ 1000",
    "place": "Baki",
    "state": "Baki",
    "state_code": "09",
    "province": "",
    "province_code": "",
    "community": "",
    "community_code": "",
    "latitude": "40.3777",
    "longitude": "49.892"
  },
  {
    "country_code": "AZ",
    "zipcode": "AZ 1001",
    "place": "Baki-1",
    "state": "Baki",
    "state_code": "09",
    "province": "",
    "province_code": "",
    "community": "",
    "community_code": "",
    "latitude": "40.3777",
    "longitude": "49.892"
  },
  {
    "country_code": "AZ",
    "zipcode": "AZ 1002",
    "place": "Baki-2",
    "state": "Baki",
    "state_code": "09",
    "province": "",
    "province_code": "",
    "community": "",
    "community_code": "",
    "latitude": "40.3777",
    "longitude": "49.892"
  },
  {
    "country_code": "AZ",
    "zipcode": "AZ 1003",
    "place": "Baki-3",
    "state": "Baki",
    "state_code": "09",
    "province": "",
    "province_code": "",
    "community": "",
    "community_code": "",
    "latitude": "40.3777",
    "longitude": "49.892"
  },
  {
    "country_code": "AZ",
    "zipcode": "AZ 1004",
    "place": "Baki-4",
    "state": "Baki",
    "state_code": "09",
    "province": "",
    "province_code": "",
    "community": "",
    "community_code": "",
    "latitude": "40.3777",
    "longitude": "49.892"
  },
  {
    "country_code": "AZ",
    "zipcode": "AZ 1005",
    "place": "Baki-5",
    "state": "Baki",
    "state_code": "09",
    "province": "",
    "province_code": "",
    "community": "",
    "community_code": "",
    "latitude": "40.3777",
    "longitude": "49.892"
  },
  {
    "country_code": "AZ",
    "zipcode": "AZ 1006",
    "place": "Baki-6",
    "state": "Baki",
    "state_code": "09",
    "province": "",
    "province_code": "",
    "community": "",
    "community_code": "",
    "latitude": "40.3777",
    "longitude": "49.892"
  },
  {
    "country_code": "AZ",
    "zipcode": "AZ 1007",
    "place": "Baki-7",
    "state": "Baki",
    "state_code": "09",
    "province": "",
    "province_code": "",
    "community": "",
    "community_code": "",
    "latitude": "40.3777",
    "longitude": "49.892"
  },
  {
    "country_code": "AZ",
    "zipcode": "AZ 1008",
    "place": "Baki-8",
    "state": "Baki",
    "state_code": "09",
    "province": "",
    "province_code": "",
    "community": "",
    "community_code": "",
    "latitude": "40.3777",
    "longitude": "49.892"
  },
  {
    "country_code": "AZ",
    "zipcode": "AZ 1009",
    "place": "Baki-9",
    "state": "Baki",
    "state_code": "09",
    "province": "",
    "province_code": "",
    "community": "",
    "community_code": "",
    "latitude": "40.3777",
    "longitude": "49.892"
  },
  {
    "country_code": "AZ",
    "zipcode": "AZ 1010",
    "place": "Baki-10",
    "state": "Baki",
    "state_code": "09",
    "province": "",
    "province_code": "",
    "community": "",
    "community_code": "",
    "latitude": "39.9179",
    "longitude": "49.2168"
  },
  {
    "country_code": "AZ",
    "zipcode": "AZ 1012",
    "place": "Baki-12",
    "state": "Baki",
    "state_code": "09",
    "province": "",
    "province_code": "",
    "community": "",
    "community_code": "",
    "latitude": "39.9179",
    "longitude": "49.2168"
  },
  {
    "country_code": "AZ",
    "zipcode": "AZ 1014",
    "place": "Baki-14",
    "state": "Baki",
    "state_code": "09",
    "province": "",
    "province_code": "",
    "community": "",
    "community_code": "",
    "latitude": "39.9179",
    "longitude": "49.2168"
  },
  {
    "country_code": "AZ",
    "zipcode": "AZ 1015",
    "place": "Baki-15",
    "state": "Baki",
    "state_code": "09",
    "province": "",
    "province_code": "",
    "community": "",
    "community_code": "",
    "latitude": "39.9179",
    "longitude": "49.2168"
  },
  {
    "country_code": "AZ",
    "zipcode": "AZ 1016",
    "place": "Baki-16",
    "state": "Baki",
    "state_code": "09",
    "province": "",
    "province_code": "",
    "community": "",
    "community_code": "",
    "latitude": "39.9179",
    "longitude": "49.2168"
  },
  {
    "country_code": "AZ",
    "zipcode": "AZ 1017",
    "place": "Baki-17",
    "state": "Baki",
    "state_code": "09",
    "province": "",
    "province_code": "",
    "community": "",
    "community_code": "",
    "latitude": "39.9179",
    "longitude": "49.2168"
  },
  {
    "country_code": "AZ",
    "zipcode": "AZ 1018",
    "place": "Baki-18",
    "state": "Baki",
    "state_code": "09",
    "province": "",
    "province_code": "",
    "community": "",
    "community_code": "",
    "latitude": "39.9179",
    "longitude": "49.2168"
  },
  {
    "country_code": "AZ",
    "zipcode": "AZ 1020",
    "place": "Baki-20",
    "state": "Baki",
    "state_code": "09",
    "province": "",
    "province_code": "",
    "community": "",
    "community_code": "",
    "latitude": "39.3138",
    "longitude": "49.2072"
  },
  {
    "country_code": "AZ",
    "zipcode": "AZ 1021",
    "place": "Baki-21",
    "state": "Baki",
    "state_code": "09",
    "province": "",
    "province_code": "",
    "community": "",
    "community_code": "",
    "latitude": "39.3138",
    "longitude": "49.2072"
  },
  {
    "country_code": "AZ",
    "zipcode": "AZ 1022",
    "place": "Baki-22",
    "state": "Baki",
    "state_code": "09",
    "province": "",
    "province_code": "",
    "community": "",
    "community_code": "",
    "latitude": "39.3138",
    "longitude": "49.2072"
  },
  {
    "country_code": "AZ",
    "zipcode": "AZ 1023",
    "place": "Baki-23",
    "state": "Baki",
    "state_code": "09",
    "province": "",
    "province_code": "",
    "community": "",
    "community_code": "",
    "latitude": "39.3138",
    "longitude": "49.2072"
  },
  {
    "country_code": "AZ",
    "zipcode": "AZ 1025",
    "place": "Baki-25",
    "state": "Baki",
    "state_code": "09",
    "province": "",
    "province_code": "",
    "community": "",
    "community_code": "",
    "latitude": "39.3138",
    "longitude": "49.2072"
  },
  {
    "country_code": "AZ",
    "zipcode": "AZ 1026",
    "place": "Baki-26",
    "state": "Baki",
    "state_code": "09",
    "province": "",
    "province_code": "",
    "community": "",
    "community_code": "",
    "latitude": "39.3138",
    "longitude": "49.2072"
  },
  {
    "country_code": "AZ",
    "zipcode": "AZ 1027",
    "place": "Baki-27",
    "state": "Baki",
    "state_code": "09",
    "province": "",
    "province_code": "",
    "community": "",
    "community_code": "",
    "latitude": "39.3138",
    "longitude": "49.2072"
  },
  {
    "country_code": "AZ",
    "zipcode": "AZ 1029",
    "place": "Baki-29",
    "state": "Baki",
    "state_code": "09",
    "province": "",
    "province_code": "",
    "community": "",
    "community_code": "",
    "latitude": "39.3138",
    "longitude": "49.2072"
  },
  {
    "country_code": "AZ",
    "zipcode": "AZ 1030",
    "place": "Baki-30",
    "state": "Baki",
    "state_code": "09",
    "province": "",
    "province_code": "",
    "community": "",
    "community_code": "",
    "latitude": "39.9179",
    "longitude": "49.2168"
  },
  {
    "country_code": "AZ",
    "zipcode": "AZ 1031",
    "place": "Baki-31",
    "state": "Baki",
    "state_code": "09",
    "province": "",
    "province_code": "",
    "community": "",
    "community_code": "",
    "latitude": "39.9179",
    "longitude": "49.2168"
  },
  {
    "country_code": "AZ",
    "zipcode": "AZ 1032",
    "place": "Baki-32",
    "state": "Baki",
    "state_code": "09",
    "province": "",
    "province_code": "",
    "community": "",
    "community_code": "",
    "latitude": "39.9179",
    "longitude": "49.2168"
  },
  {
    "country_code": "AZ",
    "zipcode": "AZ 1033",
    "place": "Baki-33",
    "state": "Baki",
    "state_code": "09",
    "province": "",
    "province_code": "",
    "community": "",
    "community_code": "",
    "latitude": "39.9179",
    "longitude": "49.2168"
  },
  {
    "country_code": "AZ",
    "zipcode": "AZ 1034",
    "place": "Baki-34",
    "state": "Baki",
    "state_code": "09",
    "province": "",
    "province_code": "",
    "community": "",
    "community_code": "",
    "latitude": "39.9179",
    "longitude": "49.2168"
  },
  {
    "country_code": "AZ",
    "zipcode": "AZ 1035",
    "place": "Baki-35",
    "state": "Baki",
    "state_code": "09",
    "province": "",
    "province_code": "",
    "community": "",
    "community_code": "",
    "latitude": "39.9179",
    "longitude": "49.2168"
  },
  {
    "country_code": "AZ",
    "zipcode": "AZ 1037",
    "place": "Baki-37",
    "state": "Baki",
    "state_code": "09",
    "province": "",
    "province_code": "",
    "community": "",
    "community_code": "",
    "latitude": "39.9179",
    "longitude": "49.2168"
  },
  {
    "country_code": "AZ",
    "zipcode": "AZ 1038",
    "place": "Baki-38",
    "state": "Baki",
    "state_code": "09",
    "province": "",
    "province_code": "",
    "community": "",
    "community_code": "",
    "latitude": "39.9179",
    "longitude": "49.2168"
  },
  {
    "country_code": "AZ",
    "zipcode": "AZ 1039",
    "place": "Baki-39",
    "state": "Baki",
    "state_code": "09",
    "province": "",
    "province_code": "",
    "community": "",
    "community_code": "",
    "latitude": "39.9179",
    "longitude": "49.2168"
  },
  {
    "country_code": "AZ",
    "zipcode": "AZ 1040",
    "place": "Baki-40",
    "state": "Baki",
    "state_code": "09",
    "province": "",
    "province_code": "",
    "community": "",
    "community_code": "",
    "latitude": "39.9415",
    "longitude": "48.5493"
  },
  {
    "country_code": "AZ",
    "zipcode": "AZ 1041",
    "place": "Baki-41",
    "state": "Baki",
    "state_code": "09",
    "province": "",
    "province_code": "",
    "community": "",
    "community_code": "",
    "latitude": "39.9415",
    "longitude": "48.5493"
  },
  {
    "country_code": "AZ",
    "zipcode": "AZ 1042",
    "place": "Baki-42",
    "state": "Baki",
    "state_code": "09",
    "province": "",
    "province_code": "",
    "community": "",
    "community_code": "",
    "latitude": "39.9415",
    "longitude": "48.5493"
  },
  {
    "country_code": "AZ",
    "zipcode": "AZ 1043",
    "place": "Baki-43",
    "state": "Baki",
    "state_code": "09",
    "province": "",
    "province_code": "",
    "community": "",
    "community_code": "",
    "latitude": "39.9415",
    "longitude": "48.5493"
  },
  {
    "country_code": "AZ",
    "zipcode": "AZ 1044",
    "place": "Baki-44",
    "state": "Baki",
    "state_code": "09",
    "province": "",
    "province_code": "",
    "community": "",
    "community_code": "",
    "latitude": "39.9415",
    "longitude": "48.5493"
  },
  {
    "country_code": "AZ",
    "zipcode": "AZ 1045",
    "place": "Baki-45",
    "state": "Baki",
    "state_code": "09",
    "province": "",
    "province_code": "",
    "community": "",
    "community_code": "",
    "latitude": "39.9415",
    "longitude": "48.5493"
  },
  {
    "country_code": "AZ",
    "zipcode": "AZ 1046",
    "place": "Baki-46",
    "state": "Baki",
    "state_code": "09",
    "province": "",
    "province_code": "",
    "community": "",
    "community_code": "",
    "latitude": "39.9415",
    "longitude": "48.5493"
  },
  {
    "country_code": "AZ",
    "zipcode": "AZ 1047",
    "place": "Baki-47",
    "state": "Baki",
    "state_code": "09",
    "province": "",
    "province_code": "",
    "community": "",
    "community_code": "",
    "latitude": "39.9415",
    "longitude": "48.5493"
  },
  {
    "country_code": "AZ",
    "zipcode": "AZ 1048",
    "place": "Baki-48",
    "state": "Baki",
    "state_code": "09",
    "province": "",
    "province_code": "",
    "community": "",
    "community_code": "",
    "latitude": "39.9415",
    "longitude": "48.5493"
  },
  {
    "country_code": "AZ",
    "zipcode": "AZ 1049",
    "place": "Baki-49",
    "state": "Baki",
    "state_code": "09",
    "province": "",
    "province_code": "",
    "community": "",
    "community_code": "",
    "latitude": "39.9415",
    "longitude": "48.5493"
  },
  {
    "country_code": "AZ",
    "zipcode": "AZ 1050",
    "place": "Baki-50",
    "state": "Baki",
    "state_code": "09",
    "province": "",
    "province_code": "",
    "community": "",
    "community_code": "",
    "latitude": "39.9179",
    "longitude": "49.2168"
  },
  {
    "country_code": "AZ",
    "zipcode": "AZ 1052",
    "place": "Baki-52",
    "state": "Baki",
    "state_code": "09",
    "province": "",
    "province_code": "",
    "community": "",
    "community_code": "",
    "latitude": "39.9179",
    "longitude": "49.2168"
  },
  {
    "country_code": "AZ",
    "zipcode": "AZ 1053",
    "place": "Baki-53",
    "state": "Baki",
    "state_code": "09",
    "province": "",
    "province_code": "",
    "community": "",
    "community_code": "",
    "latitude": "39.9179",
    "longitude": "49.2168"
  },
  {
    "country_code": "AZ",
    "zipcode": "AZ 1054",
    "place": "Baki-54",
    "state": "Baki",
    "state_code": "09",
    "province": "",
    "province_code": "",
    "community": "",
    "community_code": "",
    "latitude": "39.9179",
    "longitude": "49.2168"
  },
  {
    "country_code": "AZ",
    "zipcode": "AZ 1056",
    "place": "Baki-56",
    "state": "Baki",
    "state_code": "09",
    "province": "",
    "province_code": "",
    "community": "",
    "community_code": "",
    "latitude": "39.9179",
    "longitude": "49.2168"
  },
  {
    "country_code": "AZ",
    "zipcode": "AZ 1059",
    "place": "Baki-59",
    "state": "Baki",
    "state_code": "09",
    "province": "",
    "province_code": "",
    "community": "",
    "community_code": "",
    "latitude": "39.9179",
    "longitude": "49.2168"
  },
  {
    "country_code": "AZ",
    "zipcode": "AZ 1060",
    "place": "Baki-60",
    "state": "Baki",
    "state_code": "09",
    "province": "",
    "province_code": "",
    "community": "",
    "community_code": "",
    "latitude": "39.9179",
    "longitude": "49.2168"
  },
  {
    "country_code": "AZ",
    "zipcode": "AZ 1061",
    "place": "Baki-61",
    "state": "Baki",
    "state_code": "09",
    "province": "",
    "province_code": "",
    "community": "",
    "community_code": "",
    "latitude": "39.9179",
    "longitude": "49.2168"
  },
  {
    "country_code": "AZ",
    "zipcode": "AZ 1062",
    "place": "Baki-62",
    "state": "Baki",
    "state_code": "09",
    "province": "",
    "province_code": "",
    "community": "",
    "community_code": "",
    "latitude": "39.9179",
    "longitude": "49.2168"
  },
  {
    "country_code": "AZ",
    "zipcode": "AZ 1063",
    "place": "Baki-63",
    "state": "Baki",
    "state_code": "09",
    "province": "",
    "province_code": "",
    "community": "",
    "community_code": "",
    "latitude": "39.9179",
    "longitude": "49.2168"
  },
  {
    "country_code": "AZ",
    "zipcode": "AZ 1064",
    "place": "Baki-64",
    "state": "Baki",
    "state_code": "09",
    "province": "",
    "province_code": "",
    "community": "",
    "community_code": "",
    "latitude": "39.9179",
    "longitude": "49.2168"
  },
  {
    "country_code": "AZ",
    "zipcode": "AZ 1065",
    "place": "Baki-65",
    "state": "Baki",
    "state_code": "09",
    "province": "",
    "province_code": "",
    "community": "",
    "community_code": "",
    "latitude": "39.9179",
    "longitude": "49.2168"
  },
  {
    "country_code": "AZ",
    "zipcode": "AZ 1066",
    "place": "Baki-66",
    "state": "Baki",
    "state_code": "09",
    "province": "",
    "province_code": "",
    "community": "",
    "community_code": "",
    "latitude": "39.9179",
    "longitude": "49.2168"
  },
  {
    "country_code": "AZ",
    "zipcode": "AZ 1067",
    "place": "Baki-67",
    "state": "Baki",
    "state_code": "09",
    "province": "",
    "province_code": "",
    "community": "",
    "community_code": "",
    "latitude": "39.9179",
    "longitude": "49.2168"
  },
  {
    "country_code": "AZ",
    "zipcode": "AZ 1068",
    "place": "Baki-68",
    "state": "Baki",
    "state_code": "09",
    "province": "",
    "province_code": "",
    "community": "",
    "community_code": "",
    "latitude": "39.9179",
    "longitude": "49.2168"
  },
  {
    "country_code": "AZ",
    "zipcode": "AZ 1069",
    "place": "Baki-69",
    "state": "Baki",
    "state_code": "09",
    "province": "",
    "province_code": "",
    "community": "",
    "community_code": "",
    "latitude": "39.9179",
    "longitude": "49.2168"
  },
  {
    "country_code": "AZ",
    "zipcode": "AZ 1070",
    "place": "Baki-70",
    "state": "Baki",
    "state_code": "09",
    "province": "",
    "province_code": "",
    "community": "",
    "community_code": "",
    "latitude": "39.9179",
    "longitude": "49.2168"
  },
  {
    "country_code": "AZ",
    "zipcode": "AZ 1071",
    "place": "Baki-71",
    "state": "Baki",
    "state_code": "09",
    "province": "",
    "province_code": "",
    "community": "",
    "community_code": "",
    "latitude": "39.9179",
    "longitude": "49.2168"
  },
  {
    "country_code": "AZ",
    "zipcode": "AZ 1072",
    "place": "Baki-72",
    "state": "Baki",
    "state_code": "09",
    "province": "",
    "province_code": "",
    "community": "",
    "community_code": "",
    "latitude": "39.9179",
    "longitude": "49.2168"
  },
  {
    "country_code": "AZ",
    "zipcode": "AZ 1073",
    "place": "Baki-73",
    "state": "Baki",
    "state_code": "09",
    "province": "",
    "province_code": "",
    "community": "",
    "community_code": "",
    "latitude": "39.9179",
    "longitude": "49.2168"
  },
  {
    "country_code": "AZ",
    "zipcode": "AZ 1074",
    "place": "Baki-74",
    "state": "Baki",
    "state_code": "09",
    "province": "",
    "province_code": "",
    "community": "",
    "community_code": "",
    "latitude": "39.9179",
    "longitude": "49.2168"
  },
  {
    "country_code": "AZ",
    "zipcode": "AZ 1075",
    "place": "Baki-75",
    "state": "Baki",
    "state_code": "09",
    "province": "",
    "province_code": "",
    "community": "",
    "community_code": "",
    "latitude": "39.9179",
    "longitude": "49.2168"
  },
  {
    "country_code": "AZ",
    "zipcode": "AZ 1076",
    "place": "Baki-76",
    "state": "Baki",
    "state_code": "09",
    "province": "",
    "province_code": "",
    "community": "",
    "community_code": "",
    "latitude": "39.9179",
    "longitude": "49.2168"
  },
  {
    "country_code": "AZ",
    "zipcode": "AZ 1077",
    "place": "Baki-77",
    "state": "Baki",
    "state_code": "09",
    "province": "",
    "province_code": "",
    "community": "",
    "community_code": "",
    "latitude": "39.9179",
    "longitude": "49.2168"
  },
  {
    "country_code": "AZ",
    "zipcode": "AZ 1078",
    "place": "Baki-78",
    "state": "Baki",
    "state_code": "09",
    "province": "",
    "province_code": "",
    "community": "",
    "community_code": "",
    "latitude": "39.9179",
    "longitude": "49.2168"
  },
  {
    "country_code": "AZ",
    "zipcode": "AZ 1079",
    "place": "Baki-79",
    "state": "Baki",
    "state_code": "09",
    "province": "",
    "province_code": "",
    "community": "",
    "community_code": "",
    "latitude": "39.9179",
    "longitude": "49.2168"
  },
  {
    "country_code": "AZ",
    "zipcode": "AZ 1080",
    "place": "Baki-80",
    "state": "Baki",
    "state_code": "09",
    "province": "",
    "province_code": "",
    "community": "",
    "community_code": "",
    "latitude": "39.9179",
    "longitude": "49.2168"
  },
  {
    "country_code": "AZ",
    "zipcode": "AZ 1081",
    "place": "Baki-81",
    "state": "Baki",
    "state_code": "09",
    "province": "",
    "province_code": "",
    "community": "",
    "community_code": "",
    "latitude": "39.9179",
    "longitude": "49.2168"
  },
  {
    "country_code": "AZ",
    "zipcode": "AZ 1082",
    "place": "Baki-82",
    "state": "Baki",
    "state_code": "09",
    "province": "",
    "province_code": "",
    "community": "",
    "community_code": "",
    "latitude": "39.9179",
    "longitude": "49.2168"
  },
  {
    "country_code": "AZ",
    "zipcode": "AZ 1083",
    "place": "Baki-83",
    "state": "Baki",
    "state_code": "09",
    "province": "",
    "province_code": "",
    "community": "",
    "community_code": "",
    "latitude": "39.9179",
    "longitude": "49.2168"
  },
  {
    "country_code": "AZ",
    "zipcode": "AZ 1084",
    "place": "Baki-84",
    "state": "Baki",
    "state_code": "09",
    "province": "",
    "province_code": "",
    "community": "",
    "community_code": "",
    "latitude": "39.9179",
    "longitude": "49.2168"
  },
  {
    "country_code": "AZ",
    "zipcode": "AZ 1085",
    "place": "Baki-85",
    "state": "Baki",
    "state_code": "09",
    "province": "",
    "province_code": "",
    "community": "",
    "community_code": "",
    "latitude": "39.9179",
    "longitude": "49.2168"
  },
  {
    "country_code": "AZ",
    "zipcode": "AZ 1086",
    "place": "Baki-86",
    "state": "Baki",
    "state_code": "09",
    "province": "",
    "province_code": "",
    "community": "",
    "community_code": "",
    "latitude": "39.9179",
    "longitude": "49.2168"
  },
  {
    "country_code": "AZ",
    "zipcode": "AZ 1088",
    "place": "Baki-88",
    "state": "Baki",
    "state_code": "09",
    "province": "",
    "province_code": "",
    "community": "",
    "community_code": "",
    "latitude": "39.9179",
    "longitude": "49.2168"
  },
  {
    "country_code": "AZ",
    "zipcode": "AZ 1089",
    "place": "Baki-89",
    "state": "Baki",
    "state_code": "09",
    "province": "",
    "province_code": "",
    "community": "",
    "community_code": "",
    "latitude": "39.9179",
    "longitude": "49.2168"
  },
  {
    "country_code": "AZ",
    "zipcode": "AZ 1090",
    "place": "Baki-90",
    "state": "Baki",
    "state_code": "09",
    "province": "",
    "province_code": "",
    "community": "",
    "community_code": "",
    "latitude": "39.9179",
    "longitude": "49.2168"
  },
  {
    "country_code": "AZ",
    "zipcode": "AZ 1091",
    "place": "Baki-91",
    "state": "Baki",
    "state_code": "09",
    "province": "",
    "province_code": "",
    "community": "",
    "community_code": "",
    "latitude": "39.9179",
    "longitude": "49.2168"
  },
  {
    "country_code": "AZ",
    "zipcode": "AZ 1092",
    "place": "Baki-92",
    "state": "Baki",
    "state_code": "09",
    "province": "",
    "province_code": "",
    "community": "",
    "community_code": "",
    "latitude": "39.9179",
    "longitude": "49.2168"
  },
  {
    "country_code": "AZ",
    "zipcode": "AZ 1093",
    "place": "Baki-93",
    "state": "Baki",
    "state_code": "09",
    "province": "",
    "province_code": "",
    "community": "",
    "community_code": "",
    "latitude": "39.9179",
    "longitude": "49.2168"
  },
  {
    "country_code": "AZ",
    "zipcode": "AZ 1094",
    "place": "Baki-94",
    "state": "Baki",
    "state_code": "09",
    "province": "",
    "province_code": "",
    "community": "",
    "community_code": "",
    "latitude": "39.9179",
    "longitude": "49.2168"
  },
  {
    "country_code": "AZ",
    "zipcode": "AZ 1096",
    "place": "Baki-96",
    "state": "Baki",
    "state_code": "09",
    "province": "",
    "province_code": "",
    "community": "",
    "community_code": "",
    "latitude": "39.9179",
    "longitude": "49.2168"
  },
  {
    "country_code": "AZ",
    "zipcode": "AZ 1097",
    "place": "Baki-97",
    "state": "Baki",
    "state_code": "09",
    "province": "",
    "province_code": "",
    "community": "",
    "community_code": "",
    "latitude": "39.9179",
    "longitude": "49.2168"
  },
  {
    "country_code": "AZ",
    "zipcode": "AZ 1098",
    "place": "Baki-98",
    "state": "Baki",
    "state_code": "09",
    "province": "",
    "province_code": "",
    "community": "",
    "community_code": "",
    "latitude": "39.9179",
    "longitude": "49.2168"
  },
  {
    "country_code": "AZ",
    "zipcode": "AZ 1100",
    "place": "Baki-100",
    "state": "Baki",
    "state_code": "09",
    "province": "",
    "province_code": "",
    "community": "",
    "community_code": "",
    "latitude": "40.3777",
    "longitude": "49.892"
  },
  {
    "country_code": "AZ",
    "zipcode": "AZ 1102",
    "place": "Baki-102",
    "state": "Baki",
    "state_code": "09",
    "province": "",
    "province_code": "",
    "community": "",
    "community_code": "",
    "latitude": "40.3777",
    "longitude": "49.892"
  },
  {
    "country_code": "AZ",
    "zipcode": "AZ 1104",
    "place": "Baki-104",
    "state": "Baki",
    "state_code": "09",
    "province": "",
    "province_code": "",
    "community": "",
    "community_code": "",
    "latitude": "40.3777",
    "longitude": "49.892"
  },
  {
    "country_code": "AZ",
    "zipcode": "AZ 1106",
    "place": "Baki-106",
    "state": "Baki",
    "state_code": "09",
    "province": "",
    "province_code": "",
    "community": "",
    "community_code": "",
    "latitude": "40.3777",
    "longitude": "49.892"
  },
  {
    "country_code": "AZ",
    "zipcode": "AZ 1107",
    "place": "Baki-107",
    "state": "Baki",
    "state_code": "09",
    "province": "",
    "province_code": "",
    "community": "",
    "community_code": "",
    "latitude": "40.3777",
    "longitude": "49.892"
  },
  {
    "country_code": "AZ",
    "zipcode": "AZ 1108",
    "place": "Baki-108",
    "state": "Baki",
    "state_code": "09",
    "province": "",
    "province_code": "",
    "community": "",
    "community_code": "",
    "latitude": "40.3777",
    "longitude": "49.892"
  },
  {
    "country_code": "AZ",
    "zipcode": "AZ 1110",
    "place": "Baki-110",
    "state": "Baki",
    "state_code": "09",
    "province": "",
    "province_code": "",
    "community": "",
    "community_code": "",
    "latitude": "40.3777",
    "longitude": "49.892"
  },
  {
    "country_code": "AZ",
    "zipcode": "AZ 1111",
    "place": "Baki-111",
    "state": "Baki",
    "state_code": "09",
    "province": "",
    "province_code": "",
    "community": "",
    "community_code": "",
    "latitude": "40.3777",
    "longitude": "49.892"
  },
  {
    "country_code": "AZ",
    "zipcode": "AZ 1112",
    "place": "Baki-112",
    "state": "Baki",
    "state_code": "09",
    "province": "",
    "province_code": "",
    "community": "",
    "community_code": "",
    "latitude": "40.3777",
    "longitude": "49.892"
  },
  {
    "country_code": "AZ",
    "zipcode": "AZ 1113",
    "place": "Baki-113",
    "state": "Baki",
    "state_code": "09",
    "province": "",
    "province_code": "",
    "community": "",
    "community_code": "",
    "latitude": "40.3777",
    "longitude": "49.892"
  },
  {
    "country_code": "AZ",
    "zipcode": "AZ 1114",
    "place": "Baki-114",
    "state": "Baki",
    "state_code": "09",
    "province": "",
    "province_code": "",
    "community": "",
    "community_code": "",
    "latitude": "40.3777",
    "longitude": "49.892"
  },
  {
    "country_code": "AZ",
    "zipcode": "AZ 1115",
    "place": "Baki-115",
    "state": "Baki",
    "state_code": "09",
    "province": "",
    "province_code": "",
    "community": "",
    "community_code": "",
    "latitude": "40.3777",
    "longitude": "49.892"
  },
  {
    "country_code": "AZ",
    "zipcode": "AZ 1116",
    "place": "Baki-116",
    "state": "Baki",
    "state_code": "09",
    "province": "",
    "province_code": "",
    "community": "",
    "community_code": "",
    "latitude": "40.3777",
    "longitude": "49.892"
  },
  {
    "country_code": "AZ",
    "zipcode": "AZ 1117",
    "place": "Baki-117",
    "state": "Baki",
    "state_code": "09",
    "province": "",
    "province_code": "",
    "community": "",
    "community_code": "",
    "latitude": "40.3777",
    "longitude": "49.892"
  },
  {
    "country_code": "AZ",
    "zipcode": "AZ 1118",
    "place": "Baki-118",
    "state": "Baki",
    "state_code": "09",
    "province": "",
    "province_code": "",
    "community": "",
    "community_code": "",
    "latitude": "40.3777",
    "longitude": "49.892"
  },
  {
    "country_code": "AZ",
    "zipcode": "AZ 1119",
    "place": "Baki-119",
    "state": "Baki",
    "state_code": "09",
    "province": "",
    "province_code": "",
    "community": "",
    "community_code": "",
    "latitude": "40.3777",
    "longitude": "49.892"
  },
  {
    "country_code": "AZ",
    "zipcode": "AZ 1120",
    "place": "Baki-120",
    "state": "Baki",
    "state_code": "09",
    "province": "",
    "province_code": "",
    "community": "",
    "community_code": "",
    "latitude": "40.3777",
    "longitude": "49.892"
  },
  {
    "country_code": "AZ",
    "zipcode": "AZ 1121",
    "place": "Baki-121",
    "state": "Baki",
    "state_code": "09",
    "province": "",
    "province_code": "",
    "community": "",
    "community_code": "",
    "latitude": "40.3777",
    "longitude": "49.892"
  },
  {
    "country_code": "AZ",
    "zipcode": "AZ 1122",
    "place": "Baki-122",
    "state": "Baki",
    "state_code": "09",
    "province": "",
    "province_code": "",
    "community": "",
    "community_code": "",
    "latitude": "40.3777",
    "longitude": "49.892"
  },
  {
    "country_code": "AZ",
    "zipcode": "AZ 1123",
    "place": "Baki-123",
    "state": "Baki",
    "state_code": "09",
    "province": "",
    "province_code": "",
    "community": "",
    "community_code": "",
    "latitude": "40.3777",
    "longitude": "49.892"
  },
  {
    "country_code": "AZ",
    "zipcode": "AZ 1124",
    "place": "Baki-124",
    "state": "Baki",
    "state_code": "09",
    "province": "",
    "province_code": "",
    "community": "",
    "community_code": "",
    "latitude": "40.3777",
    "longitude": "49.892"
  },
  {
    "country_code": "AZ",
    "zipcode": "AZ 1125",
    "place": "Baki-125",
    "state": "Baki",
    "state_code": "09",
    "province": "",
    "province_code": "",
    "community": "",
    "community_code": "",
    "latitude": "40.3777",
    "longitude": "49.892"
  },
  {
    "country_code": "AZ",
    "zipcode": "AZ 1126",
    "place": "Baki-126",
    "state": "Baki",
    "state_code": "09",
    "province": "",
    "province_code": "",
    "community": "",
    "community_code": "",
    "latitude": "40.3777",
    "longitude": "49.892"
  },
  {
    "country_code": "AZ",
    "zipcode": "AZ 1127",
    "place": "Baki-127",
    "state": "Baki",
    "state_code": "09",
    "province": "",
    "province_code": "",
    "community": "",
    "community_code": "",
    "latitude": "40.3777",
    "longitude": "49.892"
  },
  {
    "country_code": "AZ",
    "zipcode": "AZ 1128",
    "place": "Baki-128",
    "state": "Baki",
    "state_code": "09",
    "province": "",
    "province_code": "",
    "community": "",
    "community_code": "",
    "latitude": "40.3777",
    "longitude": "49.892"
  },
  {
    "country_code": "AZ",
    "zipcode": "AZ 1129",
    "place": "Baki-129",
    "state": "Baki",
    "state_code": "09",
    "province": "",
    "province_code": "",
    "community": "",
    "community_code": "",
    "latitude": "40.3777",
    "longitude": "49.892"
  },
  {
    "country_code": "AZ",
    "zipcode": "AZ 1130",
    "place": "Baki-130",
    "state": "Baki",
    "state_code": "09",
    "province": "",
    "province_code": "",
    "community": "",
    "community_code": "",
    "latitude": "40.3777",
    "longitude": "49.892"
  },
  {
    "country_code": "AZ",
    "zipcode": "AZ 1131",
    "place": "Baki-131",
    "state": "Baki",
    "state_code": "09",
    "province": "",
    "province_code": "",
    "community": "",
    "community_code": "",
    "latitude": "40.3777",
    "longitude": "49.892"
  },
  {
    "country_code": "AZ",
    "zipcode": "AZ 1132",
    "place": "Baki-132",
    "state": "Baki",
    "state_code": "09",
    "province": "",
    "province_code": "",
    "community": "",
    "community_code": "",
    "latitude": "40.3777",
    "longitude": "49.892"
  },
  {
    "country_code": "AZ",
    "zipcode": "AZ 1133",
    "place": "Baki-133",
    "state": "Baki",
    "state_code": "09",
    "province": "",
    "province_code": "",
    "community": "",
    "community_code": "",
    "latitude": "40.3777",
    "longitude": "49.892"
  },
  {
    "country_code": "AZ",
    "zipcode": "AZ 1134",
    "place": "Baki-134",
    "state": "Baki",
    "state_code": "09",
    "province": "",
    "province_code": "",
    "community": "",
    "community_code": "",
    "latitude": "40.3777",
    "longitude": "49.892"
  },
  {
    "country_code": "AZ",
    "zipcode": "AZ 1135",
    "place": "Baki-135",
    "state": "Baki",
    "state_code": "09",
    "province": "",
    "province_code": "",
    "community": "",
    "community_code": "",
    "latitude": "40.3777",
    "longitude": "49.892"
  },
  {
    "country_code": "AZ",
    "zipcode": "AZ 1136",
    "place": "Baki-136",
    "state": "Baki",
    "state_code": "09",
    "province": "",
    "province_code": "",
    "community": "",
    "community_code": "",
    "latitude": "40.3777",
    "longitude": "49.892"
  },
  {
    "country_code": "AZ",
    "zipcode": "AZ 1137",
    "place": "Baki-137",
    "state": "Baki",
    "state_code": "09",
    "province": "",
    "province_code": "",
    "community": "",
    "community_code": "",
    "latitude": "40.3777",
    "longitude": "49.892"
  },
  {
    "country_code": "AZ",
    "zipcode": "AZ 1138",
    "place": "Baki-138",
    "state": "Baki",
    "state_code": "09",
    "province": "",
    "province_code": "",
    "community": "",
    "community_code": "",
    "latitude": "40.3777",
    "longitude": "49.892"
  },
  {
    "country_code": "AZ",
    "zipcode": "AZ 1139",
    "place": "Baki-139",
    "state": "Baki",
    "state_code": "09",
    "province": "",
    "province_code": "",
    "community": "",
    "community_code": "",
    "latitude": "40.3777",
    "longitude": "49.892"
  },
  {
    "country_code": "AZ",
    "zipcode": "AZ 1140",
    "place": "Baki-140",
    "state": "Baki",
    "state_code": "09",
    "province": "",
    "province_code": "",
    "community": "",
    "community_code": "",
    "latitude": "40.3777",
    "longitude": "49.892"
  },
  {
    "country_code": "AZ",
    "zipcode": "AZ 1141",
    "place": "Baki-141",
    "state": "Baki",
    "state_code": "09",
    "province": "",
    "province_code": "",
    "community": "",
    "community_code": "",
    "latitude": "40.3777",
    "longitude": "49.892"
  },
  {
    "country_code": "AZ",
    "zipcode": "AZ 1142",
    "place": "Baki-142",
    "state": "Baki",
    "state_code": "09",
    "province": "",
    "province_code": "",
    "community": "",
    "community_code": "",
    "latitude": "40.3777",
    "longitude": "49.892"
  },
  {
    "country_code": "AZ",
    "zipcode": "AZ 1143",
    "place": "Baki-143",
    "state": "Baki",
    "state_code": "09",
    "province": "",
    "province_code": "",
    "community": "",
    "community_code": "",
    "latitude": "40.3777",
    "longitude": "49.892"
  },
  {
    "country_code": "AZ",
    "zipcode": "AZ 1144",
    "place": "Baki-144",
    "state": "Baki",
    "state_code": "09",
    "province": "",
    "province_code": "",
    "community": "",
    "community_code": "",
    "latitude": "40.3777",
    "longitude": "49.892"
  },
  {
    "country_code": "AZ",
    "zipcode": "AZ 1145",
    "place": "Baki-145",
    "state": "Baki",
    "state_code": "09",
    "province": "",
    "province_code": "",
    "community": "",
    "community_code": "",
    "latitude": "40.3777",
    "longitude": "49.892"
  },
  {
    "country_code": "AZ",
    "zipcode": "AZ 1146",
    "place": "Baki-146",
    "state": "Baki",
    "state_code": "09",
    "province": "",
    "province_code": "",
    "community": "",
    "community_code": "",
    "latitude": "40.3777",
    "longitude": "49.892"
  },
  {
    "country_code": "AZ",
    "zipcode": "AZ 1147",
    "place": "Baki-147",
    "state": "Baki",
    "state_code": "09",
    "province": "",
    "province_code": "",
    "community": "",
    "community_code": "",
    "latitude": "40.3777",
    "longitude": "49.892"
  },
  {
    "country_code": "AZ",
    "zipcode": "AZ 1148",
    "place": "Baki-148",
    "state": "Baki",
    "state_code": "09",
    "province": "",
    "province_code": "",
    "community": "",
    "community_code": "",
    "latitude": "40.3777",
    "longitude": "49.892"
  },
  {
    "country_code": "AZ",
    "zipcode": "AZ 1149",
    "place": "Baki-149",
    "state": "Baki",
    "state_code": "09",
    "province": "",
    "province_code": "",
    "community": "",
    "community_code": "",
    "latitude": "40.3777",
    "longitude": "49.892"
  },
  {
    "country_code": "AZ",
    "zipcode": "AZ 1150",
    "place": "Baki-150",
    "state": "Baki",
    "state_code": "09",
    "province": "",
    "province_code": "",
    "community": "",
    "community_code": "",
    "latitude": "40.3777",
    "longitude": "49.892"
  },
  {
    "country_code": "AZ",
    "zipcode": "AZ 1151",
    "place": "Baki-151",
    "state": "Baki",
    "state_code": "09",
    "province": "",
    "province_code": "",
    "community": "",
    "community_code": "",
    "latitude": "40.3777",
    "longitude": "49.892"
  },
  {
    "country_code": "AZ",
    "zipcode": "AZ 1152",
    "place": "Baki-152",
    "state": "Baki",
    "state_code": "09",
    "province": "",
    "province_code": "",
    "community": "",
    "community_code": "",
    "latitude": "40.3777",
    "longitude": "49.892"
  },
  {
    "country_code": "AZ",
    "zipcode": "AZ 1153",
    "place": "Baki-153",
    "state": "Baki",
    "state_code": "09",
    "province": "",
    "province_code": "",
    "community": "",
    "community_code": "",
    "latitude": "40.3777",
    "longitude": "49.892"
  },
  {
    "country_code": "AZ",
    "zipcode": "AZ 1154",
    "place": "Baki-154",
    "state": "Baki",
    "state_code": "09",
    "province": "",
    "province_code": "",
    "community": "",
    "community_code": "",
    "latitude": "40.3777",
    "longitude": "49.892"
  },
  {
    "country_code": "AZ",
    "zipcode": "AZ 1156",
    "place": "Hava Limani Baki Gomruk",
    "state": "Baki",
    "state_code": "09",
    "province": "",
    "province_code": "",
    "community": "",
    "community_code": "",
    "latitude": "40.3777",
    "longitude": "49.892"
  },
  {
    "country_code": "AZ",
    "zipcode": "AZ 1157",
    "place": "Baki Deniz Limani",
    "state": "Baki",
    "state_code": "09",
    "province": "",
    "province_code": "",
    "community": "",
    "community_code": "",
    "latitude": "40.3777",
    "longitude": "49.892"
  },
  {
    "country_code": "AZ",
    "zipcode": "AZ 1158",
    "place": "Qobu Park",
    "state": "Baki",
    "state_code": "09",
    "province": "",
    "province_code": "",
    "community": "",
    "community_code": "",
    "latitude": "40.3777",
    "longitude": "49.892"
  },
  {
    "country_code": "AZ",
    "zipcode": "AZ 1170",
    "place": "Elet Liman Gomruk",
    "state": "Baki",
    "state_code": "09",
    "province": "",
    "province_code": "",
    "community": "",
    "community_code": "",
    "latitude": "40.3777",
    "longitude": "49.892"
  },
  {
    "country_code": "AZ",
    "zipcode": "AZ 0800",
    "place": "Balakən",
    "state": "Balakən",
    "state_code": "10",
    "province": "",
    "province_code": "",
    "community": "",
    "community_code": "",
    "latitude": "41.7263",
    "longitude": "46.4048"
  },
  {
    "country_code": "AZ",
    "zipcode": "AZ 0801",
    "place": "1 Sayli",
    "state": "Balakən",
    "state_code": "10",
    "province": "",
    "province_code": "",
    "community": "",
    "community_code": "",
    "latitude": "41.7263",
    "longitude": "46.4048"
  },
  {
    "country_code": "AZ",
    "zipcode": "AZ 0811",
    "place": "Gərəkli",
    "state": "Balakən",
    "state_code": "10",
    "province": "",
    "province_code": "",
    "community": "",
    "community_code": "",
    "latitude": "41.7618",
    "longitude": "46.3274"
  },
  {
    "country_code": "AZ",
    "zipcode": "AZ 0812",
    "place": "Hənifə",
    "state": "Balakən",
    "state_code": "10",
    "province": "",
    "province_code": "",
    "community": "",
    "community_code": "",
    "latitude": "41.7128",
    "longitude": "46.4073"
  },
  {
    "country_code": "AZ",
    "zipcode": "AZ 0814",
    "place": "Ititala",
    "state": "Balakən",
    "state_code": "10",
    "province": "",
    "province_code": "",
    "community": "",
    "community_code": "",
    "latitude": "41.5813",
    "longitude": "46.3673"
  },
  {
    "country_code": "AZ",
    "zipcode": "AZ 0815",
    "place": "Katex",
    "state": "Balakən",
    "state_code": "10",
    "province": "",
    "province_code": "",
    "community": "",
    "community_code": "",
    "latitude": "41.656",
    "longitude": "46.5516"
  },
  {
    "country_code": "AZ",
    "zipcode": "AZ 0816",
    "place": "Qabaqçöl",
    "state": "Balakən",
    "state_code": "10",
    "province": "",
    "province_code": "",
    "community": "",
    "community_code": "",
    "latitude": "41.7526",
    "longitude": "46.2705"
  },
  {
    "country_code": "AZ",
    "zipcode": "AZ 0817",
    "place": "Kortala",
    "state": "Balakən",
    "state_code": "10",
    "province": "",
    "province_code": "",
    "community": "",
    "community_code": "",
    "latitude": "41.6148",
    "longitude": "46.3818"
  },
  {
    "country_code": "AZ",
    "zipcode": "AZ 0818",
    "place": "Püştətala",
    "state": "Balakən",
    "state_code": "10",
    "province": "",
    "province_code": "",
    "community": "",
    "community_code": "",
    "latitude": "41.6285",
    "longitude": "46.4141"
  },
  {
    "country_code": "AZ",
    "zipcode": "AZ 0820",
    "place": "Qazma",
    "state": "Balakən",
    "state_code": "10",
    "province": "",
    "province_code": "",
    "community": "",
    "community_code": "",
    "latitude": "41.6942",
    "longitude": "46.386"
  },
  {
    "country_code": "AZ",
    "zipcode": "AZ 0821",
    "place": "Qazbinə",
    "state": "Balakən",
    "state_code": "10",
    "province": "",
    "province_code": "",
    "community": "",
    "community_code": "",
    "latitude": "41.7121",
    "longitude": "46.3412"
  },
  {
    "country_code": "AZ",
    "zipcode": "AZ 0822",
    "place": "Qullar",
    "state": "Balakən",
    "state_code": "10",
    "province": "",
    "province_code": "",
    "community": "",
    "community_code": "",
    "latitude": "41.7312",
    "longitude": "46.4328"
  },
  {
    "country_code": "AZ",
    "zipcode": "AZ 0823",
    "place": "Mahamalar",
    "state": "Balakən",
    "state_code": "10",
    "province": "",
    "province_code": "",
    "community": "",
    "community_code": "",
    "latitude": "41.7366",
    "longitude": "46.4141"
  },
  {
    "country_code": "AZ",
    "zipcode": "AZ 0824",
    "place": "Meşəşambul",
    "state": "Balakən",
    "state_code": "10",
    "province": "",
    "province_code": "",
    "community": "",
    "community_code": "",
    "latitude": "41.7129",
    "longitude": "46.2905"
  },
  {
    "country_code": "AZ",
    "zipcode": "AZ 0826",
    "place": "Saribulaq",
    "state": "Balakən",
    "state_code": "10",
    "province": "",
    "province_code": "",
    "community": "",
    "community_code": "",
    "latitude": "41.679",
    "longitude": "46.3025"
  },
  {
    "country_code": "AZ",
    "zipcode": "AZ 0827",
    "place": "Şambul",
    "state": "Balakən",
    "state_code": "10",
    "province": "",
    "province_code": "",
    "community": "",
    "community_code": "",
    "latitude": "41.6921",
    "longitude": "46.272"
  },
  {
    "country_code": "AZ",
    "zipcode": "AZ 0828",
    "place": "Şərif",
    "state": "Balakən",
    "state_code": "10",
    "province": "",
    "province_code": "",
    "community": "",
    "community_code": "",
    "latitude": "41.7379",
    "longitude": "46.2559"
  },
  {
    "country_code": "AZ",
    "zipcode": "AZ 0829",
    "place": "Talalar",
    "state": "Balakən",
    "state_code": "10",
    "province": "",
    "province_code": "",
    "community": "",
    "community_code": "",
    "latitude": "41.7132",
    "longitude": "46.3763"
  },
  {
    "country_code": "AZ",
    "zipcode": "AZ 0830",
    "place": "Tülü",
    "state": "Balakən",
    "state_code": "10",
    "province": "",
    "province_code": "",
    "community": "",
    "community_code": "",
    "latitude": "41.7272",
    "longitude": "46.3698"
  },
  {
    "country_code": "AZ",
    "zipcode": "AZ 0831",
    "place": "Yeni Şərif",
    "state": "Balakən",
    "state_code": "10",
    "province": "",
    "province_code": "",
    "community": "",
    "community_code": "",
    "latitude": "41.7379",
    "longitude": "46.2559"
  },
  {
    "country_code": "AZ",
    "zipcode": "AZ 0833",
    "place": "Mazimçay (Dgk)",
    "state": "Balakən",
    "state_code": "10",
    "province": "",
    "province_code": "",
    "community": "",
    "community_code": "",
    "latitude": "41.7325",
    "longitude": "46.3129"
  },
  {
    "country_code": "AZ",
    "zipcode": "AZ 0900",
    "place": "Bərdə",
    "state": "Bərdə",
    "state_code": "11",
    "province": "",
    "province_code": "",
    "community": "",
    "community_code": "",
    "latitude": "40.3758",
    "longitude": "47.1262"
  },
  {
    "country_code": "AZ",
    "zipcode": "AZ 0901",
    "place": "Bərdə-1 ",
    "state": "Bərdə",
    "state_code": "11",
    "province": "",
    "province_code": "",
    "community": "",
    "community_code": "",
    "latitude": "40.3758",
    "longitude": "47.1262"
  },
  {
    "country_code": "AZ",
    "zipcode": "AZ 0902",
    "place": "Bərdə-2",
    "state": "Bərdə",
    "state_code": "11",
    "province": "",
    "province_code": "",
    "community": "",
    "community_code": "",
    "latitude": "40.3758",
    "longitude": "47.1262"
  },
  {
    "country_code": "AZ",
    "zipcode": "AZ 0911",
    "place": "Alpout",
    "state": "Bərdə",
    "state_code": "11",
    "province": "",
    "province_code": "",
    "community": "",
    "community_code": "",
    "latitude": "40.3242",
    "longitude": "47.2019"
  },
  {
    "country_code": "AZ",
    "zipcode": "AZ 0912",
    "place": "Bərdə St",
    "state": "Bərdə",
    "state_code": "11",
    "province": "",
    "province_code": "",
    "community": "",
    "community_code": "",
    "latitude": "40.4064",
    "longitude": "47.1376"
  },
  {
    "country_code": "AZ",
    "zipcode": "AZ 0913",
    "place": "Böyük Göyüşlü",
    "state": "Bərdə",
    "state_code": "11",
    "province": "",
    "province_code": "",
    "community": "",
    "community_code": "",
    "latitude": "40.3453",
    "longitude": "47.2252"
  },
  {
    "country_code": "AZ",
    "zipcode": "AZ 0914",
    "place": "Qazaxlar",
    "state": "Bərdə",
    "state_code": "11",
    "province": "",
    "province_code": "",
    "community": "",
    "community_code": "",
    "latitude": "40.4197",
    "longitude": "47.0234"
  },
  {
    "country_code": "AZ",
    "zipcode": "AZ 0915",
    "place": "Yeni Əyriçə",
    "state": "Bərdə",
    "state_code": "11",
    "province": "",
    "province_code": "",
    "community": "",
    "community_code": "",
    "latitude": "40.4268",
    "longitude": "47.2338"
  },
  {
    "country_code": "AZ",
    "zipcode": "AZ 0918",
    "place": "Hacalli",
    "state": "Bərdə",
    "state_code": "11",
    "province": "",
    "province_code": "",
    "community": "",
    "community_code": "",
    "latitude": "40.4781",
    "longitude": "47.0623"
  },
  {
    "country_code": "AZ",
    "zipcode": "AZ 0919",
    "place": "Həsənqaya",
    "state": "Bərdə",
    "state_code": "11",
    "province": "",
    "province_code": "",
    "community": "",
    "community_code": "",
    "latitude": "40.4442",
    "longitude": "47.079"
  },
  {
    "country_code": "AZ",
    "zipcode": "AZ 0922",
    "place": "Kətəlparaq",
    "state": "Bərdə",
    "state_code": "11",
    "province": "",
    "province_code": "",
    "community": "",
    "community_code": "",
    "latitude": "40.2826",
    "longitude": "47.1146"
  },
  {
    "country_code": "AZ",
    "zipcode": "AZ 0924",
    "place": "Qaradəmirçi",
    "state": "Bərdə",
    "state_code": "11",
    "province": "",
    "province_code": "",
    "community": "",
    "community_code": "",
    "latitude": "40.3161",
    "longitude": "47.1701"
  },
  {
    "country_code": "AZ",
    "zipcode": "AZ 0925",
    "place": "Qaraqirnaq",
    "state": "Bərdə",
    "state_code": "11",
    "province": "",
    "province_code": "",
    "community": "",
    "community_code": "",
    "latitude": "40.3161",
    "longitude": "47.1701"
  },
  {
    "country_code": "AZ",
    "zipcode": "AZ 0927",
    "place": "Lənbəran",
    "state": "Bərdə",
    "state_code": "11",
    "province": "",
    "province_code": "",
    "community": "",
    "community_code": "",
    "latitude": "40.2191",
    "longitude": "47.3124"
  },
  {
    "country_code": "AZ",
    "zipcode": "AZ 0928",
    "place": "Mehdixanli",
    "state": "Bərdə",
    "state_code": "11",
    "province": "",
    "province_code": "",
    "community": "",
    "community_code": "",
    "latitude": "40.4826",
    "longitude": "47.0516"
  },
  {
    "country_code": "AZ",
    "zipcode": "AZ 0929",
    "place": "Mehdili",
    "state": "Bərdə",
    "state_code": "11",
    "province": "",
    "province_code": "",
    "community": "",
    "community_code": "",
    "latitude": "40.2803",
    "longitude": "47.2017"
  },
  {
    "country_code": "AZ",
    "zipcode": "AZ 0931",
    "place": "Mirzəcəfərli",
    "state": "Bərdə",
    "state_code": "11",
    "province": "",
    "province_code": "",
    "community": "",
    "community_code": "",
    "latitude": "40.4733",
    "longitude": "47.1629"
  },
  {
    "country_code": "AZ",
    "zipcode": "AZ 0933",
    "place": "Mirzəlibəyli",
    "state": "Bərdə",
    "state_code": "11",
    "province": "",
    "province_code": "",
    "community": "",
    "community_code": "",
    "latitude": "40.5415",
    "longitude": "46.9371"
  },
  {
    "country_code": "AZ",
    "zipcode": "AZ 0937",
    "place": "Otuzikilər",
    "state": "Bərdə",
    "state_code": "11",
    "province": "",
    "province_code": "",
    "community": "",
    "community_code": "",
    "latitude": "40.3864",
    "longitude": "47.2397"
  },
  {
    "country_code": "AZ",
    "zipcode": "AZ 0938",
    "place": "Samux",
    "state": "Bərdə",
    "state_code": "11",
    "province": "",
    "province_code": "",
    "community": "",
    "community_code": "",
    "latitude": "40.7649",
    "longitude": "46.4087"
  },
  {
    "country_code": "AZ",
    "zipcode": "AZ 0942",
    "place": "Şirvanli",
    "state": "Bərdə",
    "state_code": "11",
    "province": "",
    "province_code": "",
    "community": "",
    "community_code": "",
    "latitude": "40.3238",
    "longitude": "47.1275"
  },
  {
    "country_code": "AZ",
    "zipcode": "AZ 0943",
    "place": "Yenidaşkənd",
    "state": "Bərdə",
    "state_code": "11",
    "province": "",
    "province_code": "",
    "community": "",
    "community_code": "",
    "latitude": "40.3238",
    "longitude": "47.1275"
  },
  {
    "country_code": "AZ",
    "zipcode": "AZ 1200",
    "place": "Beyləqan",
    "state": "Beyləqan",
    "state_code": "12",
    "province": "",
    "province_code": "",
    "community": "",
    "community_code": "",
    "latitude": "39.7756",
    "longitude": "47.6186"
  },
  {
    "country_code": "AZ",
    "zipcode": "AZ 1211",
    "place": "Aşaği Çəmənli",
    "state": "Beyləqan",
    "state_code": "12",
    "province": "",
    "province_code": "",
    "community": "",
    "community_code": "",
    "latitude": "39.6848",
    "longitude": "47.8153"
  },
  {
    "country_code": "AZ",
    "zipcode": "AZ 1213",
    "place": "Binnətli",
    "state": "Beyləqan",
    "state_code": "12",
    "province": "",
    "province_code": "",
    "community": "",
    "community_code": "",
    "latitude": "39.7627",
    "longitude": "47.6959"
  },
  {
    "country_code": "AZ",
    "zipcode": "AZ 1214",
    "place": "Allahyarli",
    "state": "Beyləqan",
    "state_code": "12",
    "province": "",
    "province_code": "",
    "community": "",
    "community_code": "",
    "latitude": "39.7225",
    "longitude": "47.5725"
  },
  {
    "country_code": "AZ",
    "zipcode": "AZ 1215",
    "place": "Aşiqli-1",
    "state": "Beyləqan",
    "state_code": "12",
    "province": "",
    "province_code": "",
    "community": "",
    "community_code": "",
    "latitude": "39.7627",
    "longitude": "47.6959"
  },
  {
    "country_code": "AZ",
    "zipcode": "AZ 1216",
    "place": "Daşburun",
    "state": "Beyləqan",
    "state_code": "12",
    "province": "",
    "province_code": "",
    "community": "",
    "community_code": "",
    "latitude": "39.7627",
    "longitude": "47.6959"
  },
  {
    "country_code": "AZ",
    "zipcode": "AZ 1217",
    "place": "Dünyamallar",
    "state": "Beyləqan",
    "state_code": "12",
    "province": "",
    "province_code": "",
    "community": "",
    "community_code": "",
    "latitude": "39.7728",
    "longitude": "47.7589"
  },
  {
    "country_code": "AZ",
    "zipcode": "AZ 1218",
    "place": "Eyvazallar",
    "state": "Beyləqan",
    "state_code": "12",
    "province": "",
    "province_code": "",
    "community": "",
    "community_code": "",
    "latitude": "39.8705",
    "longitude": "47.637"
  },
  {
    "country_code": "AZ",
    "zipcode": "AZ 1219",
    "place": "Əlinəzərli",
    "state": "Beyləqan",
    "state_code": "12",
    "province": "",
    "province_code": "",
    "community": "",
    "community_code": "",
    "latitude": "39.7627",
    "longitude": "47.6959"
  },
  {
    "country_code": "AZ",
    "zipcode": "AZ 1220",
    "place": "Xalaç",
    "state": "Beyləqan",
    "state_code": "12",
    "province": "",
    "province_code": "",
    "community": "",
    "community_code": "",
    "latitude": "39.808",
    "longitude": "47.5591"
  },
  {
    "country_code": "AZ",
    "zipcode": "AZ 1222",
    "place": "Kəbirli",
    "state": "Beyləqan",
    "state_code": "12",
    "province": "",
    "province_code": "",
    "community": "",
    "community_code": "",
    "latitude": "39.8519",
    "longitude": "47.5344"
  },
  {
    "country_code": "AZ",
    "zipcode": "AZ 1223",
    "place": "Qarallar",
    "state": "Beyləqan",
    "state_code": "12",
    "province": "",
    "province_code": "",
    "community": "",
    "community_code": "",
    "latitude": "39.808",
    "longitude": "47.5591"
  },
  {
    "country_code": "AZ",
    "zipcode": "AZ 1224",
    "place": "Qəhrəmanli",
    "state": "Beyləqan",
    "state_code": "12",
    "province": "",
    "province_code": "",
    "community": "",
    "community_code": "",
    "latitude": "39.808",
    "longitude": "47.5591"
  },
  {
    "country_code": "AZ",
    "zipcode": "AZ 1225",
    "place": "Mil-2",
    "state": "Beyləqan",
    "state_code": "12",
    "province": "",
    "province_code": "",
    "community": "",
    "community_code": "",
    "latitude": "39.808",
    "longitude": "47.5591"
  },
  {
    "country_code": "AZ",
    "zipcode": "AZ 1226",
    "place": "Milabad",
    "state": "Beyləqan",
    "state_code": "12",
    "province": "",
    "province_code": "",
    "community": "",
    "community_code": "",
    "latitude": "39.6863",
    "longitude": "47.645"
  },
  {
    "country_code": "AZ",
    "zipcode": "AZ 1227",
    "place": "Örənqala",
    "state": "Beyləqan",
    "state_code": "12",
    "province": "",
    "province_code": "",
    "community": "",
    "community_code": "",
    "latitude": "39.8858",
    "longitude": "47.4978"
  },
  {
    "country_code": "AZ",
    "zipcode": "AZ 1228",
    "place": "Şahsevən-2",
    "state": "Beyləqan",
    "state_code": "12",
    "province": "",
    "province_code": "",
    "community": "",
    "community_code": "",
    "latitude": "39.808",
    "longitude": "47.5591"
  },
  {
    "country_code": "AZ",
    "zipcode": "AZ 1230",
    "place": "Tatallar",
    "state": "Beyləqan",
    "state_code": "12",
    "province": "",
    "province_code": "",
    "community": "",
    "community_code": "",
    "latitude": "39.7403",
    "longitude": "47.68"
  },
  {
    "country_code": "AZ",
    "zipcode": "AZ 1232",
    "place": "Yuxari Aran",
    "state": "Beyləqan",
    "state_code": "12",
    "province": "",
    "province_code": "",
    "community": "",
    "community_code": "",
    "latitude": "39.7327",
    "longitude": "47.6576"
  },
  {
    "country_code": "AZ",
    "zipcode": "AZ 1234",
    "place": "Yuxari Çəmənli",
    "state": "Beyləqan",
    "state_code": "12",
    "province": "",
    "province_code": "",
    "community": "",
    "community_code": "",
    "latitude": "39.6725",
    "longitude": "47.7938"
  },
  {
    "country_code": "AZ",
    "zipcode": "AZ 1236",
    "place": "Təzəkənd",
    "state": "Beyləqan",
    "state_code": "12",
    "province": "",
    "province_code": "",
    "community": "",
    "community_code": "",
    "latitude": "39.8156",
    "longitude": "47.5886"
  },
  {
    "country_code": "AZ",
    "zipcode": "AZ 1300",
    "place": "Biləsuvar",
    "state": "Biləsuvar",
    "state_code": "13",
    "province": "",
    "province_code": "",
    "community": "",
    "community_code": "",
    "latitude": "39.5868",
    "longitude": "48.54"
  },
  {
    "country_code": "AZ",
    "zipcode": "AZ 1301",
    "place": "1 Sayli",
    "state": "Biləsuvar",
    "state_code": "13",
    "province": "",
    "province_code": "",
    "community": "",
    "community_code": "",
    "latitude": "39.5868",
    "longitude": "48.54"
  },
  {
    "country_code": "AZ",
    "zipcode": "AZ 1311",
    "place": "Ağalikənd",
    "state": "Biləsuvar",
    "state_code": "13",
    "province": "",
    "province_code": "",
    "community": "",
    "community_code": "",
    "latitude": "39.4275",
    "longitude": "48.4541"
  },
  {
    "country_code": "AZ",
    "zipcode": "AZ 1312",
    "place": "Bağbanlar",
    "state": "Biləsuvar",
    "state_code": "13",
    "province": "",
    "province_code": "",
    "community": "",
    "community_code": "",
    "latitude": "39.4921",
    "longitude": "48.5627"
  },
  {
    "country_code": "AZ",
    "zipcode": "AZ 1313",
    "place": "Aşaği Cürəli",
    "state": "Biləsuvar",
    "state_code": "13",
    "province": "",
    "province_code": "",
    "community": "",
    "community_code": "",
    "latitude": "39.479",
    "longitude": "48.5086"
  },
  {
    "country_code": "AZ",
    "zipcode": "AZ 1316",
    "place": "Əsgərabad",
    "state": "Biləsuvar",
    "state_code": "13",
    "province": "",
    "province_code": "",
    "community": "",
    "community_code": "",
    "latitude": "39.4308",
    "longitude": "48.5718"
  },
  {
    "country_code": "AZ",
    "zipcode": "AZ 1317",
    "place": "Xirmandali",
    "state": "Biləsuvar",
    "state_code": "13",
    "province": "",
    "province_code": "",
    "community": "",
    "community_code": "",
    "latitude": "39.4511",
    "longitude": "48.6075"
  },
  {
    "country_code": "AZ",
    "zipcode": "AZ 1318",
    "place": "Ismətli",
    "state": "Biləsuvar",
    "state_code": "13",
    "province": "",
    "province_code": "",
    "community": "",
    "community_code": "",
    "latitude": "39.5303",
    "longitude": "48.5301"
  },
  {
    "country_code": "AZ",
    "zipcode": "AZ 1319",
    "place": "Səmədabad",
    "state": "Biləsuvar",
    "state_code": "13",
    "province": "",
    "province_code": "",
    "community": "",
    "community_code": "",
    "latitude": "39.5421",
    "longitude": "48.3253"
  },
  {
    "country_code": "AZ",
    "zipcode": "AZ 1320",
    "place": "Nəsimikənd",
    "state": "Biləsuvar",
    "state_code": "13",
    "province": "",
    "province_code": "",
    "community": "",
    "community_code": "",
    "latitude": "39.8385",
    "longitude": "48.6133"
  },
  {
    "country_code": "AZ",
    "zipcode": "AZ 1323",
    "place": "Dövrüşlü",
    "state": "Biləsuvar",
    "state_code": "13",
    "province": "",
    "province_code": "",
    "community": "",
    "community_code": "",
    "latitude": "39.8385",
    "longitude": "48.6133"
  },
  {
    "country_code": "AZ",
    "zipcode": "AZ 1325",
    "place": "Qoşatəpə Gömrük (Dgk)",
    "state": "Biləsuvar",
    "state_code": "13",
    "province": "",
    "province_code": "",
    "community": "",
    "community_code": "",
    "latitude": "39.8385",
    "longitude": "48.6133"
  },
  {
    "country_code": "AZ",
    "zipcode": "AZ 1500",
    "place": "Cəlilabad",
    "state": "Cəlilabad",
    "state_code": "15",
    "province": "",
    "province_code": "",
    "community": "",
    "community_code": "",
    "latitude": "39.2096",
    "longitude": "48.4919"
  },
  {
    "country_code": "AZ",
    "zipcode": "AZ 1501",
    "place": "1 Sayli",
    "state": "Cəlilabad",
    "state_code": "15",
    "province": "",
    "province_code": "",
    "community": "",
    "community_code": "",
    "latitude": "39.2096",
    "longitude": "48.4919"
  },
  {
    "country_code": "AZ",
    "zipcode": "AZ 1502",
    "place": "2 Sayli",
    "state": "Cəlilabad",
    "state_code": "15",
    "province": "",
    "province_code": "",
    "community": "",
    "community_code": "",
    "latitude": "39.2096",
    "longitude": "48.4919"
  },
  {
    "country_code": "AZ",
    "zipcode": "AZ 1511",
    "place": "Ağdaş",
    "state": "Cəlilabad",
    "state_code": "15",
    "province": "",
    "province_code": "",
    "community": "",
    "community_code": "",
    "latitude": "39.1181",
    "longitude": "48.4961"
  },
  {
    "country_code": "AZ",
    "zipcode": "AZ 1512",
    "place": "Alar",
    "state": "Cəlilabad",
    "state_code": "15",
    "province": "",
    "province_code": "",
    "community": "",
    "community_code": "",
    "latitude": "39.3164",
    "longitude": "48.5349"
  },
  {
    "country_code": "AZ",
    "zipcode": "AZ 1513",
    "place": "Cəngan",
    "state": "Cəlilabad",
    "state_code": "15",
    "province": "",
    "province_code": "",
    "community": "",
    "community_code": "",
    "latitude": "39.1827",
    "longitude": "48.3233"
  },
  {
    "country_code": "AZ",
    "zipcode": "AZ 1514",
    "place": "Göytəpə",
    "state": "Cəlilabad",
    "state_code": "15",
    "province": "",
    "province_code": "",
    "community": "",
    "community_code": "",
    "latitude": "39.12",
    "longitude": "48.5938"
  },
  {
    "country_code": "AZ",
    "zipcode": "AZ 1516",
    "place": "Günəşli",
    "state": "Cəlilabad",
    "state_code": "15",
    "province": "",
    "province_code": "",
    "community": "",
    "community_code": "",
    "latitude": "39.2877",
    "longitude": "48.5703"
  },
  {
    "country_code": "AZ",
    "zipcode": "AZ 1517",
    "place": "Hamarqişlaq",
    "state": "Cəlilabad",
    "state_code": "15",
    "province": "",
    "province_code": "",
    "community": "",
    "community_code": "",
    "latitude": "39.1694",
    "longitude": "48.4692"
  },
  {
    "country_code": "AZ",
    "zipcode": "AZ 1518",
    "place": "Xənagah",
    "state": "Cəlilabad",
    "state_code": "15",
    "province": "",
    "province_code": "",
    "community": "",
    "community_code": "",
    "latitude": "39.1827",
    "longitude": "48.5055"
  },
  {
    "country_code": "AZ",
    "zipcode": "AZ 1519",
    "place": "Komanli",
    "state": "Cəlilabad",
    "state_code": "15",
    "province": "",
    "province_code": "",
    "community": "",
    "community_code": "",
    "latitude": "39.0846",
    "longitude": "48.5508"
  },