[
  {
    "country_code": "MD",
    "zipcode": "MD-2000",
    "place": "Chisinau",
    "state": "Mun.Chisinau",
    "state_code": "",
    "province": "",
    "province_code": "",
    "community": "",
    "community_code": "",
    "latitude": "47.0056",
    "longitude": "28.8575"
  },
  {
    "country_code": "MD",
    "zipcode": "MD-2003",
    "place": "Durlesti",
    "state": "Mun.Chisinau",
    "state_code": "",
    "province": "",
    "province_code": "",
    "community": "",
    "community_code": "",
    "latitude": "47.0178",
    "longitude": "28.7625"
  },
  {
    "country_code": "MD",
    "zipcode": "MD-2011",
    "place": "Codru",
    "state": "Mun.Chisinau",
    "state_code": "",
    "province": "",
    "province_code": "",
    "community": "",
    "community_code": "",
    "latitude": "46.9753",
    "longitude": "28.8194"
  },
  {
    "country_code": "MD",
    "zipcode": "MD-2046",
    "place": "Vadul Lui Voda",
    "state": "Mun.Chisinau",
    "state_code": "",
    "province": "",
    "province_code": "",
    "community": "",
    "community_code": "",
    "latitude": "47.0917",
    "longitude": "29.0756"
  },
  {
    "country_code": "MD",
    "zipcode": "MD-2055",
    "place": "Vatra",
    "state": "Mun.Chisinau",
    "state_code": "",
    "province": "",
    "province_code": "",
    "community": "",
    "community_code": "",
    "latitude": "47.0739",
    "longitude": "28.735"
  },
  {
    "country_code": "MD",
    "zipcode": "MD-2071",
    "place": "Bumbrava",
    "state": "Mun.Chisinau",
    "state_code": "",
    "province": "",
    "province_code": "",
    "community": "",
    "community_code": "",
    "latitude": "47.0443",
    "longitude": "28.7651"
  },
  {
    "country_code": "MD",
    "zipcode": "MD-2081",
    "place": "Humulesti",
    "state": "Mun.Chisinau",
    "state_code": "",
    "province": "",
    "province_code": "",
    "community": "",
    "community_code": "",
    "latitude": "46.9975",
    "longitude": "28.9764"
  },
  {
    "country_code": "MD",
    "zipcode": "MD-2081",
    "place": "Bic",
    "state": "Mun.Chisinau",
    "state_code": "",
    "province": "",
    "province_code": "",
    "community": "",
    "community_code": "",
    "latitude": "46.9567",
    "longitude": "28.9422"
  },
  {
    "country_code": "MD",
    "zipcode": "MD-2081",
    "place": "Bubuieci",
    "state": "Mun.Chisinau",
    "state_code": "",
    "province": "",
    "province_code": "",
    "community": "",
    "community_code": "",
    "latitude": "46.985",
    "longitude": "28.9422"
  },
  {
    "country_code": "MD",
    "zipcode": "MD-2082",
    "place": "Colonita",
    "state": "Mun.Chisinau",
    "state_code": "",
    "province": "",
    "province_code": "",
    "community": "",
    "community_code": "",
    "latitude": "47.0378",
    "longitude": "28.9583"
  },
  {
    "country_code": "MD",
    "zipcode": "MD-2083",
    "place": "Condrita",
    "state": "Mun.Chisinau",
    "state_code": "",
    "province": "",
    "province_code": "",
    "community": "",
    "community_code": "",
    "latitude": "47.0567",
    "longitude": "28.5686"
  },
  {
    "country_code": "MD",
    "zipcode": "MD-2084",
    "place": "Cricova",
    "state": "Mun.Chisinau",
    "state_code": "",
    "province": "",
    "province_code": "",
    "community": "",
    "community_code": "",
    "latitude": "47.1389",
    "longitude": "28.8619"
  },
  {
    "country_code": "MD",
    "zipcode": "MD-2085",
    "place": "Cruzesti",
    "state": "Mun.Chisinau",
    "state_code": "",
    "province": "",
    "province_code": "",
    "community": "",
    "community_code": "",
    "latitude": "47.0847",
    "longitude": "28.9736"
  },
  {
    "country_code": "MD",
    "zipcode": "MD-2085",
    "place": "Ceroborta",
    "state": "Mun.Chisinau",
    "state_code": "",
    "province": "",
    "province_code": "",
    "community": "",
    "community_code": "",
    "latitude": "47.0936",
    "longitude": "28.9517"
  },
  {
    "country_code": "MD",
    "zipcode": "MD-2086",
    "place": "Dobrogea",
    "state": "Mun.Chisinau",
    "state_code": "",
    "province": "",
    "province_code": "",
    "community": "",
    "community_code": "",
    "latitude": "46.8844",
    "longitude": "28.9892"
  },
  {
    "country_code": "MD",
    "zipcode": "MD-2088",
    "place": "Ghidighici",
    "state": "Mun.Chisinau",
    "state_code": "",
    "province": "",
    "province_code": "",
    "community": "",
    "community_code": "",
    "latitude": "47.0931",
    "longitude": "28.7686"
  },
  {
    "country_code": "MD",
    "zipcode": "MD-2089",
    "place": "Fauresti",
    "state": "Mun.Chisinau",
    "state_code": "",
    "province": "",
    "province_code": "",
    "community": "",
    "community_code": "",
    "latitude": "47.145",
    "longitude": "28.8961"
  },
  {
    "country_code": "MD",
    "zipcode": "MD-2089",
    "place": "Ciorescu",
    "state": "Mun.Chisinau",
    "state_code": "",
    "province": "",
    "province_code": "",
    "community": "",
    "community_code": "",
    "latitude": "47.1294",
    "longitude": "28.8856"
  },
  {
    "country_code": "MD",
    "zipcode": "MD-2089",
    "place": "Goian",
    "state": "Mun.Chisinau",
    "state_code": "",
    "province": "",
    "province_code": "",
    "community": "",
    "community_code": "",
    "latitude": "47.1336",
    "longitude": "28.9072"
  },
  {
    "country_code": "MD",
    "zipcode": "MD-2091",
    "place": "Revaca",
    "state": "Mun.Chisinau",
    "state_code": "",
    "province": "",
    "province_code": "",
    "community": "",
    "community_code": "",
    "latitude": "46.9086",
    "longitude": "28.9447"
  },
  {
    "country_code": "MD",
    "zipcode": "MD-2091",
    "place": "Singera",
    "state": "Mun.Chisinau",
    "state_code": "",
    "province": "",
    "province_code": "",
    "community": "",
    "community_code": "",
    "latitude": "46.9131",
    "longitude": "28.9775"
  },
  {
    "country_code": "MD",
    "zipcode": "MD-2092",
    "place": "Buneti",
    "state": "Mun.Chisinau",
    "state_code": "",
    "province": "",
    "province_code": "",
    "community": "",
    "community_code": "",
    "latitude": "47.0806",
    "longitude": "28.91"
  },
  {
    "country_code": "MD",
    "zipcode": "MD-2092",
    "place": "Cheltuitori",
    "state": "Mun.Chisinau",
    "state_code": "",
    "province": "",
    "province_code": "",
    "community": "",
    "community_code": "",
    "latitude": "47.0661",
    "longitude": "28.9211"
  },
  {
    "country_code": "MD",
    "zipcode": "MD-2092",
    "place": "Tohatin",
    "state": "Mun.Chisinau",
    "state_code": "",
    "province": "",
    "province_code": "",
    "community": "",
    "community_code": "",
    "latitude": "47.0625",
    "longitude": "28.9453"
  },
  {
    "country_code": "MD",
    "zipcode": "MD-2093",
    "place": "Gratiesti",
    "state": "Mun.Chisinau",
    "state_code": "",
    "province": "",
    "province_code": "",
    "community": "",
    "community_code": "",
    "latitude": "47.0992",
    "longitude": "28.8167"
  },
  {
    "country_code": "MD",
    "zipcode": "MD-2093",
    "place": "Hulboaca",
    "state": "Mun.Chisinau",
    "state_code": "",
    "province": "",
    "province_code": "",
    "community": "",
    "community_code": "",
    "latitude": "47.1161",
    "longitude": "28.7972"
  },
  {
    "country_code": "MD",
    "zipcode": "MD-3004",
    "place": "Soroca 4",
    "state": "Soroca",
    "state_code": "",
    "province": "",
    "province_code": "",
    "community": "",
    "community_code": "",
    "latitude": "48.1558",
    "longitude": "28.2975"
  },
  {
    "country_code": "MD",
    "zipcode": "MD-3005",
    "place": "Soroca 5",
    "state": "Soroca",
    "state_code": "",
    "province": "",
    "province_code": "",
    "community": "",
    "community_code": "",
    "latitude": "48.1558",
    "longitude": "28.2975"
  },
  {
    "country_code": "MD",
    "zipcode": "MD-3006",
    "place": "Soroca 6",
    "state": "Soroca",
    "state_code": "",
    "province": "",
    "province_code": "",
    "community": "",
    "community_code": "",
    "latitude": "48.1558",
    "longitude": "28.2975"
  },
  {
    "country_code": "MD",
    "zipcode": "MD-3011",
    "place": "Badiceni",
    "state": "Soroca",
    "state_code": "",
    "province": "",
    "province_code": "",
    "community": "",
    "community_code": "",
    "latitude": "48.2033",
    "longitude": "28.0544"
  },
  {
    "country_code": "MD",
    "zipcode": "MD-3012",
    "place": "Baxani",
    "state": "Soroca",
    "state_code": "",
    "province": "",
    "province_code": "",
    "community": "",
    "community_code": "",
    "latitude": "48.1239",
    "longitude": "28.0947"
  },
  {
    "country_code": "MD",
    "zipcode": "MD-3013",
    "place": "Balintii Noi",
    "state": "Soroca",
    "state_code": "",
    "province": "",
    "province_code": "",
    "community": "",
    "community_code": "",
    "latitude": "48.3206",
    "longitude": "28.0236"
  },
  {
    "country_code": "MD",
    "zipcode": "MD-3013",
    "place": "Balinti",
    "state": "Soroca",
    "state_code": "",
    "province": "",
    "province_code": "",
    "community": "",
    "community_code": "",
    "latitude": "48.3206",
    "longitude": "28.0236"
  },
  {
    "country_code": "MD",
    "zipcode": "MD-3014",
    "place": "Bulbocii Noi",
    "state": "Soroca",
    "state_code": "",
    "province": "",
    "province_code": "",
    "community": "",
    "community_code": "",
    "latitude": "48.0603",
    "longitude": "28.1186"
  },
  {
    "country_code": "MD",
    "zipcode": "MD-3014",
    "place": "Bulboci",
    "state": "Soroca",
    "state_code": "",
    "province": "",
    "province_code": "",
    "community": "",
    "community_code": "",
    "latitude": "48.0397",
    "longitude": "28.0839"
  },
  {
    "country_code": "MD",
    "zipcode": "MD-3015",
    "place": "Floriceni",
    "state": "Soroca",
    "state_code": "",
    "province": "",
    "province_code": "",
    "community": "",
    "community_code": "",
    "latitude": "48.0208",
    "longitude": "28.0164"
  },
  {
    "country_code": "MD",
    "zipcode": "MD-3015",
    "place": "Cainarii Vechi",
    "state": "Soroca",
    "state_code": "",
    "province": "",
    "province_code": "",
    "community": "",
    "community_code": "",
    "latitude": "48.0081",
    "longitude": "28.125"
  },
  {
    "country_code": "MD",
    "zipcode": "MD-3016",
    "place": "Cosauti",
    "state": "Soroca",
    "state_code": "",
    "province": "",
    "province_code": "",
    "community": "",
    "community_code": "",
    "latitude": "48.2289",
    "longitude": "28.2911"
  },
  {
    "country_code": "MD",
    "zipcode": "MD-3017",
    "place": "Curesnita",
    "state": "Soroca",
    "state_code": "",
    "province": "",
    "province_code": "",
    "community": "",
    "community_code": "",
    "latitude": "48.2278",
    "longitude": "28.1764"
  },
  {
    "country_code": "MD",
    "zipcode": "MD-3018",
    "place": "Darcauti",
    "state": "Soroca",
    "state_code": "",
    "province": "",
    "province_code": "",
    "community": "",
    "community_code": "",
    "latitude": "48.2278",
    "longitude": "27.9808"
  },
  {
    "country_code": "MD",
    "zipcode": "MD-3018",
    "place": "Malcauti",
    "state": "Soroca",
    "state_code": "",
    "province": "",
    "province_code": "",
    "community": "",
    "community_code": "",
    "latitude": "48.2139",
    "longitude": "27.9408"
  },
  {
    "country_code": "MD",
    "zipcode": "MD-3018",
    "place": "Darcautii Noi",
    "state": "Soroca",
    "state_code": "",
    "province": "",
    "province_code": "",
    "community": "",
    "community_code": "",
    "latitude": "48.2097",
    "longitude": "28.0019"
  },
  {
    "country_code": "MD",
    "zipcode": "MD-3019",
    "place": "Dubna",
    "state": "Soroca",
    "state_code": "",
    "province": "",
    "province_code": "",
    "community": "",
    "community_code": "",
    "latitude": "48.015",
    "longitude": "28.3153"
  },
  {
    "country_code": "MD",
    "zipcode": "MD-3020",
    "place": "Dumbraveni",
    "state": "Soroca",
    "state_code": "",
    "province": "",
    "province_code": "",
    "community": "",
    "community_code": "",
    "latitude": "48.0506",
    "longitude": "28.2281"
  },
  {
    "country_code": "MD",
    "zipcode": "MD-3021",
    "place": "Egoreni",
    "state": "Soroca",
    "state_code": "",
    "province": "",
    "province_code": "",
    "community": "",
    "community_code": "",
    "latitude": "48.2016",
    "longitude": "28.3595"
  },
  {
    "country_code": "MD",
    "zipcode": "MD-3022",
    "place": "Grigorauca",
    "state": "Soroca",
    "state_code": "",
    "province": "",
    "province_code": "",
    "community": "",
    "community_code": "",
    "latitude": "48.2078",
    "longitude": "28.0997"
  },
  {
    "country_code": "MD",
    "zipcode": "MD-3023",
    "place": "Holosnita",
    "state": "Soroca",
    "state_code": "",
    "province": "",
    "province_code": "",
    "community": "",
    "community_code": "",
    "latitude": "48.2475",
    "longitude": "28.1769"
  },
  {
    "country_code": "MD",
    "zipcode": "MD-3024",
    "place": "Hristici",
    "state": "Soroca",
    "state_code": "",
    "province": "",
    "province_code": "",
    "community": "",
    "community_code": "",
    "latitude": "48.1208",
    "longitude": "28.1839"
  },
  {
    "country_code": "MD",
    "zipcode": "MD-3025",
    "place": "Iarova",
    "state": "Soroca",
    "state_code": "",
    "province": "",
    "province_code": "",
    "community": "",
    "community_code": "",
    "latitude": "48.3197",
    "longitude": "28.0494"
  },
  {
    "country_code": "MD",
    "zipcode": "MD-3026",
    "place": "Iorjnita",
    "state": "Soroca",
    "state_code": "",
    "province": "",
    "province_code": "",
    "community": "",
    "community_code": "",
    "latitude": "48.1933",
    "longitude": "28.2178"
  },
  {
    "country_code": "MD",
    "zipcode": "MD-3027",
    "place": "Oclanda",
    "state": "Soroca",
    "state_code": "",
    "province": "",
    "province_code": "",
    "community": "",
    "community_code": "",
    "latitude": "48.2892",
    "longitude": "28.0603"
  },
  {
    "country_code": "MD",
    "zipcode": "MD-3028",
    "place": "Ocolina",
    "state": "Soroca",
    "state_code": "",
    "province": "",
    "province_code": "",
    "community": "",
    "community_code": "",
    "latitude": "48.1256",
    "longitude": "28.2631"
  },
  {
    "country_code": "MD",
    "zipcode": "MD-3029",
    "place": "Parcani",
    "state": "Soroca",
    "state_code": "",
    "province": "",
    "province_code": "",
    "community": "",
    "community_code": "",
    "latitude": "48.0619",
    "longitude": "28.2903"
  },
  {
    "country_code": "MD",
    "zipcode": "MD-3030",
    "place": "Pirlita",
    "state": "Soroca",
    "state_code": "",
    "province": "",
    "province_code": "",
    "community": "",
    "community_code": "",
    "latitude": "48.0758",
    "longitude": "28.21"
  },
  {
    "country_code": "MD",
    "zipcode": "MD-3030",
    "place": "Vantina",
    "state": "Soroca",
    "state_code": "",
    "province": "",
    "province_code": "",
    "community": "",
    "community_code": "",
    "latitude": "48.0967",
    "longitude": "28.1914"
  },
  {
    "country_code": "MD",
    "zipcode": "MD-3030",
    "place": "Vantina Mica",
    "state": "Soroca",
    "state_code": "",
    "province": "",
    "province_code": "",
    "community": "",
    "community_code": "",
    "latitude": "48.0862",
    "longitude": "28.2007"
  },
  {
    "country_code": "MD",
    "zipcode": "MD-3031",
    "place": "Racovat",
    "state": "Soroca",
    "state_code": "",
    "province": "",
    "province_code": "",
    "community": "",
    "community_code": "",
    "latitude": "48.0825",
    "longitude": "28.4061"
  },
  {
    "country_code": "MD",
    "zipcode": "MD-3032",
    "place": "Redi-Ceresnovat",
    "state": "Soroca",
    "state_code": "",
    "province": "",
    "province_code": "",
    "community": "",
    "community_code": "",
    "latitude": "48.0633",
    "longitude": "28.3175"
  },
  {
    "country_code": "MD",
    "zipcode": "MD-3033",
    "place": "Lugovoe",
    "state": "Soroca",
    "state_code": "",
    "province": "",
    "province_code": "",
    "community": "",
    "community_code": "",
    "latitude": "48.0703",
    "longitude": "28.1783"
  },
  {
    "country_code": "MD",
    "zipcode": "MD-3033",
    "place": "Regina Maria",
    "state": "Soroca",
    "state_code": "",
    "province": "",
    "province_code": "",
    "community": "",
    "community_code": "",
    "latitude": "48.0586",
    "longitude": "28.1408"
  },
  {
    "country_code": "MD",
    "zipcode": "MD-3034",
    "place": "Rublenita Noua",
    "state": "Soroca",
    "state_code": "",
    "province": "",
    "province_code": "",
    "community": "",
    "community_code": "",
    "latitude": "48.1536",
    "longitude": "28.1347"
  },
  {
    "country_code": "MD",
    "zipcode": "MD-3034",
    "place": "Rublenita",
    "state": "Soroca",
    "state_code": "",
    "province": "",
    "province_code": "",
    "community": "",
    "community_code": "",
    "latitude": "48.1683",
    "longitude": "28.2144"
  },
  {
    "country_code": "MD",
    "zipcode": "MD-3035",
    "place": "Inundeni",
    "state": "Soroca",
    "state_code": "",
    "province": "",
    "province_code": "",
    "community": "",
    "community_code": "",
    "latitude": "48.1247",
    "longitude": "28.3583"
  },
  {
    "country_code": "MD",
    "zipcode": "MD-3035",
    "place": "Ruslanovca",
    "state": "Soroca",
    "state_code": "",
    "province": "",
    "province_code": "",
    "community": "",
    "community_code": "",
    "latitude": "48.1172",
    "longitude": "28.3725"
  },
  {
    "country_code": "MD",
    "zipcode": "MD-3036",
    "place": "Schineni",
    "state": "Soroca",
    "state_code": "",
    "province": "",
    "province_code": "",
    "community": "",
    "community_code": "",
    "latitude": "48.0944",
    "longitude": "28.0958"
  },
  {
    "country_code": "MD",
    "zipcode": "MD-3036",
    "place": "Schinenii Noi",
    "state": "Soroca",
    "state_code": "",
    "province": "",
    "province_code": "",
    "community": "",
    "community_code": "",
    "latitude": "48.0717",
    "longitude": "28.105"
  },
  {
    "country_code": "MD",
    "zipcode": "MD-3037",
    "place": "Slobozia-Cremene",
    "state": "Soroca",
    "state_code": "",
    "province": "",
    "province_code": "",
    "community": "",
    "community_code": "",
    "latitude": "48.0406",
    "longitude": "28.4231"
  },
  {
    "country_code": "MD",
    "zipcode": "MD-3038",
    "place": "Slobozia-Varancau",
    "state": "Soroca",
    "state_code": "",
    "province": "",
    "province_code": "",
    "community": "",
    "community_code": "",
    "latitude": "48.0664",
    "longitude": "28.4658"
  },
  {
    "country_code": "MD",
    "zipcode": "MD-3039",
    "place": "Valea",
    "state": "Soroca",
    "state_code": "",
    "province": "",
    "province_code": "",
    "community": "",
    "community_code": "",
    "latitude": "48.2433",
    "longitude": "28.0653"
  },
  {
    "country_code": "MD",
    "zipcode": "MD-3039",
    "place": "Livezi",
    "state": "Soroca",
    "state_code": "",
    "province": "",
    "province_code": "",
    "community": "",
    "community_code": "",
    "latitude": "48.2358",
    "longitude": "28.0494"
  },
  {
    "country_code": "MD",
    "zipcode": "MD-3039",
    "place": "Sobari",
    "state": "Soroca",
    "state_code": "",
    "province": "",
    "province_code": "",
    "community": "",
    "community_code": "",
    "latitude": "48.2319",
    "longitude": "28.0669"
  },
  {
    "country_code": "MD",
    "zipcode": "MD-3040",
    "place": "Solonet",
    "state": "Soroca",
    "state_code": "",
    "province": "",
    "province_code": "",
    "community": "",
    "community_code": "",
    "latitude": "47.9958",
    "longitude": "28.4028"
  },
  {
    "country_code": "MD",
    "zipcode": "MD-3041",
    "place": "Stoicani",
    "state": "Soroca",
    "state_code": "",
    "province": "",
    "province_code": "",
    "community": "",
    "community_code": "",
    "latitude": "48.0267",
    "longitude": "28.3639"
  },
  {
    "country_code": "MD",
    "zipcode": "MD-3042",
    "place": "Septelici",
    "state": "Soroca",
    "state_code": "",
    "province": "",
    "province_code": "",
    "community": "",
    "community_code": "",
    "latitude": "48.1997",
    "longitude": "28.1581"
  },
  {
    "country_code": "MD",
    "zipcode": "MD-3043",
    "place": "Curesnita Noua",
    "state": "Soroca",
    "state_code": "",
    "province": "",
    "province_code": "",
    "community": "",
    "community_code": "",
    "latitude": "48.1814",
    "longitude": "28.1225"
  },
  {
    "country_code": "MD",
    "zipcode": "MD-3043",
    "place": "Solcani",
    "state": "Soroca",
    "state_code": "",
    "province": "",
    "province_code": "",
    "community": "",
    "community_code": "",
    "latitude": "48.1733",
    "longitude": "28.1106"
  },
  {
    "country_code": "MD",
    "zipcode": "MD-3044",
    "place": "Trifauti",
    "state": "Soroca",
    "state_code": "",
    "province": "",
    "province_code": "",
    "community": "",
    "community_code": "",
    "latitude": "48.1617",
    "longitude": "28.3842"
  },
  {
    "country_code": "MD",
    "zipcode": "MD-3045",
    "place": "Tepilova",
    "state": "Soroca",
    "state_code": "",
    "province": "",
    "province_code": "",
    "community": "",
    "community_code": "",
    "latitude": "48.1253",
    "longitude": "28.2328"
  },
  {
    "country_code": "MD",
    "zipcode": "MD-3046",
    "place": "Vasilcau",
    "state": "Soroca",
    "state_code": "",
    "province": "",
    "province_code": "",
    "community": "",
    "community_code": "",
    "latitude": "48.1383",
    "longitude": "28.4214"
  },
  {
    "country_code": "MD",
    "zipcode": "MD-3047",
    "place": "Vadeni",
    "state": "Soroca",
    "state_code": "",
    "province": "",
    "province_code": "",
    "community": "",
    "community_code": "",
    "latitude": "48.0108",
    "longitude": "28.2272"
  },
  {
    "country_code": "MD",
    "zipcode": "MD-3048",
    "place": "Varancau",
    "state": "Soroca",
    "state_code": "",
    "province": "",
    "province_code": "",
    "community": "",
    "community_code": "",
    "latitude": "48.0653",
    "longitude": "28.515"
  },
  {
    "country_code": "MD",
    "zipcode": "MD-3049",
    "place": "Voloave",
    "state": "Soroca",
    "state_code": "",
    "province": "",
    "province_code": "",
    "community": "",
    "community_code": "",
    "latitude": "48.0936",
    "longitude": "28.2925"
  },
  {
    "country_code": "MD",
    "zipcode": "MD-3050",
    "place": "Alexandru Cel Bun",
    "state": "Soroca",
    "state_code": "",
    "province": "",
    "province_code": "",
    "community": "",
    "community_code": "",
    "latitude": "48.0969",
    "longitude": "28.3406"
  },
  {
    "country_code": "MD",
    "zipcode": "MD-3050",
    "place": "Volovita",
    "state": "Soroca",
    "state_code": "",
    "province": "",
    "province_code": "",
    "community": "",
    "community_code": "",
    "latitude": "48.1031",
    "longitude": "28.3228"
  },
  {
    "country_code": "MD",
    "zipcode": "MD-3051",
    "place": "Zastinca",
    "state": "Soroca",
    "state_code": "",
    "province": "",
    "province_code": "",
    "community": "",
    "community_code": "",
    "latitude": "48.1272",
    "longitude": "28.3061"
  },
  {
    "country_code": "MD",
    "zipcode": "MD-3052",
    "place": "Cremenciug",
    "state": "Soroca",
    "state_code": "",
    "province": "",
    "province_code": "",
    "community": "",
    "community_code": "",
    "latitude": "48.2769",
    "longitude": "28.0853"
  },
  {
    "country_code": "MD",
    "zipcode": "MD-3100",
    "place": "Balti",
    "state": "Balti",
    "state_code": "",
    "province": "",
    "province_code": "",
    "community": "",
    "community_code": "",
    "latitude": "47.7617",
    "longitude": "27.9289"
  },
  {
    "country_code": "MD",
    "zipcode": "MD-3151",
    "place": "Elizaveta",
    "state": "Mun.Balti",
    "state_code": "",
    "province": "",
    "province_code": "",
    "community": "",
    "community_code": "",
    "latitude": "47.7842",
    "longitude": "28.0225"
  },
  {
    "country_code": "MD",
    "zipcode": "MD-3200",
    "place": "Bender",
    "state": "Bender Tr.",
    "state_code": "",
    "province": "",
    "province_code": "",
    "community": "",
    "community_code": "",
    "latitude": "46.8306",
    "longitude": "29.4711"
  },
  {
    "country_code": "MD",
    "zipcode": "MD-3251",
    "place": "Varnita",
    "state": "Bender Tr.",
    "state_code": "",
    "province": "",
    "province_code": "",
    "community": "",
    "community_code": "",
    "latitude": "46.8614",
    "longitude": "29.4692"
  },
  {
    "country_code": "MD",
    "zipcode": "MD-3252",
    "place": "Proteagailovca",
    "state": "Bender Tr.",
    "state_code": "",
    "province": "",
    "province_code": "",
    "community": "",
    "community_code": "",
    "latitude": "46.8231",
    "longitude": "29.4419"
  },
  {
    "country_code": "MD",
    "zipcode": "MD-3300",
    "place": "Tiraspol",
    "state": "Tiraspol Tr.",
    "state_code": "",
    "province": "",
    "province_code": "",
    "community": "",
    "community_code": "",
    "latitude": "46.8403",
    "longitude": "29.6433"
  },
  {
    "country_code": "MD",
    "zipcode": "MD-3311",
    "place": "Tiraspolul Nou",
    "state": "Tiraspol Tr.",
    "state_code": "",
    "province": "",
    "province_code": "",
    "community": "",
    "community_code": "",
    "latitude": "46.8319",
    "longitude": "29.5767"
  },
  {
    "country_code": "MD",
    "zipcode": "MD-3351",
    "place": "Cremenciug",
    "state": "Tiraspol Tr.",
    "state_code": "",
    "province": "",
    "province_code": "",
    "community": "",
    "community_code": "",
    "latitude": "46.7086",
    "longitude": "29.6739"
  },
  {
    "country_code": "MD",
    "zipcode": "MD-3352",
    "place": "Dnestrovsc",
    "state": "Tiraspol Tr.",
    "state_code": "",
    "province": "",
    "province_code": "",
    "community": "",
    "community_code": "",
    "latitude": "46.6222",
    "longitude": "29.9133"
  },
  {
    "country_code": "MD",
    "zipcode": "MD-3401",
    "place": "Hincesti",
    "state": "Hincesti",
    "state_code": "",
    "province": "",
    "province_code": "",
    "community": "",
    "community_code": "",
    "latitude": "46.8258",
    "longitude": "28.5936"
  },
  {
    "country_code": "MD",
    "zipcode": "MD-3411",
    "place": "Anini",
    "state": "Hincesti",
    "state_code": "",
    "province": "",
    "province_code": "",
    "community": "",
    "community_code": "",
    "latitude": "46.8892",
    "longitude": "28.4664"
  },
  {
    "country_code": "MD",
    "zipcode": "MD-3411",
    "place": "Rusca",
    "state": "Hincesti",
    "state_code": "",
    "province": "",
    "province_code": "",
    "community": "",
    "community_code": "",
    "latitude": "46.8761",
    "longitude": "28.4764"
  },
  {
    "country_code": "MD",
    "zipcode": "MD-3412",
    "place": "Balceana",
    "state": "Hincesti",
    "state_code": "",
    "province": "",
    "province_code": "",
    "community": "",
    "community_code": "",
    "latitude": "46.8444",
    "longitude": "28.4047"
  },
  {
    "country_code": "MD",
    "zipcode": "MD-3413",
    "place": "Bobeica",
    "state": "Hincesti",
    "state_code": "",
    "province": "",
    "province_code": "",
    "community": "",
    "community_code": "",
    "latitude": "46.985",
    "longitude": "28.4622"
  },
  {
    "country_code": "MD",
    "zipcode": "MD-3413",
    "place": "Dahnovici",
    "state": "Hincesti",
    "state_code": "",
    "province": "",
    "province_code": "",
    "community": "",
    "community_code": "",
    "latitude": "46.9764",
    "longitude": "28.4822"
  },
  {
    "country_code": "MD",
    "zipcode": "MD-3414",
    "place": "Boghiceni",
    "state": "Hincesti",
    "state_code": "",
    "province": "",
    "province_code": "",
    "community": "",
    "community_code": "",
    "latitude": "46.9489",
    "longitude": "28.3253"
  },
  {
    "country_code": "MD",
    "zipcode": "MD-3415",
    "place": "Bozieni",
    "state": "Hincesti",
    "state_code": "",
    "province": "",
    "province_code": "",
    "community": "",
    "community_code": "",
    "latitude": "46.7494",
    "longitude": "28.6472"
  },
  {
    "country_code": "MD",
    "zipcode": "MD-3416",
    "place": "Bujor",
    "state": "Hincesti",
    "state_code": "",
    "province": "",
    "province_code": "",
    "community": "",
    "community_code": "",
    "latitude": "46.9225",
    "longitude": "28.2683"
  },
  {
    "country_code": "MD",
    "zipcode": "MD-3417",
    "place": "Buteni",
    "state": "Hincesti",
    "state_code": "",
    "province": "",
    "province_code": "",
    "community": "",
    "community_code": "",
    "latitude": "46.8242",
    "longitude": "28.675"
  },
  {
    "country_code": "MD",
    "zipcode": "MD-3418",
    "place": "Calmatui",
    "state": "Hincesti",
    "state_code": "",
    "province": "",
    "province_code": "",
    "community": "",
    "community_code": "",
    "latitude": "46.7833",
    "longitude": "28.2153"
  },
  {
    "country_code": "MD",
    "zipcode": "MD-3419",
    "place": "Caracui",
    "state": "Hincesti",
    "state_code": "",
    "province": "",
    "province_code": "",
    "community": "",
    "community_code": "",
    "latitude": "46.6986",
    "longitude": "28.5419"
  },
  {
    "country_code": "MD",
    "zipcode": "MD-3420",
    "place": "Carpineni",
    "state": "Hincesti",
    "state_code": "",
    "province": "",
    "province_code": "",
    "community": "",
    "community_code": "",
    "latitude": "46.7597",
    "longitude": "28.3531"
  },
  {
    "country_code": "MD",
    "zipcode": "MD-3420",
    "place": "Topor ",
    "state": "Hincesti",
    "state_code": "",
    "province": "",
    "province_code": "",
    "community": "",
    "community_code": "",
    "latitude": "46.7597",
    "longitude": "28.3531"
  },
  {
    "country_code": "MD",
    "zipcode": "MD-3421",
    "place": "Cioara",
    "state": "Hincesti",
    "state_code": "",
    "province": "",
    "province_code": "",
    "community": "",
    "community_code": "",
    "latitude": "46.7325",
    "longitude": "28.2247"
  },
  {
    "country_code": "MD",
    "zipcode": "MD-3422",
    "place": "Cotul Morii",
    "state": "Hincesti",
    "state_code": "",
    "province": "",
    "province_code": "",
    "community": "",
    "community_code": "",
    "latitude": "46.8697",
    "longitude": "28.1189"
  },
  {
    "country_code": "MD",
    "zipcode": "MD-3423",
    "place": "Crasnoarmeiscoe",
    "state": "Hincesti",
    "state_code": "",
    "province": "",
    "province_code": "",
    "community": "",
    "community_code": "",
    "latitude": "46.8294",
    "longitude": "28.2822"
  },
  {
    "country_code": "MD",
    "zipcode": "MD-3423",
    "place": "Talaiesti",
    "state": "Hincesti",
    "state_code": "",
    "province": "",
    "province_code": "",
    "community": "",
    "community_code": "",
    "latitude": "46.8003",
    "longitude": "28.2664"
  },
  {
    "country_code": "MD",
    "zipcode": "MD-3424",
    "place": "Dancu",
    "state": "Hincesti",
    "state_code": "",
    "province": "",
    "province_code": "",
    "community": "",
    "community_code": "",
    "latitude": "46.7628",
    "longitude": "28.21"
  },
  {
    "country_code": "MD",
    "zipcode": "MD-3425",
    "place": "Draguseni",
    "state": "Hincesti",
    "state_code": "",
    "province": "",
    "province_code": "",
    "community": "",
    "community_code": "",
    "latitude": "46.9839",
    "longitude": "28.4503"
  },
  {
    "country_code": "MD",
    "zipcode": "MD-3426",
    "place": "Dubovca",
    "state": "Hincesti",
    "state_code": "",
    "province": "",
    "province_code": "",
    "community": "",
    "community_code": "",
    "latitude": "46.7486",
    "longitude": "28.6083"
  },
  {
    "country_code": "MD",
    "zipcode": "MD-3427",
    "place": "Firladeni",
    "state": "Hincesti",
    "state_code": "",
    "province": "",
    "province_code": "",
    "community": "",
    "community_code": "",
    "latitude": "46.7875",
    "longitude": "28.6875"
  },
  {
    "country_code": "MD",
    "zipcode": "MD-3428",
    "place": "Fundul Galbenei",
    "state": "Hincesti",
    "state_code": "",
    "province": "",
    "province_code": "",
    "community": "",
    "community_code": "",
    "latitude": "46.8825",
    "longitude": "28.6231"
  },
  {
    "country_code": "MD",
    "zipcode": "MD-3429",
    "place": "Horjesti",
    "state": "Hincesti",
    "state_code": "",
    "province": "",
    "province_code": "",
    "community": "",
    "community_code": "",
    "latitude": "46.7128",
    "longitude": "28.3494"
  },
  {
    "country_code": "MD",
    "zipcode": "MD-3430",
    "place": "Costesti",
    "state": "Hincesti",
    "state_code": "",
    "province": "",
    "province_code": "",
    "community": "",
    "community_code": "",
    "latitude": "46.8733",
    "longitude": "28.2067"
  },
  {
    "country_code": "MD",
    "zipcode": "MD-3430",
    "place": "Frasin",
    "state": "Hincesti",
    "state_code": "",
    "province": "",
    "province_code": "",
    "community": "",
    "community_code": "",
    "latitude": "46.89",
    "longitude": "28.195"
  },
  {
    "country_code": "MD",
    "zipcode": "MD-3430",
    "place": "Ivanovca",
    "state": "Hincesti",
    "state_code": "",
    "province": "",
    "province_code": "",
    "community": "",
    "community_code": "",
    "latitude": "46.8769",
    "longitude": "28.1964"
  },
  {
    "country_code": "MD",
    "zipcode": "MD-3431",
    "place": "Lapusna",
    "state": "Hincesti",
    "state_code": "",
    "province": "",
    "province_code": "",
    "community": "",
    "community_code": "",
    "latitude": "46.8842",
    "longitude": "28.4119"
  },
  {
    "country_code": "MD",
    "zipcode": "MD-3432",
    "place": "Leuseni",
    "state": "Hincesti",
    "state_code": "",
    "province": "",
    "province_code": "",
    "community": "",
    "community_code": "",
    "latitude": "46.8092",
    "longitude": "28.1994"
  },
  {
    "country_code": "MD",
    "zipcode": "MD-3432",
    "place": "Feteasca",
    "state": "Hincesti",
    "state_code": "",
    "province": "",
    "province_code": "",
    "community": "",
    "community_code": "",
    "latitude": "46.7878",
    "longitude": "28.1922"
  },
  {
    "country_code": "MD",
    "zipcode": "MD-3434",
    "place": "Loganesti",
    "state": "Hincesti",
    "state_code": "",
    "province": "",
    "province_code": "",
    "community": "",
    "community_code": "",
    "latitude": "46.9039",
    "longitude": "28.5453"
  },
  {
    "country_code": "MD",
    "zipcode": "MD-3435",
    "place": "Mereseni",
    "state": "Hincesti",
    "state_code": "",
    "province": "",
    "province_code": "",
    "community": "",
    "community_code": "",
    "latitude": "46.7967",
    "longitude": "28.5417"
  },
  {
    "country_code": "MD",
    "zipcode": "MD-3436",
    "place": "Mingir",
    "state": "Hincesti",
    "state_code": "",
    "province": "",
    "province_code": "",
    "community": "",
    "community_code": "",
    "latitude": "46.6667",
    "longitude": "28.3272"
  },
  {
    "country_code": "MD",
    "zipcode": "MD-3437",
    "place": "Miresti",
    "state": "Hincesti",
    "state_code": "",
    "province": "",
    "province_code": "",
    "community": "",
    "community_code": "",
    "latitude": "46.9697",
    "longitude": "28.255"
  },
  {
    "country_code": "MD",
    "zipcode": "MD-3437",
    "place": "Chetroseni",
    "state": "Hincesti",
    "state_code": "",
    "province": "",
    "province_code": "",
    "community": "",
    "community_code": "",
    "latitude": "46.9631",
    "longitude": "28.2728"
  },
  {
    "country_code": "MD",
    "zipcode": "MD-3438",
    "place": "Negrea",
    "state": "Hincesti",
    "state_code": "",
    "province": "",
    "province_code": "",
    "community": "",
    "community_code": "",
    "latitude": "46.8114",
    "longitude": "28.3981"
  },
  {
    "country_code": "MD",
    "zipcode": "MD-3439",
    "place": "Nemteni",
    "state": "Hincesti",
    "state_code": "",
    "province": "",
    "province_code": "",
    "community": "",
    "community_code": "",
    "latitude": "46.9086",
    "longitude": "28.1181"
  },
  {
    "country_code": "MD",
    "zipcode": "MD-3440",
    "place": "Obileni",
    "state": "Hincesti",
    "state_code": "",
    "province": "",
    "province_code": "",
    "community": "",
    "community_code": "",
    "latitude": "46.8786",
    "longitude": "28.1606"
  },
  {
    "country_code": "MD",
    "zipcode": "MD-3440",
    "place": "Sarateni",
    "state": "Hincesti",
    "state_code": "",
    "province": "",
    "province_code": "",
    "community": "",
    "community_code": "",
    "latitude": "46.8567",
    "longitude": "28.1686"
  },
  {
    "country_code": "MD",
    "zipcode": "MD-3441",
    "place": "Strimbeni",
    "state": "Hincesti",
    "state_code": "",
    "province": "",
    "province_code": "",
    "community": "",
    "community_code": "",
    "latitude": "46.8672",
    "longitude": "28.265"
  },
  {
    "country_code": "MD",
    "zipcode": "MD-3441",
    "place": "Onesti",
    "state": "Hincesti",
    "state_code": "",
    "province": "",
    "province_code": "",
    "community": "",
    "community_code": "",
    "latitude": "46.8603",
    "longitude": "28.2525"
  },
  {
    "country_code": "MD",
    "zipcode": "MD-3442",
    "place": "Pascani",
    "state": "Hincesti",
    "state_code": "",
    "province": "",
    "province_code": "",
    "community": "",
    "community_code": "",
    "latitude": "46.9769",
    "longitude": "28.3678"
  },
  {
    "country_code": "MD",
    "zipcode": "MD-3443",
    "place": "Pereni",
    "state": "Hincesti",
    "state_code": "",
    "province": "",
    "province_code": "",
    "community": "",
    "community_code": "",
    "latitude": "47.0028",
    "longitude": "28.3736"
  },
  {
    "country_code": "MD",
    "zipcode": "MD-3444",
    "place": "Pervomaiscoe",
    "state": "Hincesti",
    "state_code": "",
    "province": "",
    "province_code": "",
    "community": "",
    "community_code": "",
    "latitude": "46.8839",
    "longitude": "28.3231"
  },
  {
    "country_code": "MD",
    "zipcode": "MD-3445",
    "place": "Marchet",
    "state": "Hincesti",
    "state_code": "",
    "province": "",
    "province_code": "",
    "community": "",
    "community_code": "",
    "latitude": "46.7081",
    "longitude": "28.2342"
  },
  {
    "country_code": "MD",
    "zipcode": "MD-3445",
    "place": "Poganesti",
    "state": "Hincesti",
    "state_code": "",
    "province": "",
    "province_code": "",
    "community": "",
    "community_code": "",
    "latitude": "46.6928",
    "longitude": "28.2331"
  },
  {
    "country_code": "MD",
    "zipcode": "MD-3446",
    "place": "Valea Florii",
    "state": "Hincesti",
    "state_code": "",
    "province": "",
    "province_code": "",
    "community": "",
    "community_code": "",
    "latitude": "46.7128",
    "longitude": "28.4386"
  },
  {
    "country_code": "MD",
    "zipcode": "MD-3446",
    "place": "Coroliovca",
    "state": "Hincesti",
    "state_code": "",
    "province": "",
    "province_code": "",
    "community": "",
    "community_code": "",
    "latitude": "46.7108",
    "longitude": "28.4725"
  },
  {
    "country_code": "MD",
    "zipcode": "MD-3446",
    "place": "Sarata Galbena",
    "state": "Hincesti",
    "state_code": "",
    "province": "",
    "province_code": "",
    "community": "",
    "community_code": "",
    "latitude": "46.7275",
    "longitude": "28.515"
  },
  {
    "country_code": "MD",
    "zipcode": "MD-3446",
    "place": "Carpineanca",
    "state": "Hincesti",
    "state_code": "",
    "province": "",
    "province_code": "",
    "community": "",
    "community_code": "",
    "latitude": "46.6961",
    "longitude": "28.4725"
  },
  {
    "country_code": "MD",
    "zipcode": "MD-3446",
    "place": "Bratianovca",
    "state": "Hincesti",
    "state_code": "",
    "province": "",
    "province_code": "",
    "community": "",
    "community_code": "",
    "latitude": "46.7406",
    "longitude": "28.4647"
  },
  {
    "country_code": "MD",
    "zipcode": "MD-3447",
    "place": "Sarata-Mereseni",
    "state": "Hincesti",
    "state_code": "",
    "province": "",
    "province_code": "",
    "community": "",
    "community_code": "",
    "latitude": "46.8",
    "longitude": "28.5036"
  },
  {
    "country_code": "MD",
    "zipcode": "MD-3448",
    "place": "Secarenii Noi",
    "state": "Hincesti",
    "state_code": "",
    "province": "",
    "province_code": "",
    "community": "",
    "community_code": "",
    "latitude": "47.0117",
    "longitude": "28.331"
  },
  {
    "country_code": "MD",
    "zipcode": "MD-3448",
    "place": "Secareni",
    "state": "Hincesti",
    "state_code": "",
    "province": "",
    "province_code": "",
    "community": "",
    "community_code": "",
    "latitude": "47.0253",
    "longitude": "28.3325"
  },
  {
    "country_code": "MD",
    "zipcode": "MD-3448",
    "place": "Cornesti",
    "state": "Hincesti",
    "state_code": "",
    "province": "",
    "province_code": "",
    "community": "",
    "community_code": "",
    "latitude": "46.9981",
    "longitude": "28.3294"
  },
  {
    "country_code": "MD",
    "zipcode": "MD-3449",
    "place": "Sofia",
    "state": "Hincesti",
    "state_code": "",
    "province": "",
    "province_code": "",
    "community": "",
    "community_code": "",
    "latitude": "46.8411",
    "longitude": "28.3803"
  },
  {
    "country_code": "MD",
    "zipcode": "MD-3450",
    "place": "Stolniceni",
    "state": "Hincesti",
    "state_code": "",
    "province": "",
    "province_code": "",
    "community": "",
    "community_code": "",
    "latitude": "46.9603",
    "longitude": "28.5"
  },
  {
    "country_code": "MD",
    "zipcode": "MD-3451",
    "place": "Sipoteni",
    "state": "Hincesti",
    "state_code": "",
    "province": "",
    "province_code": "",
    "community": "",
    "community_code": "",
    "latitude": "46.9425",
    "longitude": "28.4564"
  },
  {
    "country_code": "MD",
    "zipcode": "MD-3452",
    "place": "Voinescu",
    "state": "Hincesti",
    "state_code": "",
    "province": "",
    "province_code": "",
    "community": "",
    "community_code": "",
    "latitude": "46.6494",
    "longitude": "28.3017"
  },
  {
    "country_code": "MD",
    "zipcode": "MD-3452",
    "place": "Cococeni",
    "state": "Hincesti",
    "state_code": "",
    "province": "",
    "province_code": "",
    "community": "",
    "community_code": "",
    "latitude": "46.6735",
    "longitude": "28.3031"
  },
  {
    "country_code": "MD",
    "zipcode": "MD-3452",
    "place": "Semionovca",
    "state": "Hincesti",
    "state_code": "",
    "province": "",
    "province_code": "",
    "community": "",
    "community_code": "",
    "latitude": "46.6975",
    "longitude": "28.3044"
  },
  {
    "country_code": "MD",
    "zipcode": "MD-3502",
    "place": "Orhei 2",
    "state": "Orhei",
    "state_code": "",
    "province": "",
    "province_code": "",
    "community": "",
    "community_code": "",
    "latitude": "47.3831",
    "longitude": "28.8231"
  },
  {
    "country_code": "MD",
    "zipcode": "MD-3503",
    "place": "Orhei 3",
    "state": "Orhei",
    "state_code": "",
    "province": "",
    "province_code": "",
    "community": "",
    "community_code": "",
    "latitude": "47.3867",
    "longitude": "28.785"
  },
  {
    "country_code": "MD",
    "zipcode": "MD-3503",
    "place": "Mitoc",
    "state": "Orhei",
    "state_code": "",
    "province": "",
    "province_code": "",
    "community": "",
    "community_code": "",
    "latitude": "47.3867",
    "longitude": "28.785"
  },
  {
    "country_code": "MD",
    "zipcode": "MD-3504",
    "place": "Orhei 4",
    "state": "Orhei",
    "state_code": "",
    "province": "",
    "province_code": "",
    "community": "",
    "community_code": "",
    "latitude": "47.3831",
    "longitude": "28.8231"
  },
  {
    "country_code": "MD",
    "zipcode": "MD-3505",
    "place": "Orhei 5",
    "state": "Orhei",
    "state_code": "",
    "province": "",
    "province_code": "",
    "community": "",
    "community_code": "",
    "latitude": "47.3831",
    "longitude": "28.8231"
  },
  {
    "country_code": "MD",
    "zipcode": "MD-3511",
    "place": "Berezlogi",
    "state": "Orhei",
    "state_code": "",
    "province": "",
    "province_code": "",
    "community": "",
    "community_code": "",
    "latitude": "47.4364",
    "longitude": "28.9339"
  },
  {
    "country_code": "MD",
    "zipcode": "MD-3512",
    "place": "Biesti",
    "state": "Orhei",
    "state_code": "",
    "province": "",
    "province_code": "",
    "community": "",
    "community_code": "",
    "latitude": "47.5156",
    "longitude": "28.8614"
  },
  {
    "country_code": "MD",
    "zipcode": "MD-3512",
    "place": "Slobozia-Hodorogea",
    "state": "Orhei",
    "state_code": "",
    "province": "",
    "province_code": "",
    "community": "",
    "community_code": "",
    "latitude": "47.5083",
    "longitude": "28.8886"
  },
  {
    "country_code": "MD",
    "zipcode": "MD-3512",
    "place": "Cihoreni",
    "state": "Orhei",
    "state_code": "",
    "province": "",
    "province_code": "",
    "community": "",
    "community_code": "",
    "latitude": "47.5061",
    "longitude": "28.8622"
  },
  {
    "country_code": "MD",
    "zipcode": "MD-3513",
    "place": "Bolohan",
    "state": "Orhei",
    "state_code": "",
    "province": "",
    "province_code": "",
    "community": "",
    "community_code": "",
    "latitude": "47.4319",
    "longitude": "28.8731"
  },
  {
    "country_code": "MD",
    "zipcode": "MD-3514",
    "place": "Braviceni",
    "state": "Orhei",
    "state_code": "",
    "province": "",
    "province_code": "",
    "community": "",
    "community_code": "",
    "latitude": "47.4336",
    "longitude": "28.6578"
  },
  {
    "country_code": "MD",
    "zipcode": "MD-3515",
    "place": "Branesti",
    "state": "Orhei",
    "state_code": "",
    "province": "",
    "province_code": "",
    "community": "",
    "community_code": "",
    "latitude": "47.3053",
    "longitude": "28.9267"
  },
  {
    "country_code": "MD",
    "zipcode": "MD-3516",
    "place": "Breanova",
    "state": "Orhei",
    "state_code": "",
    "province": "",
    "province_code": "",
    "community": "",
    "community_code": "",
    "latitude": "47.4158",
    "longitude": "28.6497"
  },
  {
    "country_code": "MD",
    "zipcode": "MD-3517",
    "place": "Bulaiesti",
    "state": "Orhei",
    "state_code": "",
    "province": "",
    "province_code": "",
    "community": "",
    "community_code": "",
    "latitude": "47.4769",
    "longitude": "28.9786"
  },
  {
    "country_code": "MD",
    "zipcode": "MD-3518",
    "place": "Chiperceni",
    "state": "Orhei",
    "state_code": "",
    "province": "",
    "province_code": "",
    "community": "",
    "community_code": "",
    "latitude": "47.525",
    "longitude": "28.8386"
  },
  {
    "country_code": "MD",
    "zipcode": "MD-3519",
    "place": "Ciocilteni",
    "state": "Orhei",
    "state_code": "",
    "province": "",
    "province_code": "",
    "community": "",
    "community_code": "",
    "latitude": "47.4939",
    "longitude": "28.6089"
  },
  {
    "country_code": "MD",
    "zipcode": "MD-3519",
    "place": "Fedoreuca",
    "state": "Orhei",
    "state_code": "",
    "province": "",
    "province_code": "",
    "community": "",
    "community_code": "",
    "latitude": "47.4881",
    "longitude": "28.6403"
  },
  {
    "country_code": "MD",
    "zipcode": "MD-3519",
    "place": "Clisova Noua",
    "state": "Orhei",
    "state_code": "",
    "province": "",
    "province_code": "",
    "community": "",
    "community_code": "",
    "latitude": "47.491",
    "longitude": "28.6246"
  },
  {
    "country_code": "MD",
    "zipcode": "MD-3520",
    "place": "Cismea",
    "state": "Orhei",
    "state_code": "",
    "province": "",
    "province_code": "",
    "community": "",
    "community_code": "",
    "latitude": "47.4164",
    "longitude": "28.7533"
  },
  {
    "country_code": "MD",
    "zipcode": "MD-3521",
    "place": "Clisova",
    "state": "Orhei",
    "state_code": "",
    "province": "",
    "province_code": "",
    "community": "",
    "community_code": "",
    "latitude": "47.4731",
    "longitude": "28.5736"
  },
  {
    "country_code": "MD",
    "zipcode": "MD-3522",
    "place": "Ocnita-Razesi",
    "state": "Orhei",
    "state_code": "",
    "province": "",
    "province_code": "",
    "community": "",
    "community_code": "",
    "latitude": "47.4694",
    "longitude": "28.7203"
  },
  {
    "country_code": "MD",
    "zipcode": "MD-3522",
    "place": "Cucuruzeni",
    "state": "Orhei",
    "state_code": "",
    "province": "",
    "province_code": "",
    "community": "",
    "community_code": "",
    "latitude": "47.4883",
    "longitude": "28.7258"
  },
  {
    "country_code": "MD",
    "zipcode": "MD-3523",
    "place": "Crihana",
    "state": "Orhei",
    "state_code": "",
    "province": "",
    "province_code": "",
    "community": "",
    "community_code": "",
    "latitude": "47.5228",
    "longitude": "28.7211"
  },
  {
    "country_code": "MD",
    "zipcode": "MD-3523",
    "place": "Cucuruzenii De Sus",
    "state": "Orhei",
    "state_code": "",
    "province": "",
    "province_code": "",
    "community": "",
    "community_code": "",
    "latitude": "47.5456",
    "longitude": "28.6989"
  },
  {
    "country_code": "MD",
    "zipcode": "MD-3524",
    "place": "Curchi",
    "state": "Orhei",
    "state_code": "",
    "province": "",
    "province_code": "",
    "community": "",
    "community_code": "",
    "latitude": "47.3358",
    "longitude": "28.6539"
  },
  {
    "country_code": "MD",
    "zipcode": "MD-3524",
    "place": "Mana",
    "state": "Orhei",
    "state_code": "",
    "province": "",
    "province_code": "",
    "community": "",
    "community_code": "",
    "latitude": "47.3389",
    "longitude": "28.6844"
  },
  {
    "country_code": "MD",
    "zipcode": "MD-3525",
    "place": "Discova",
    "state": "Orhei",
    "state_code": "",
    "province": "",
    "province_code": "",
    "community": "",
    "community_code": "",
    "latitude": "47.3756",
    "longitude": "28.5975"
  },
  {
    "country_code": "MD",
    "zipcode": "MD-3526",
    "place": "Donici",
    "state": "Orhei",
    "state_code": "",
    "province": "",
    "province_code": "",
    "community": "",
    "community_code": "",
    "latitude": "47.2844",
    "longitude": "28.67"
  },
  {
    "country_code": "MD",
    "zipcode": "MD-3526",
    "place": "Camencea",
    "state": "Orhei",
    "state_code": "",
    "province": "",
    "province_code": "",
    "community": "",
    "community_code": "",
    "latitude": "47.2808",
    "longitude": "28.6875"
  },
  {
    "country_code": "MD",
    "zipcode": "MD-3527",
    "place": "Furceni",
    "state": "Orhei",
    "state_code": "",
    "province": "",
    "province_code": "",
    "community": "",
    "community_code": "",
    "latitude": "47.3364",
    "longitude": "28.9256"
  },
  {
    "country_code": "MD",
    "zipcode": "MD-3528",
    "place": "Noroceni",
    "state": "Orhei",
    "state_code": "",
    "province": "",
    "province_code": "",
    "community": "",
    "community_code": "",
    "latitude": "47.3769",
    "longitude": "28.5181"
  },
  {
    "country_code": "MD",
    "zipcode": "MD-3528",
    "place": "Ghetlova",
    "state": "Orhei",
    "state_code": "",
    "province": "",
    "province_code": "",
    "community": "",
    "community_code": "",
    "latitude": "47.3719",
    "longitude": "28.5322"
  },
  {
    "country_code": "MD",
    "zipcode": "MD-3529",
    "place": "Hijdieni",
    "state": "Orhei",
    "state_code": "",
    "province": "",
    "province_code": "",
    "community": "",
    "community_code": "",
    "latitude": "47.4594",
    "longitude": "28.9147"
  },
  {
    "country_code": "MD",
    "zipcode": "MD-3530",
    "place": "Hulboaca",
    "state": "Orhei",
    "state_code": "",
    "province": "",
    "province_code": "",
    "community": "",
    "community_code": "",
    "latitude": "47.3786",
    "longitude": "28.555"
  },
  {
    "country_code": "MD",
    "zipcode": "MD-3531",
    "place": "Isacova",
    "state": "Orhei",
    "state_code": "",
    "province": "",
    "province_code": "",
    "community": "",
    "community_code": "",
    "latitude": "47.3703",
    "longitude": "28.7181"
  },
  {
    "country_code": "MD",
    "zipcode": "MD-3532",
    "place": "Ivancea",
    "state": "Orhei",
    "state_code": "",
    "province": "",
    "province_code": "",
    "community": "",
    "community_code": "",
    "latitude": "47.2847",
    "longitude": "28.8569"
  },
  {
    "country_code": "MD",
    "zipcode": "MD-3533",
    "place": "Izvoare",
    "state": "Orhei",
    "state_code": "",
    "province": "",
    "province_code": "",
    "community": "",
    "community_code": "",
    "latitude": "47.5517",
    "longitude": "28.9572"
  },
  {
    "country_code": "MD",
    "zipcode": "MD-3534",
    "place": "Jora De Mijloc",
    "state": "Orhei",
    "state_code": "",
    "province": "",
    "province_code": "",
    "community": "",
    "community_code": "",
    "latitude": "47.4756",
    "longitude": "29.0961"
  },
  {
    "country_code": "MD",
    "zipcode": "MD-3534",
    "place": "Jora De Jos",
    "state": "Orhei",
    "state_code": "",
    "province": "",
    "province_code": "",
    "community": "",
    "community_code": "",
    "latitude": "47.465",
    "longitude": "29.1083"
  },
  {
    "country_code": "MD",
    "zipcode": "MD-3535",
    "place": "Jora De Sus",
    "state": "Orhei",
    "state_code": "",
    "province": "",
    "province_code": "",
    "community": "",
    "community_code": "",
    "latitude": "47.4867",
    "longitude": "29.0761"
  },
  {
    "country_code": "MD",
    "zipcode": "MD-3535",
    "place": "Lopatna",
    "state": "Orhei",
    "state_code": "",
    "province": "",
    "province_code": "",
    "community": "",
    "community_code": "",
    "latitude": "47.495",
    "longitude": "29.0522"
  },
  {
    "country_code": "MD",
    "zipcode": "MD-3536",
    "place": "Tirzieni",
    "state": "Orhei",
    "state_code": "",
    "province": "",
    "province_code": "",
    "community": "",
    "community_code": "",
    "latitude": "47.445",
    "longitude": "28.6236"
  },
  {
    "country_code": "MD",
    "zipcode": "MD-3536",
    "place": "Malaiesti",
    "state": "Orhei",
    "state_code": "",
    "province": "",
    "province_code": "",
    "community": "",
    "community_code": "",
    "latitude": "47.4631",
    "longitude": "28.6636"
  },
  {
    "country_code": "MD",
    "zipcode": "MD-3537",
    "place": "Mirzaci",
    "state": "Orhei",
    "state_code": "",
    "province": "",
    "province_code": "",
    "community": "",
    "community_code": "",
    "latitude": "47.4894",
    "longitude": "28.9947"
  },
  {
    "country_code": "MD",
    "zipcode": "MD-3537",
    "place": "Mirzesti",
    "state": "Orhei",
    "state_code": "",
    "province": "",
    "province_code": "",
    "community": "",
    "community_code": "",
    "latitude": "47.4986",
    "longitude": "28.995"
  },
  {
    "country_code": "MD",
    "zipcode": "MD-3538",
    "place": "Morozeni",
    "state": "Orhei",
    "state_code": "",
    "province": "",
    "province_code": "",
    "community": "",
    "community_code": "",
    "latitude": "47.3781",
    "longitude": "28.6342"
  },
  {
    "country_code": "MD",
    "zipcode": "MD-3539",
    "place": "Neculaieuca",
    "state": "Orhei",
    "state_code": "",
    "province": "",
    "province_code": "",
    "community": "",
    "community_code": "",
    "latitude": "47.3603",
    "longitude": "28.6922"
  },
  {
    "country_code": "MD",
    "zipcode": "MD-3540",
    "place": "Pelivan",
    "state": "Orhei",
    "state_code": "",
    "province": "",
    "province_code": "",
    "community": "",
    "community_code": "",
    "latitude": "47.4033",
    "longitude": "28.7742"
  },
  {
    "country_code": "MD",
    "zipcode": "MD-3541",
    "place": "Peresecina",
    "state": "Orhei",
    "state_code": "",
    "province": "",
    "province_code": "",
    "community": "",
    "community_code": "",
    "latitude": "47.2522",
    "longitude": "28.7689"
  },
  {
    "country_code": "MD",
    "zipcode": "MD-3542",
    "place": "Pohorniceni",
    "state": "Orhei",
    "state_code": "",
    "province": "",
    "province_code": "",
    "community": "",
    "community_code": "",
    "latitude": "47.3736",
    "longitude": "28.8844"
  },
  {
    "country_code": "MD",
    "zipcode": "MD-3542",
    "place": "Jeloboc",
    "state": "Orhei",
    "state_code": "",
    "province": "",
    "province_code": "",
    "community": "",
    "community_code": "",
    "latitude": "47.3569",
    "longitude": "28.9047"
  },
  {
    "country_code": "MD",
    "zipcode": "MD-3542",
    "place": "Piatra",
    "state": "Orhei",
    "state_code": "",
    "province": "",
    "province_code": "",
    "community": "",
    "community_code": "",
    "latitude": "47.3667",
    "longitude": "28.8942"
  },
  {
    "country_code": "MD",
    "zipcode": "MD-3543",
    "place": "Podgoreni",
    "state": "Orhei",
    "state_code": "",
    "province": "",
    "province_code": "",
    "community": "",
    "community_code": "",
    "latitude": "47.5594",
    "longitude": "28.7825"
  },
  {
    "country_code": "MD",
    "zipcode": "MD-3544",
    "place": "Pohrebeni",
    "state": "Orhei",
    "state_code": "",
    "province": "",
    "province_code": "",
    "community": "",
    "community_code": "",
    "latitude": "47.5564",
    "longitude": "28.9092"
  },
  {
    "country_code": "MD",
    "zipcode": "MD-3544",
    "place": "Sercani",
    "state": "Orhei",
    "state_code": "",
    "province": "",
    "province_code": "",
    "community": "",
    "community_code": "",
    "latitude": "47.5119",
    "longitude": "28.9322"
  },
  {
    "country_code": "MD",
    "zipcode": "MD-3545",
    "place": "Seliste",
    "state": "Orhei",
    "state_code": "",
    "province": "",
    "province_code": "",
    "community": "",
    "community_code": "",
    "latitude": "47.3333",
    "longitude": "28.7844"
  },
  {
    "country_code": "MD",
    "zipcode": "MD-3545",
    "place": "Lucaseuca",
    "state": "Orhei",
    "state_code": "",
    "province": "",
    "province_code": "",
    "community": "",
    "community_code": "",
    "latitude": "47.335",
    "longitude": "28.7558"
  },
  {
    "country_code": "MD",
    "zipcode": "MD-3546",
    "place": "Sirota",
    "state": "Orhei",
    "state_code": "",
    "province": "",
    "province_code": "",
    "community": "",
    "community_code": "",
    "latitude": "47.5278",
    "longitude": "28.7769"
  },
  {
    "country_code": "MD",
    "zipcode": "MD-3547",
    "place": "Budai",
    "state": "Orhei",
    "state_code": "",
    "province": "",
    "province_code": "",
    "community": "",
    "community_code": "",
    "latitude": "47.4344",
    "longitude": "28.8211"
  },
  {
    "country_code": "MD",
    "zipcode": "MD-3547",
    "place": "Step-Soci",
    "state": "Orhei",
    "state_code": "",
    "province": "",
    "province_code": "",
    "community": "",
    "community_code": "",
    "latitude": "47.4553",
    "longitude": "28.7897"
  },
  {
    "country_code": "MD",
    "zipcode": "MD-3548",
    "place": "Susleni",
    "state": "Orhei",
    "state_code": "",
    "province": "",
    "province_code": "",
    "community": "",
    "community_code": "",
    "latitude": "47.4111",
    "longitude": "28.9864"
  },
  {
    "country_code": "MD",
    "zipcode": "MD-3549",
    "place": "Tabara",
    "state": "Orhei",
    "state_code": "",
    "province": "",
    "province_code": "",
    "community": "",
    "community_code": "",
    "latitude": "47.33",
    "longitude": "28.5647"
  },
  {
    "country_code": "MD",
    "zipcode": "MD-3550",
    "place": "Teleseu",
    "state": "Orhei",
    "state_code": "",
    "province": "",
    "province_code": "",
    "community": "",
    "community_code": "",
    "latitude": "47.2661",
    "longitude": "28.7081"
  },
  {
    "country_code": "MD",
    "zipcode": "MD-3550",
    "place": "Pocsesti",
    "state": "Orhei",
    "state_code": "",
    "province": "",
    "province_code": "",
    "community": "",
    "community_code": "",
    "latitude": "47.2492",
    "longitude": "28.6833"
  },
  {
    "country_code": "MD",
    "zipcode": "MD-3550",
    "place": "Samananca",
    "state": "Orhei",
    "state_code": "",
    "province": "",
    "province_code": "",
    "community": "",
    "community_code": "",
    "latitude": "47.265",
    "longitude": "28.7308"
  },
  {
    "country_code": "MD",
    "zipcode": "MD-3552",
    "place": "Morovaia",
    "state": "Orhei",
    "state_code": "",
    "province": "",
    "province_code": "",
    "community": "",
    "community_code": "",
    "latitude": "47.2992",
    "longitude": "28.9953"
  },
  {
    "country_code": "MD",
    "zipcode": "MD-3552",
    "place": "Butuceni",
    "state": "Orhei",
    "state_code": "",
    "province": "",
    "province_code": "",
    "community": "",
    "community_code": "",
    "latitude": "47.3014",
    "longitude": "28.9725"
  },
  {
    "country_code": "MD",
    "zipcode": "MD-3552",
    "place": "Trebujeni",
    "state": "Orhei",
    "state_code": "",
    "province": "",
    "province_code": "",
    "community": "",
    "community_code": "",
    "latitude": "47.3139",
    "longitude": "28.9736"
  },
  {
    "country_code": "MD",
    "zipcode": "MD-3553",
    "place": "Vatici",
    "state": "Orhei",
    "state_code": "",
    "province": "",
    "province_code": "",
    "community": "",
    "community_code": "",
    "latitude": "47.3408",
    "longitude": "28.6219"
  },
  {
    "country_code": "MD",
    "zipcode": "MD-3554",
    "place": "Putintei",
    "state": "Orhei",
    "state_code": "",
    "province": "",
    "province_code": "",
    "community": "",
    "community_code": "",
    "latitude": "47.3739",
    "longitude": "28.5761"
  },
  {
    "country_code": "MD",
    "zipcode": "MD-3554",
    "place": "Viprova",
    "state": "Orhei",
    "state_code": "",
    "province": "",
    "province_code": "",
    "community": "",
    "community_code": "",
    "latitude": "47.3833",
    "longitude": "28.5706"
  },
  {
    "country_code": "MD",
    "zipcode": "MD-3555",
    "place": "Viscauti",
    "state": "Orhei",
    "state_code": "",
    "province": "",
    "province_code": "",
    "community": "",
    "community_code": "",
    "latitude": "47.4325",
    "longitude": "29.0756"
  },
  {
    "country_code": "MD",
    "zipcode": "MD-3556",
    "place": "Vorotet",
    "state": "Orhei",
    "state_code": "",
    "province": "",
    "province_code": "",
    "community": "",
    "community_code": "",
    "latitude": "47.5592",
    "longitude": "28.8547"
  },
  {
    "country_code": "MD",
    "zipcode": "MD-3556",
    "place": "Andreevca",
    "state": "Orhei",
    "state_code": "",
    "province": "",
    "province_code": "",
    "community": "",
    "community_code": "",
    "latitude": "47.5389",
    "longitude": "28.8775"
  },
  {
    "country_code": "MD",
    "zipcode": "MD-3557",
    "place": "Zorile",
    "state": "Orhei",
    "state_code": "",
    "province": "",
    "province_code": "",
    "community": "",
    "community_code": "",
    "latitude": "47.4567",
    "longitude": "28.7381"
  },
  {
    "country_code": "MD",
    "zipcode": "MD-3557",
    "place": "Inculet",
    "state": "Orhei",
    "state_code": "",
    "province": "",
    "province_code": "",
    "community": "",
    "community_code": "",
    "latitude": "47.4489",
    "longitude": "28.7219"
  },
  {
    "country_code": "MD",
    "zipcode": "MD-3557",
    "place": "Ocnita-Tarani",
    "state": "Orhei",
    "state_code": "",
    "province": "",
    "province_code": "",
    "community": "",
    "community_code": "",
    "latitude": "47.4572",
    "longitude": "28.7228"
  },
  {
    "country_code": "MD",
    "zipcode": "MD-3601",
    "place": "Ungheni-Gara",
    "state": "Ungheni",
    "state_code": "",
    "province": "",
    "province_code": "",
    "community": "",
    "community_code": "",
    "latitude": "47.2042",
    "longitude": "27.7958"
  },
  {
    "country_code": "MD",
    "zipcode": "MD-3602",
    "place": "Ungheni 2",
    "state": "Ungheni",
    "state_code": "",
    "province": "",
    "province_code": "",
    "community": "",
    "community_code": "",
    "latitude": "47.2042",
    "longitude": "27.7958"
  },
  {
    "country_code": "MD",
    "zipcode": "MD-3603",
    "place": "Ungheni 3",
    "state": "Ungheni",
    "state_code": "",
    "province": "",
    "province_code": "",
    "community": "",
    "community_code": "",
    "latitude": "47.2042",
    "longitude": "27.7958"
  },
  {
    "country_code": "MD",
    "zipcode": "MD-3604",
    "place": "Ungheni 4",
    "state": "Ungheni",
    "state_code": "",
    "province": "",
    "province_code": "",
    "community": "",
    "community_code": "",
    "latitude": "47.2042",
    "longitude": "27.7958"
  },
  {
    "country_code": "MD",
    "zipcode": "MD-3606",
    "place": "Novaia Nicolaevca",
    "state": "Ungheni",
    "state_code": "",
    "province": "",
    "province_code": "",
    "community": "",
    "community_code": "",
    "latitude": "47.2689",
    "longitude": "27.8458"
  },
  {
    "country_code": "MD",
    "zipcode": "MD-3606",
    "place": "Ungheni 6",
    "state": "Ungheni",
    "state_code": "",
    "province": "",
    "province_code": "",
    "community": "",
    "community_code": "",
    "latitude": "47.2563",
    "longitude": "27.8343"
  },
  {
    "country_code": "MD",
    "zipcode": "MD-3606",
    "place": "Elizavetovca",
    "state": "Ungheni",
    "state_code": "",
    "province": "",
    "province_code": "",
    "community": "",
    "community_code": "",
    "latitude": "47.2436",
    "longitude": "27.8228"
  },
  {
    "country_code": "MD",
    "zipcode": "MD-3608",
    "place": "Poiana",
    "state": "Ungheni",
    "state_code": "",
    "province": "",
    "province_code": "",
    "community": "",
    "community_code": "",
    "latitude": "47.3917",
    "longitude": "28"
  },
  {
    "country_code": "MD",
    "zipcode": "MD-3608",
    "place": "Romanovca",
    "state": "Ungheni",
    "state_code": "",
    "province": "",
    "province_code": "",
    "community": "",
    "community_code": "",
    "latitude": "47.3753",
    "longitude": "27.9739"
  },
  {
    "country_code": "MD",
    "zipcode": "MD-3608",
    "place": "Cornesti Oras",
    "state": "Ungheni",
    "state_code": "",
    "province": "",
    "province_code": "",
    "community": "",
    "community_code": "",
    "latitude": "47.3835",
    "longitude": "27.9869"
  },
  {
    "country_code": "MD",
    "zipcode": "MD-3611",
    "place": "Agronomova",
    "state": "Ungheni",
    "state_code": "",
    "province": "",
    "province_code": "",
    "community": "",
    "community_code": "",
    "latitude": "47.3486",
    "longitude": "27.8964"
  },
  {
    "country_code": "MD",
    "zipcode": "MD-3612",
    "place": "Lidovca",
    "state": "Ungheni",
    "state_code": "",
    "province": "",
    "province_code": "",
    "community": "",
    "community_code": "",
    "latitude": "47.2786",
    "longitude": "27.8944"
  },
  {
    "country_code": "MD",
    "zipcode": "MD-3612",
    "place": "Alexeevca",
    "state": "Ungheni",
    "state_code": "",
    "province": "",
    "province_code": "",
    "community": "",
    "community_code": "",
    "latitude": "47.2636",
    "longitude": "27.9297"
  },
  {
    "country_code": "MD",
    "zipcode": "MD-3612",
    "place": "Saghieni",
    "state": "Ungheni",
    "state_code": "",
    "province": "",
    "province_code": "",
    "community": "",
    "community_code": "",
    "latitude": "47.2461",
    "longitude": "27.9719"
  },
  {
    "country_code": "MD",
    "zipcode": "MD-3613",
    "place": "Boghenii Noi",
    "state": "Ungheni",
    "state_code": "",
    "province": "",
    "province_code": "",
    "community": "",
    "community_code": "",
    "latitude": "47.4253",
    "longitude": "28.0144"
  },
  {
    "country_code": "MD",
    "zipcode": "MD-3613",
    "place": "Izvoreni",
    "state": "Uhnheni",
    "state_code": "",
    "province": "",
    "province_code": "",
    "community": "",
    "community_code": "",
    "latitude": "47.4308",
    "longitude": "27.9761"
  },
  {
    "country_code": "MD",
    "zipcode": "MD-3613",
    "place": "Mircesti",
    "state": "Ungheni",
    "state_code": "",
    "province": "",
    "province_code": "",
    "community": "",
    "community_code": "",
    "latitude": "47.4031",
    "longitude": "27.9956"
  },
  {
    "country_code": "MD",
    "zipcode": "MD-3614",
    "place": "Boghenii Vechi",
    "state": "Ungheni",
    "state_code": "",
    "province": "",
    "province_code": "",
    "community": "",
    "community_code": "",
    "latitude": "47.3972",
    "longitude": "28.0261"
  },
  {
    "country_code": "MD",
    "zipcode": "MD-3615",
    "place": "Bumbata",
    "state": "Ungheni",
    "state_code": "",
    "province": "",
    "province_code": "",
    "community": "",
    "community_code": "",
    "latitude": "47.3408",
    "longitude": "27.9744"
  },
  {
    "country_code": "MD",
    "zipcode": "MD-3616",
    "place": "Busila",
    "state": "Ungheni",
    "state_code": "",
    "province": "",
    "province_code": "",
    "community": "",
    "community_code": "",
    "latitude": "47.3875",
    "longitude": "27.8117"
  },
  {
    "country_code": "MD",
    "zipcode": "MD-3617",
    "place": "Cetireni",
    "state": "Ungheni",
    "state_code": "",
    "province": "",
    "province_code": "",
    "community": "",
    "community_code": "",
    "latitude": "47.2242",
    "longitude": "27.9033"
  },
  {
    "country_code": "MD",
    "zipcode": "MD-3618",
    "place": "Chirileni",
    "state": "Ungheni",
    "state_code": "",
    "province": "",
    "province_code": "",
    "community": "",
    "community_code": "",
    "latitude": "47.3808",
    "longitude": "27.7761"
  },
  {
    "country_code": "MD",
    "zipcode": "MD-3619",
    "place": "Cioropcani",
    "state": "Ungheni",
    "state_code": "",
    "province": "",
    "province_code": "",
    "community": "",
    "community_code": "",
    "latitude": "47.3978",
    "longitude": "27.6997"
  },
  {
    "country_code": "MD",
    "zipcode": "MD-3620",
    "place": "Condratesti",
    "state": "Ungheni",
    "state_code": "",
    "province": "",
    "province_code": "",
    "community": "",
    "community_code": "",
    "latitude": "47.4122",
    "longitude": "28.1122"
  },
  {
    "country_code": "MD",
    "zipcode": "MD-3620",
    "place": "Curtoaia",
    "state": "Ungheni",
    "state_code": "",
    "province": "",
    "province_code": "",
    "community": "",
    "community_code": "",
    "latitude": "47.3928",
    "longitude": "28.1047"
  },
  {
    "country_code": "MD",
    "zipcode": "MD-3621",
    "place": "Cornesti Sat",
    "state": "Ungheni",
    "state_code": "",
    "province": "",
    "province_code": "",
    "community": "",
    "community_code": "",
    "latitude": "47.2042",
    "longitude": "27.7958"
  },
  {
    "country_code": "MD",
    "zipcode": "MD-3622",
    "place": "Cornova",
    "state": "Ungheni",
    "state_code": "",
    "province": "",
    "province_code": "",
    "community": "",
    "community_code": "",
    "latitude": "47.3947",
    "longitude": "28.1717"
  },
  {
    "country_code": "MD",
    "zipcode": "MD-3623",
    "place": "Costuleni",
    "state": "Ungheni",
    "state_code": "",
    "province": "",
    "province_code": "",
    "community": "",
    "community_code": "",
    "latitude": "47.0781",
    "longitude": "27.9119"
  },
  {
    "country_code": "MD",
    "zipcode": "MD-3624",
    "place": "Tighira",
    "state": "Ungheni",
    "state_code": "",
    "province": "",
    "province_code": "",
    "community": "",
    "community_code": "",
    "latitude": "47.4447",
    "longitude": "27.9019"
  },
  {
    "country_code": "MD",
    "zipcode": "MD-3624",
    "place": "Coseni",
    "state": "Ungheni",
    "state_code": "",
    "province": "",
    "province_code": "",
    "community": "",
    "community_code": "",
    "latitude": "47.4406",
    "longitude": "27.9261"
  },
  {
    "country_code": "MD",
    "zipcode": "MD-3625",
    "place": "Drujba",
    "state": "Ungheni",
    "state_code": "",
    "province": "",
    "province_code": "",
    "community": "",
    "community_code": "",
    "latitude": "47.4328",
    "longitude": "28.0761"
  },
  {
    "country_code": "MD",
    "zipcode": "MD-3626",
    "place": "Grozasca",
    "state": "Ungheni",
    "state_code": "",
    "province": "",
    "province_code": "",
    "community": "",
    "community_code": "",
    "latitude": "47.1811",
    "longitude": "27.8944"
  },
  {
    "country_code": "MD",
    "zipcode": "MD-3626",
    "place": "Floritoaia Veche",
    "state": "Ungheni",
    "state_code": "",
    "province": "",
    "province_code": "",
    "community": "",
    "community_code": "",
    "latitude": "47.2064",
    "longitude": "27.9078"
  },
  {
    "country_code": "MD",
    "zipcode": "MD-3626",
    "place": "Floritoaia Noua",
    "state": "Ungheni",
    "state_code": "",
    "province": "",
    "province_code": "",
    "community": "",
    "community_code": "",
    "latitude": "47.1672",
    "longitude": "27.9253"
  },
  {
    "country_code": "MD",
    "zipcode": "MD-3627",
    "place": "Floresti",
    "state": "Ungheni",
    "state_code": "",
    "province": "",
    "province_code": "",
    "community": "",
    "community_code": "",
    "latitude": "47.3706",
    "longitude": "27.7136"
  },
  {
    "country_code": "MD",
    "zipcode": "MD-3627",
    "place": "Buciumeni Loc.C.F.",
    "state": "Ungheni",
    "state_code": "",
    "province": "",
    "province_code": "",
    "community": "",
    "community_code": "",
    "latitude": "47.3706",
    "longitude": "27.7136"
  },
  {
    "country_code": "MD",
    "zipcode": "MD-3627",
    "place": "Buciumeni",
    "state": "Ungheni",
    "state_code": "",
    "province": "",
    "province_code": "",
    "community": "",
    "community_code": "",
    "latitude": "47.3706",
    "longitude": "27.7136"
  },
  {
    "country_code": "MD",
    "zipcode": "MD-3628",
    "place": "Frasinesti",
    "state": "Ungheni",
    "state_code": "",
    "province": "",
    "province_code": "",
    "community": "",
    "community_code": "",
    "latitude": "47.0344",
    "longitude": "28.0128"
  },
  {
    "country_code": "MD",
    "zipcode": "MD-3629",
    "place": "Gherman",
    "state": "Ungheni",
    "state_code": "",
    "province": "",
    "province_code": "",
    "community": "",
    "community_code": "",
    "latitude": "47.3594",
    "longitude": "27.6025"
  },
  {
    "country_code": "MD",
    "zipcode": "MD-3630",
    "place": "Graseni",
    "state": "Ungheni",
    "state_code": "",
    "province": "",
    "province_code": "",
    "community": "",
    "community_code": "",
    "latitude": "47.3503",
    "longitude": "27.8353"
  },
  {
    "country_code": "MD",
    "zipcode": "MD-3631",
    "place": "Hircesti",
    "state": "Ungheni",
    "state_code": "",
    "province": "",
    "province_code": "",
    "community": "",
    "community_code": "",
    "latitude": "47.3953",
    "longitude": "28.0864"
  },
  {
    "country_code": "MD",
    "zipcode": "MD-3631",
    "place": "Leordoaia",
    "state": "Ungheni",
    "state_code": "",
    "province": "",
    "province_code": "",
    "community": "",
    "community_code": "",
    "latitude": "47.3367",
    "longitude": "28.1406"
  },
  {
    "country_code": "MD",
    "zipcode": "MD-3631",
    "place": "Veverita",
    "state": "Calarasi",
    "state_code": "",
    "province": "",
    "province_code": "",
    "community": "",
    "community_code": "",
    "latitude": "47.3442",
    "longitude": "28.1056"
  },
  {
    "country_code": "MD",
    "zipcode": "MD-3632",
    "place": "Macaresti",
    "state": "Ungheni",
    "state_code": "",
    "province": "",
    "province_code": "",
    "community": "",
    "community_code": "",
    "latitude": "47.05",
    "longitude": "27.9747"
  },
  {
    "country_code": "MD",
    "zipcode": "MD-3633",
    "place": "Magurele",
    "state": "Ungheni",
    "state_code": "",
    "province": "",
    "province_code": "",
    "community": "",
    "community_code": "",
    "latitude": "47.4608",
    "longitude": "27.9711"
  },
  {
    "country_code": "MD",
    "zipcode": "MD-3634",
    "place": "Vulpesti",
    "state": "Ungheni",
    "state_code": "",
    "province": "",
    "province_code": "",
    "community": "",
    "community_code": "",
    "latitude": "47.2358",
    "longitude": "27.9081"
  },
  {
    "country_code": "MD",
    "zipcode": "MD-3634",
    "place": "Manoilesti",
    "state": "Ungheni",
    "state_code": "",
    "province": "",
    "province_code": "",
    "community": "",
    "community_code": "",
    "latitude": "47.2367",
    "longitude": "27.8831"
  },
  {
    "country_code": "MD",
    "zipcode": "MD-3635",
    "place": "Medeleni",
    "state": "Ungheni",
    "state_code": "",
    "province": "",
    "province_code": "",
    "community": "",
    "community_code": "",
    "latitude": "47.2956",
    "longitude": "27.6908"
  },
  {
    "country_code": "MD",
    "zipcode": "MD-3636",
    "place": "Minzatesti",
    "state": "Ungheni",
    "state_code": "",
    "province": "",
    "province_code": "",
    "community": "",
    "community_code": "",
    "latitude": "47.3942",
    "longitude": "28.065"
  },
  {
    "country_code": "MD",
    "zipcode": "MD-3637",
    "place": "Morenii Noi",
    "state": "Ungheni",
    "state_code": "",
    "province": "",
    "province_code": "",
    "community": "",
    "community_code": "",
    "latitude": "47.1219",
    "longitude": "27.9197"
  },
  {
    "country_code": "MD",
    "zipcode": "MD-3637",
    "place": "Sicovat",
    "state": "Ungheni",
    "state_code": "",
    "province": "",
    "province_code": "",
    "community": "",
    "community_code": "",
    "latitude": "47.1061",
    "longitude": "27.9086"
  },
  {
    "country_code": "MD",
    "zipcode": "MD-3637",
    "place": "Morenii Vechi",
    "state": "Ungheni",
    "state_code": "",
    "province": "",
    "province_code": "",
    "community": "",
    "community_code": "",
    "latitude": "47.125",
    "longitude": "27.8847"
  },
  {
    "country_code": "MD",
    "zipcode": "MD-3638",
    "place": "Napadeni",
    "state": "Ungheni",
    "state_code": "",
    "province": "",
    "province_code": "",
    "community": "",
    "community_code": "",
    "latitude": "47.4025",
    "longitude": "28.1506"
  },
  {
    "country_code": "MD",
    "zipcode": "MD-3639",
    "place": "Zazulenii Vechi",
    "state": "Ungheni",
    "state_code": "",
    "province": "",
    "province_code": "",
    "community": "",
    "community_code": "",
    "latitude": "47.4114",
    "longitude": "27.8561"
  },
  {
    "country_code": "MD",
    "zipcode": "MD-3639",
    "place": "Negurenii Vechi",
    "state": "Ungheni",
    "state_code": "",
    "province": "",
    "province_code": "",
    "community": "",
    "community_code": "",
    "latitude": "47.4161",
    "longitude": "27.8797"
  },
  {
    "country_code": "MD",
    "zipcode": "MD-3639",
    "place": "Zazulenii Noi",
    "state": "Ungheni",
    "state_code": "",
    "province": "",
    "province_code": "",
    "community": "",
    "community_code": "",
    "latitude": "47.3819",
    "longitude": "27.8706"
  },
  {
    "country_code": "MD",
    "zipcode": "MD-3639",
    "place": "Negurenii Noi",
    "state": "Ungheni",
    "state_code": "",
    "province": "",
    "province_code": "",
    "community": "",
    "community_code": "",
    "latitude": "47.4003",
    "longitude": "27.8886"
  },
  {
    "country_code": "MD",
    "zipcode": "MD-3640",
    "place": "Petresti Loc.C.F.",
    "state": "Ungheni",
    "state_code": "",
    "province": "",
    "province_code": "",
    "community": "",
    "community_code": "",
    "latitude": "47.3067",
    "longitude": "27.7453"
  },
  {
    "country_code": "MD",
    "zipcode": "MD-3640",
    "place": "Petresti",
    "state": "Ungheni",
    "state_code": "",
    "province": "",
    "province_code": "",
    "community": "",
    "community_code": "",
    "latitude": "47.3067",
    "longitude": "27.7453"
  },
  {
    "country_code": "MD",
    "zipcode": "MD-3641",
    "place": "Hristoforovca",
    "state": "Ungheni",
    "state_code": "",
    "province": "",
    "province_code": "",
    "community": "",
    "community_code": "",
    "latitude": "47.3547",
    "longitude": "27.9183"
  },
  {
    "country_code": "MD",
    "zipcode": "MD-3641",
    "place": "Pirlita",
    "state": "Ungheni",
    "state_code": "",
    "province": "",
    "province_code": "",
    "community": "",
    "community_code": "",
    "latitude": "47.3194",
    "longitude": "27.8733"
  },
  {
    "country_code": "MD",
    "zipcode": "MD-3642",
    "place": "Radenii Vechi",
    "state": "Ungheni",
    "state_code": "",
    "province": "",
    "province_code": "",
    "community": "",
    "community_code": "",
    "latitude": "47.2969",
    "longitude": "28"
  },
  {
    "country_code": "MD",
    "zipcode": "MD-3643",
    "place": "Rezina",
    "state": "Ungheni",
    "state_code": "",
    "province": "",
    "province_code": "",
    "community": "",
    "community_code": "",
    "latitude": "47.2144",
    "longitude": "27.8756"
  },
  {
    "country_code": "MD",
    "zipcode": "MD-3644",
    "place": "Sculeni",
    "state": "Ungheni",
    "state_code": "",
    "province": "",
    "province_code": "",
    "community": "",
    "community_code": "",
    "latitude": "47.3228",
    "longitude": "27.6314"
  },
  {
    "country_code": "MD",
    "zipcode": "MD-3644",
    "place": "Blindesti",
    "state": "Ungheni",
    "state_code": "",
    "province": "",
    "province_code": "",
    "community": "",
    "community_code": "",
    "latitude": "47.3131",
    "longitude": "27.6692"
  },
  {
    "country_code": "MD",
    "zipcode": "MD-3644",
    "place": "Floreni",
    "state": "Ungheni",
    "state_code": "",
    "province": "",
    "province_code": "",
    "community": "",
    "community_code": "",
    "latitude": "47.3464",
    "longitude": "27.6639"
  },
  {
    "country_code": "MD",
    "zipcode": "MD-3645",
    "place": "Semeni",
    "state": "Ungheni",
    "state_code": "",
    "province": "",
    "province_code": "",
    "community": "",
    "community_code": "",
    "latitude": "47.2686",
    "longitude": "27.7519"
  },
  {
    "country_code": "MD",
    "zipcode": "MD-3646",
    "place": "Sinesti",
    "state": "Ungheni",
    "state_code": "",
    "province": "",
    "province_code": "",
    "community": "",
    "community_code": "",
    "latitude": "47.3908",
    "longitude": "28.0489"
  },
  {
    "country_code": "MD",
    "zipcode": "MD-3646",
    "place": "Pojarna",
    "state": "Ungheni",
    "state_code": "",
    "province": "",
    "province_code": "",
    "community": "",
    "community_code": "",
    "latitude": "47.335",
    "longitude": "28.0856"
  },
  {
    "country_code": "MD",
    "zipcode": "MD-3647",
    "place": "Bulhac",
    "state": "Ungheni",
    "state_code": "",
    "province": "",
    "province_code": "",
    "community": "",
    "community_code": "",
    "latitude": "47.4281",
    "longitude": "27.7425"
  },
  {
    "country_code": "MD",
    "zipcode": "MD-3647",
    "place": "Stolniceni",
    "state": "Ungheni",
    "state_code": "",
    "province": "",
    "province_code": "",
    "community": "",
    "community_code": "",
    "latitude": "47.4111",
    "longitude": "27.7139"
  },
  {
    "country_code": "MD",
    "zipcode": "MD-3648",
    "place": "Tescureni",
    "state": "Ungheni",
    "state_code": "",
    "province": "",
    "province_code": "",
    "community": "",
    "community_code": "",
    "latitude": "47.4117",
    "longitude": "27.9531"
  },
  {
    "country_code": "MD",
    "zipcode": "MD-3649",
    "place": "Todiresti",
    "state": "Ungheni",
    "state_code": "",
    "province": "",
    "province_code": "",
    "community": "",
    "community_code": "",
    "latitude": "47.3186",
    "longitude": "27.82"
  },
  {
    "country_code": "MD",
    "zipcode": "MD-3650",
    "place": "Untesti",
    "state": "Ungheni",
    "state_code": "",
    "province": "",
    "province_code": "",
    "community": "",
    "community_code": "",
    "latitude": "47.2436",
    "longitude": "27.8228"
  },
  {
    "country_code": "MD",
    "zipcode": "MD-3651",
    "place": "Valea Mare",
    "state": "Ungheni",
    "state_code": "",
    "province": "",
    "province_code": "",
    "community": "",
    "community_code": "",
    "latitude": "47.1353",
    "longitude": "27.8608"
  },
  {
    "country_code": "MD",
    "zipcode": "MD-3651",
    "place": "Buzduganii De Jos",
    "state": "Ungheni",
    "state_code": "",
    "province": "",
    "province_code": "",
    "community": "",
    "community_code": "",
    "latitude": "47.1436",
    "longitude": "27.8194"
  },
  {
    "country_code": "MD",
    "zipcode": "MD-3651",
    "place": "Buzduganii De Sus",
    "state": "Ungheni",
    "state_code": "",
    "province": "",
    "province_code": "",
    "community": "",
    "community_code": "",
    "latitude": "47.1608",
    "longitude": "27.8625"
  },
  {
    "country_code": "MD",
    "zipcode": "MD-3652",
    "place": "Zagarancea",
    "state": "Ungheni",
    "state_code": "",
    "province": "",
    "province_code": "",
    "community": "",
    "community_code": "",
    "latitude": "47.2425",
    "longitude": "27.7611"
  },
  {
    "country_code": "MD",
    "zipcode": "MD-3701",
    "place": "Straseni 1",
    "state": "Straseni",
    "state_code": "",
    "province": "",
    "province_code": "",
    "community": "",
    "community_code": "",
    "latitude": "47.1414",
    "longitude": "28.6103"
  },
  {
    "country_code": "MD",
    "zipcode": "MD-3702",
    "place": "Straseni 2",
    "state": "Straseni",
    "state_code": "",
    "province": "",
    "province_code": "",
    "community": "",
    "community_code": "",
    "latitude": "47.1414",
    "longitude": "28.6103"
  },
  {
    "country_code": "MD",
    "zipcode": "MD-3703",
    "place": "Fagureni",
    "state": "Straseni",
    "state_code": "",
    "province": "",
    "province_code": "",
    "community": "",
    "community_code": "",
    "latitude": "47.1453",
    "longitude": "28.5628"
  },
  {
    "country_code": "MD",
    "zipcode": "MD-3711",
    "place": "Bucovat",
    "state": "Straseni",
    "state_code": "",
    "province": "",
    "province_code": "",
    "community": "",
    "community_code": "",
    "latitude": "47.1886",
    "longitude": "28.4569"
  },
  {
    "country_code": "MD",
    "zipcode": "MD-3712",
    "place": "Capriana",
    "state": "Straseni",
    "state_code": "",
    "province": "",
    "province_code": "",
    "community": "",
    "community_code": "",
    "latitude": "47.1175",
    "longitude": "28.5044"
  },
  {
    "country_code": "MD",
    "zipcode": "MD-3713",
    "place": "Chirianca",
    "state": "Straseni",
    "state_code": "",
    "province": "",
    "province_code": "",
    "community": "",
    "community_code": "",
    "latitude": "47.2558",
    "longitude": "28.5328"
  },
  {
    "country_code": "MD",
    "zipcode": "MD-3714",
    "place": "Lupa-Recea",
    "state": "Straseni",
    "state_code": "",
    "province": "",
    "province_code": "",
    "community": "",
    "community_code": "",
    "latitude": "47.3128",
    "longitude": "28.5925"
  },
  {
    "country_code": "MD",
    "zipcode": "MD-3714",
    "place": "Codreanca",
    "state": "Straseni",
    "state_code": "",
    "province": "",
    "province_code": "",
    "community": "",
    "community_code": "",
    "latitude": "47.2867",
    "longitude": "28.5897"
  },
  {
    "country_code": "MD",
    "zipcode": "MD-3715",
    "place": "Cojusna",
    "state": "Straseni",
    "state_code": "",
    "province": "",
    "province_code": "",
    "community": "",
    "community_code": "",
    "latitude": "47.0928",
    "longitude": "28.6581"
  },
  {
    "country_code": "MD",
    "zipcode": "MD-3716",
    "place": "Draguseni",
    "state": "Straseni",
    "state_code": "",
    "province": "",
    "province_code": "",
    "community": "",
    "community_code": "",
    "latitude": "47.2142",
    "longitude": "28.6642"
  },
  {
    "country_code": "MD",
    "zipcode": "MD-3717",
    "place": "Galesti",
    "state": "Straseni",
    "state_code": "",
    "province": "",
    "province_code": "",
    "community": "",
    "community_code": "",
    "latitude": "47.2281",
    "longitude": "28.4981"
  },
  {
    "country_code": "MD",
    "zipcode": "MD-3717",
    "place": "Galestii Noi",
    "state": "Straseni",
    "state_code": "",
    "province": "",
    "province_code": "",
    "community": "",
    "community_code": "",
    "latitude": "47.2075",
    "longitude": "28.4956"
  },
  {
    "country_code": "MD",
    "zipcode": "MD-3718",
    "place": "Saca",
    "state": "Straseni",
    "state_code": "",
    "province": "",
    "province_code": "",
    "community": "",
    "community_code": "",
    "latitude": "47.1942",
    "longitude": "28.6108"
  },
  {
    "country_code": "MD",
    "zipcode": "MD-3718",
    "place": "Ghelauza",
    "state": "Straseni",
    "state_code": "",
    "province": "",
    "province_code": "",
    "community": "",
    "community_code": "",
    "latitude": "47.1936",
    "longitude": "28.5967"
  },
  {
    "country_code": "MD",
    "zipcode": "MD-3719",
    "place": "Gornoe",
    "state": "Straseni",
    "state_code": "",
    "province": "",
    "province_code": "",
    "community": "",
    "community_code": "",
    "latitude": "47.1907",
    "longitude": "28.7798"
  },
  {
    "country_code": "MD",
    "zipcode": "MD-3720",
    "place": "Greblesi",
    "state": "Straseni",
    "state_code": "",
    "province": "",
    "province_code": "",
    "community": "",
    "community_code": "",
    "latitude": "47.2353",
    "longitude": "28.6069"
  },
  {
    "country_code": "MD",
    "zipcode": "MD-3720",
    "place": "Martinesti",
    "state": "Straseni",
    "state_code": "",
    "province": "",
    "province_code": "",
    "community": "",
    "community_code": "",
    "latitude": "47.2353",
    "longitude": "28.6069"
  },
  {
    "country_code": "MD",
    "zipcode": "MD-3721",
    "place": "Lozova",
    "state": "Straseni",
    "state_code": "",
    "province": "",
    "province_code": "",
    "community": "",
    "community_code": "",
    "latitude": "47.1328",
    "longitude": "28.3858"
  },
  {
    "country_code": "MD",
    "zipcode": "MD-3721",
    "place": "Stejareni",
    "state": "Straseni",
    "state_code": "",
    "province": "",
    "province_code": "",
    "community": "",
    "community_code": "",
    "latitude": "47.1061",
    "longitude": "28.4164"
  },
  {
    "country_code": "MD",
    "zipcode": "MD-3722",
    "place": "Micauti",
    "state": "Straseni",
    "state_code": "",
    "province": "",
    "province_code": "",
    "community": "",
    "community_code": "",
    "latitude": "47.1722",
    "longitude": "28.7489"
  },
  {
    "country_code": "MD",
    "zipcode": "MD-3723",
    "place": "Negresti",
    "state": "Straseni",
    "state_code": "",
    "province": "",
    "province_code": "",
    "community": "",
    "community_code": "",
    "latitude": "47.1778",
    "longitude": "28.6247"
  },
  {
    "country_code": "MD",
    "zipcode": "MD-3724",
    "place": "Onesti",
    "state": "Straseni",
    "state_code": "",
    "province": "",
    "province_code": "",
    "community": "",
    "community_code": "",
    "latitude": "47.2786",
    "longitude": "28.5511"
  },
  {
    "country_code": "MD",
    "zipcode": "MD-3725",
    "place": "Ciobanca",
    "state": "Straseni",
    "state_code": "",
    "province": "",
    "province_code": "",
    "community": "",
    "community_code": "",
    "latitude": "47.145",
    "longitude": "28.5022"
  },
  {
    "country_code": "MD",
    "zipcode": "MD-3725",
    "place": "Panasesti",
    "state": "Straseni",
    "state_code": "",
    "province": "",
    "province_code": "",
    "community": "",
    "community_code": "",
    "latitude": "47.1531",
    "longitude": "28.5186"
  },
  {
    "country_code": "MD",
    "zipcode": "MD-3726",
    "place": "Radeni",
    "state": "Straseni",
    "state_code": "",
    "province": "",
    "province_code": "",
    "community": "",
    "community_code": "",
    "latitude": "47.2067",
    "longitude": "28.6992"
  },
  {
    "country_code": "MD",
    "zipcode": "MD-3727",
    "place": "Recea",
    "state": "Straseni",
    "state_code": "",
    "province": "",
    "province_code": "",
    "community": "",
    "community_code": "",
    "latitude": "47.2217",
    "longitude": "28.5806"
  },
  {
    "country_code": "MD",
    "zipcode": "MD-3728",
    "place": "Romanesti",
    "state": "Straseni",
    "state_code": "",
    "province": "",
    "province_code": "",
    "community": "",
    "community_code": "",
    "latitude": "47.2258",
    "longitude": "28.7111"
  },
  {
    "country_code": "MD",
    "zipcode": "MD-3729",
    "place": "Roscani",
    "state": "Straseni",
    "state_code": "",
    "province": "",
    "province_code": "",
    "community": "",
    "community_code": "",
    "latitude": "47.1475",
    "longitude": "28.6778"
  },
  {
    "country_code": "MD",
    "zipcode": "MD-3730",
    "place": "Scoreni",
    "state": "Straseni",
    "state_code": "",
    "province": "",
    "province_code": "",
    "community": "",
    "community_code": "",
    "latitude": "47.0647",
    "longitude": "28.6086"
  },
  {
    "country_code": "MD",
    "zipcode": "MD-3731",
    "place": "Sireti",
    "state": "Straseni",
    "state_code": "",
    "province": "",
    "province_code": "",
    "community": "",
    "community_code": "",
    "latitude": "47.1339",
    "longitude": "28.7142"
  },
  {
    "country_code": "MD",
    "zipcode": "MD-3732",
    "place": "Tataresti",
    "state": "Straseni",
    "state_code": "",
    "province": "",
    "province_code": "",
    "community": "",
    "community_code": "",
    "latitude": "47.2044",
    "longitude": "28.5386"
  },
  {
    "country_code": "MD",
    "zipcode": "MD-3733",
    "place": "Truseni",
    "state": "Mun.Chisinau",
    "state_code": "",
    "province": "",
    "province_code": "",
    "community": "",
    "community_code": "",
    "latitude": "47.0689",
    "longitude": "28.6797"
  },
  {
    "country_code": "MD",
    "zipcode": "MD-3734",
    "place": "Tiganesti",
    "state": "Straseni",
    "state_code": "",
    "province": "",
    "province_code": "",
    "community": "",
    "community_code": "",
    "latitude": "47.2989",
    "longitude": "28.5522"
  },
  {
    "country_code": "MD",
    "zipcode": "MD-3735",
    "place": "Voinova",
    "state": "Straseni",
    "state_code": "",
    "province": "",
    "province_code": "",
    "community": "",
    "community_code": "",
    "latitude": "47.2706",
    "longitude": "28.4872"
  },
  {
    "country_code": "MD",
    "zipcode": "MD-3736",
    "place": "Vorniceni",
    "state": "Straseni",
    "state_code": "",
    "province": "",
    "province_code": "",
    "community": "",
    "community_code": "",
    "latitude": "47.1497",
    "longitude": "28.4294"
  },
  {
    "country_code": "MD",
    "zipcode": "MD-3737",
    "place": "Vorniceni-1",
    "state": "Straseni",
    "state_code": "",
    "province": "",
    "province_code": "",
    "community": "",
    "community_code": "",
    "latitude": "47.1497",
    "longitude": "28.4294"
  },
  {
    "country_code": "MD",
    "zipcode": "MD-3738",
    "place": "Zamciogi",
    "state": "Straseni",
    "state_code": "",
    "province": "",
    "province_code": "",
    "community": "",
    "community_code": "",
    "latitude": "47.2044",
    "longitude": "28.7233"
  },
  {
    "country_code": "MD",
    "zipcode": "MD-3739",
    "place": "Zubresti",
    "state": "Straseni",
    "state_code": "",
    "province": "",
    "province_code": "",
    "community": "",
    "community_code": "",
    "latitude": "47.2386",
    "longitude": "28.5258"
  },
  {
    "country_code": "MD",
    "zipcode": "MD-3801",
    "place": "Comrat 1",
    "state": "Comrat",
    "state_code": "",
    "province": "",
    "province_code": "",
    "community": "",
    "community_code": "",
    "latitude": "46.3003",
    "longitude": "28.6572"
  },
  {
    "country_code": "MD",
    "zipcode": "MD-3802",
    "place": "Comrat 2",
    "state": "Comrat",
    "state_code": "",
    "province": "",
    "province_code": "",
    "community": "",
    "community_code": "",
    "latitude": "46.3003",
    "longitude": "28.6572"
  },
  {
    "country_code": "MD",
    "zipcode": "MD-3805",
    "place": "Comrat 5",
    "state": "Comrat",
    "state_code": "",
    "province": "",
    "province_code": "",
    "community": "",
    "community_code": "",
    "latitude": "46.3003",
    "longitude": "28.6572"
  },
  {
    "country_code": "MD",
    "zipcode": "MD-3811",
    "place": "Besalma",
    "state": "Comrat",
    "state_code": "",
    "province": "",
    "province_code": "",
    "community": "",
    "community_code": "",
    "latitude": "46.1728",
    "longitude": "28.6483"
  },
  {
    "country_code": "MD",
    "zipcode": "MD-3812",
    "place": "Bugeac",
    "state": "Comrat",
    "state_code": "",
    "province": "",
    "province_code": "",
    "community": "",
    "community_code": "",
    "latitude": "46.3658",
    "longitude": "28.6633"
  },
  {
    "country_code": "MD",
    "zipcode": "MD-3813",
    "place": "Chirsova",
    "state": "Comrat",
    "state_code": "",
    "province": "",
    "province_code": "",
    "community": "",
    "community_code": "",
    "latitude": "46.2339",
    "longitude": "28.6481"
  },
  {
    "country_code": "MD",
    "zipcode": "MD-3814",
    "place": "Chioselia Rusa",
    "state": "Comrat",
    "state_code": "",
    "province": "",
    "province_code": "",
    "community": "",
    "community_code": "",
    "latitude": "46.0833",
    "longitude": "28.5164"
  },
  {
    "country_code": "MD",
    "zipcode": "MD-3815",
    "place": "Congaz 1",
    "state": "Comrat",
    "state_code": "",
    "province": "",
    "province_code": "",
    "community": "",
    "community_code": "",
    "latitude": "46.1606",
    "longitude": "28.5136"
  },
  {
    "country_code": "MD",
    "zipcode": "MD-3815",
    "place": "Cirlaneni",
    "state": "Comrat",
    "state_code": "",
    "province": "",
    "province_code": "",
    "community": "",
    "community_code": "",
    "latitude": "46.1606",
    "longitude": "28.5136"
  },