<?xml version="1.0" encoding="UTF-8"?>
<zipcodes>
  <object>
    <country_code>SM</country_code>
    <zipcode>47890</zipcode>
    <place>Casole</place>
    <state></state>
    <state_code></state_code>
    <province></province>
    <province_code></province_code>
    <community></community>
    <community_code></community_code>
    <latitude>43.9267</latitude>
    <longitude>12.4507</longitude>
  </object>
  <object>
    <country_code>SM</country_code>
    <zipcode>47890</zipcode>
    <place>San Marino</place>
    <state></state>
    <state_code></state_code>
    <province></province>
    <province_code></province_code>
    <community></community>
    <community_code></community_code>
    <latitude>43.9333</latitude>
    <longitude>12.45</longitude>
  </object>
  <object>
    <country_code>SM</country_code>
    <zipcode>47890</zipcode>
    <place>Murata</place>
    <state></state>
    <state_code></state_code>
    <province></province>
    <province_code></province_code>
    <community></community>
    <community_code></community_code>
    <latitude>43.9202</latitude>
    <longitude>12.4515</longitude>
  </object>
  <object>
    <country_code>SM</country_code>
    <zipcode>47890</zipcode>
    <place>Santa Mustiola</place>
    <state></state>
    <state_code></state_code>
    <province></province>
    <province_code></province_code>
    <community></community>
    <community_code></community_code>
    <latitude>43.9267</latitude>
    <longitude>12.4507</longitude>
  </object>
  <object>
    <country_code>SM</country_code>
    <zipcode>47891</zipcode>
    <place>Dogana</place>
    <state></state>
    <state_code></state_code>
    <province></province>
    <province_code></province_code>
    <community></community>
    <community_code></community_code>
    <latitude>43.9803</latitude>
    <longitude>12.4905</longitude>
  </object>
  <object>
    <country_code>SM</country_code>
    <zipcode>47891</zipcode>
    <place>Rovereta</place>
    <state></state>
    <state_code></state_code>
    <province></province>
    <province_code></province_code>
    <community></community>
    <community_code></community_code>
    <latitude>43.9818</latitude>
    <longitude>12.4953</longitude>
  </object>
  <object>
    <country_code>SM</country_code>
    <zipcode>47891</zipcode>
    <place>Galazzano</place>
    <state></state>
    <state_code></state_code>
    <province></province>
    <province_code></province_code>
    <community></community>
    <community_code></community_code>
    <latitude>43.9818</latitude>
    <longitude>12.4953</longitude>
  </object>
  <object>
    <country_code>SM</country_code>
    <zipcode>47891</zipcode>
    <place>Falciano</place>
    <state></state>
    <state_code></state_code>
    <province></province>
    <province_code></province_code>
    <community></community>
    <community_code></community_code>
    <latitude>43.9833</latitude>
    <longitude>12.5</longitude>
  </object>
  <object>
    <country_code>SM</country_code>
    <zipcode>47892</zipcode>
    <place>Gualdicciolo</place>
    <state></state>
    <state_code></state_code>
    <province></province>
    <province_code></province_code>
    <community></community>
    <community_code></community_code>
    <latitude>43.9498</latitude>
    <longitude>12.4073</longitude>
  </object>
  <object>
    <country_code>SM</country_code>
    <zipcode>47892</zipcode>
    <place>Acquaviva</place>
    <state></state>
    <state_code></state_code>
    <province></province>
    <province_code></province_code>
    <community></community>
    <community_code></community_code>
    <latitude>43.95</latitude>
    <longitude>12.4167</longitude>
  </object>
  <object>
    <country_code>SM</country_code>
    <zipcode>47893</zipcode>
    <place>Ca' Rigo</place>
    <state></state>
    <state_code></state_code>
    <province></province>
    <province_code></province_code>
    <community></community>
    <community_code></community_code>
    <latitude>43.9419</latitude>
    <longitude>12.4474</longitude>
  </object>
  <object>
    <country_code>SM</country_code>
    <zipcode>47893</zipcode>
    <place>Ventoso</place>
    <state></state>
    <state_code></state_code>
    <province></province>
    <province_code></province_code>
    <community></community>
    <community_code></community_code>
    <latitude>43.9419</latitude>
    <longitude>12.4474</longitude>
  </object>
  <object>
    <country_code>SM</country_code>
    <zipcode>47893</zipcode>
    <place>Borgo Maggiore</place>
    <state></state>
    <state_code></state_code>
    <province></province>
    <province_code></province_code>
    <community></community>
    <community_code></community_code>
    <latitude>43.9419</latitude>
    <longitude>12.4474</longitude>
  </object>
  <object>
    <country_code>SM</country_code>
    <zipcode>47893</zipcode>
    <place>Valdragone</place>
    <state></state>
    <state_code></state_code>
    <province></province>
    <province_code></province_code>
    <community></community>
    <community_code></community_code>
    <latitude>43.9419</latitude>
    <longitude>12.4474</longitude>
  </object>
  <object>
    <country_code>SM</country_code>
    <zipcode>47893</zipcode>
    <place>San Giovanni</place>
    <state></state>
    <state_code></state_code>
    <province></province>
    <province_code></province_code>
    <community></community>
    <community_code></community_code>
    <latitude>43.9419</latitude>
    <longitude>12.4474</longitude>
  </object>
  <object>
    <country_code>SM</country_code>
    <zipcode>47893</zipcode>
    <place>Cailungo</place>
    <state></state>
    <state_code></state_code>
    <province></province>
    <province_code></province_code>
    <community></community>
    <community_code></community_code>
    <latitude>43.9419</latitude>
    <longitude>12.4474</longitude>
  </object>
  <object>
    <country_code>SM</country_code>
    <zipcode>47894</zipcode>
    <place>Teglio</place>
    <state></state>
    <state_code></state_code>
    <province></province>
    <province_code></province_code>
    <community></community>
    <community_code></community_code>
    <latitude>43.9167</latitude>
    <longitude>12.4167</longitude>
  </object>
  <object>
    <country_code>SM</country_code>
    <zipcode>47894</zipcode>
    <place>Chiesanuova</place>
    <state></state>
    <state_code></state_code>
    <province></province>
    <province_code></province_code>
    <community></community>
    <community_code></community_code>
    <latitude>43.9167</latitude>
    <longitude>12.4167</longitude>
  </object>
  <object>
    <country_code>SM</country_code>
    <zipcode>47895</zipcode>
    <place>Domagnano</place>
    <state></state>
    <state_code></state_code>
    <province></province>
    <province_code></province_code>
    <community></community>
    <community_code></community_code>
    <latitude>43.9528</latitude>
    <longitude>12.4701</longitude>
  </object>
  <object>
    <country_code>SM</country_code>
    <zipcode>47895</zipcode>
    <place>Torraccia</place>
    <state></state>
    <state_code></state_code>
    <province></province>
    <province_code></province_code>
    <community></community>
    <community_code></community_code>
    <latitude>43.9528</latitude>
    <longitude>12.4701</longitude>
  </object>
  <object>
    <country_code>SM</country_code>
    <zipcode>47896</zipcode>
    <place>Faetano</place>
    <state></state>
    <state_code></state_code>
    <province></province>
    <province_code></province_code>
    <community></community>
    <community_code></community_code>
    <latitude>43.9333</latitude>
    <longitude>12.5</longitude>
  </object>
  <object>
    <country_code>SM</country_code>
    <zipcode>47897</zipcode>
    <place>Fiorentino</place>
    <state></state>
    <state_code></state_code>
    <province></province>
    <province_code></province_code>
    <community></community>
    <community_code></community_code>
    <latitude>43.9</latitude>
    <longitude>12.45</longitude>
  </object>
  <object>
    <country_code>SM</country_code>
    <zipcode>47898</zipcode>
    <place>Montegiardino</place>
    <state></state>
    <state_code></state_code>
    <province></province>
    <province_code></province_code>
    <community></community>
    <community_code></community_code>
    <latitude>43.9</latitude>
    <longitude>12.5</longitude>
  </object>
  <object>
    <country_code>SM</country_code>
    <zipcode>47898</zipcode>
    <place>Cerbaiola</place>
    <state></state>
    <state_code></state_code>
    <province></province>
    <province_code></province_code>
    <community></community>
    <community_code></community_code>
    <latitude>43.9</latitude>
    <longitude>12.5</longitude>
  </object>
  <object>
    <country_code>SM</country_code>
    <zipcode>47899</zipcode>
    <place>Fiorina</place>
    <state></state>
    <state_code></state_code>
    <province></province>
    <province_code></province_code>
    <community></community>
    <community_code></community_code>
    <latitude>43.958</latitude>
    <longitude>12.4769</longitude>
  </object>
  <object>
    <country_code>SM</country_code>
    <zipcode>47899</zipcode>
    <place>Serravalle</place>
    <state></state>
    <state_code></state_code>
    <province></province>
    <province_code></province_code>
    <community></community>
    <community_code></community_code>
    <latitude>43.95</latitude>
    <longitude>12.5</longitude>
  </object>
</zipcodes>
<to_s/>
