<?xml version="1.0" encoding="UTF-8"?>
<zipcodes>
  <object>
    <country_code>GU</country_code>
    <zipcode>96910</zipcode>
    <place>Hagatna</place>
    <state>Gu</state>
    <state_code>66</state_code>
    <province>Guam</province>
    <province_code>010</province_code>
    <community></community>
    <community_code></community_code>
    <latitude>13.452</latitude>
    <longitude>144.7465</longitude>
  </object>
  <object>
    <country_code>GU</country_code>
    <zipcode>96911</zipcode>
    <place>Tamuning</place>
    <state>Gu</state>
    <state_code>66</state_code>
    <province>Guam</province>
    <province_code>010</province_code>
    <community></community>
    <community_code></community_code>
    <latitude>13.4443</latitude>
    <longitude>144.7863</longitude>
  </object>
  <object>
    <country_code>GU</country_code>
    <zipcode>96912</zipcode>
    <place>Dededo</place>
    <state>Gu</state>
    <state_code>66</state_code>
    <province>Guam</province>
    <province_code>010</province_code>
    <community></community>
    <community_code></community_code>
    <latitude>13.4443</latitude>
    <longitude>144.7863</longitude>
  </object>
  <object>
    <country_code>GU</country_code>
    <zipcode>96913</zipcode>
    <place>Barrigada</place>
    <state>Gu</state>
    <state_code>66</state_code>
    <province>Guam</province>
    <province_code>010</province_code>
    <community></community>
    <community_code></community_code>
    <latitude>13.4443</latitude>
    <longitude>144.7863</longitude>
  </object>
  <object>
    <country_code>GU</country_code>
    <zipcode>96914</zipcode>
    <place>Yona</place>
    <state>Gu</state>
    <state_code>66</state_code>
    <province>Guam</province>
    <province_code>010</province_code>
    <community></community>
    <community_code></community_code>
    <latitude>13.4443</latitude>
    <longitude>144.7863</longitude>
  </object>
  <object>
    <country_code>GU</country_code>
    <zipcode>96915</zipcode>
    <place>Santa Rita</place>
    <state>Gu</state>
    <state_code>66</state_code>
    <province>Guam</province>
    <province_code>010</province_code>
    <community></community>
    <community_code></community_code>
    <latitude>13.3633</latitude>
    <longitude>144.7102</longitude>
  </object>
  <object>
    <country_code>GU</country_code>
    <zipcode>96916</zipcode>
    <place>Merizo</place>
    <state>Gu</state>
    <state_code>66</state_code>
    <province>Guam</province>
    <province_code>010</province_code>
    <community></community>
    <community_code></community_code>
    <latitude>13.2637</latitude>
    <longitude>144.7016</longitude>
  </object>
  <object>
    <country_code>GU</country_code>
    <zipcode>96917</zipcode>
    <place>Inarajan</place>
    <state>Gu</state>
    <state_code>66</state_code>
    <province>Guam</province>
    <province_code>010</province_code>
    <community></community>
    <community_code></community_code>
    <latitude>13.2944</latitude>
    <longitude>144.7211</longitude>
  </object>
  <object>
    <country_code>GU</country_code>
    <zipcode>96918</zipcode>
    <place>Umatac</place>
    <state>Gu</state>
    <state_code>66</state_code>
    <province>Guam</province>
    <province_code>010</province_code>
    <community></community>
    <community_code></community_code>
    <latitude>13.4443</latitude>
    <longitude>144.7863</longitude>
  </object>
  <object>
    <country_code>GU</country_code>
    <zipcode>96919</zipcode>
    <place>Agana Heights</place>
    <state>Gu</state>
    <state_code>66</state_code>
    <province>Guam</province>
    <province_code>010</province_code>
    <community></community>
    <community_code></community_code>
    <latitude>13.4443</latitude>
    <longitude>144.7863</longitude>
  </object>
  <object>
    <country_code>GU</country_code>
    <zipcode>96921</zipcode>
    <place>Barrigada</place>
    <state>Gu</state>
    <state_code>66</state_code>
    <province>Guam</province>
    <province_code>010</province_code>
    <community></community>
    <community_code></community_code>
    <latitude>13.4593</latitude>
    <longitude>144.7942</longitude>
  </object>
  <object>
    <country_code>GU</country_code>
    <zipcode>96922</zipcode>
    <place>Asan</place>
    <state>Gu</state>
    <state_code>66</state_code>
    <province>Guam</province>
    <province_code>010</province_code>
    <community></community>
    <community_code></community_code>
    <latitude>13.4443</latitude>
    <longitude>144.7863</longitude>
  </object>
  <object>
    <country_code>GU</country_code>
    <zipcode>96923</zipcode>
    <place>Mangilao</place>
    <state>Gu</state>
    <state_code>66</state_code>
    <province>Guam</province>
    <province_code>010</province_code>
    <community></community>
    <community_code></community_code>
    <latitude>13.4443</latitude>
    <longitude>144.7863</longitude>
  </object>
  <object>
    <country_code>GU</country_code>
    <zipcode>96925</zipcode>
    <place>Piti</place>
    <state>Gu</state>
    <state_code>66</state_code>
    <province>Guam</province>
    <province_code>010</province_code>
    <community></community>
    <community_code></community_code>
    <latitude>13.4443</latitude>
    <longitude>144.7863</longitude>
  </object>
  <object>
    <country_code>GU</country_code>
    <zipcode>96926</zipcode>
    <place>Sinajana</place>
    <state>Gu</state>
    <state_code>66</state_code>
    <province>Guam</province>
    <province_code>010</province_code>
    <community></community>
    <community_code></community_code>
    <latitude>13.4443</latitude>
    <longitude>144.7863</longitude>
  </object>
  <object>
    <country_code>GU</country_code>
    <zipcode>96927</zipcode>
    <place>Mongmong</place>
    <state>Gu</state>
    <state_code>66</state_code>
    <province>Guam</province>
    <province_code>010</province_code>
    <community></community>
    <community_code></community_code>
    <latitude>13.4443</latitude>
    <longitude>144.7863</longitude>
  </object>
  <object>
    <country_code>GU</country_code>
    <zipcode>96928</zipcode>
    <place>Agat</place>
    <state>Gu</state>
    <state_code>66</state_code>
    <province>Guam</province>
    <province_code>010</province_code>
    <community></community>
    <community_code></community_code>
    <latitude>13.3893</latitude>
    <longitude>144.6604</longitude>
  </object>
  <object>
    <country_code>GU</country_code>
    <zipcode>96929</zipcode>
    <place>Yigo</place>
    <state>Gu</state>
    <state_code>66</state_code>
    <province>Guam</province>
    <province_code>010</province_code>
    <community></community>
    <community_code></community_code>
    <latitude>13.5702</latitude>
    <longitude>144.8834</longitude>
  </object>
  <object>
    <country_code>GU</country_code>
    <zipcode>96930</zipcode>
    <place>Talofofo</place>
    <state>Gu</state>
    <state_code>66</state_code>
    <province>Guam</province>
    <province_code>010</province_code>
    <community></community>
    <community_code></community_code>
    <latitude>13.4443</latitude>
    <longitude>144.7863</longitude>
  </object>
  <object>
    <country_code>GU</country_code>
    <zipcode>96931</zipcode>
    <place>Tamuning</place>
    <state>Gu</state>
    <state_code>66</state_code>
    <province>Guam</province>
    <province_code>010</province_code>
    <community></community>
    <community_code></community_code>
    <latitude>13.4443</latitude>
    <longitude>144.7863</longitude>
  </object>
  <object>
    <country_code>GU</country_code>
    <zipcode>96932</zipcode>
    <place>Hagatna</place>
    <state>Gu</state>
    <state_code>66</state_code>
    <province>Guam</province>
    <province_code>010</province_code>
    <community></community>
    <community_code></community_code>
    <latitude>13.4746</latitude>
    <longitude>144.7464</longitude>
  </object>
</zipcodes>
<to_s/>
