country_code,zipcode,place,state,state_code,province,province_code,community,community_code,latitude,longitude
LV,LV-5101,Aizkraukles stacija,Aizkraukles nov.,01,Aizkraukles pag.,0320244,"","",56.6048,25.2553
LV,LV-5101,Aizkraukle,Aizkraukles nov.,01,Aizkraukles pag.,0320244,"","",56.6448,25.2299
LV,LV-5134,Jaunjelgavas,Aizkraukles nov.,01,Jaunjelgavas pag.,0321027,"","",56.4587,25.4858
LV,LV-5111,Daudzese,Aizkraukles nov.,01,Daudzeses pag.,0321050,"","",56.4782,25.2189
LV,LV-5111,Daudzeva,Aizkraukles nov.,01,Daudzeses pag.,0321050,"","",56.4782,25.2189
LV,LV-5124,Ziedāni,Aizkraukles nov.,01,Seces pag.,0321078,"","",56.6114,25.3608
LV,LV-5124,Sece,Aizkraukles nov.,01,Seces pag.,0321078,"","",56.6114,25.3608
LV,LV-5124,Bitāni,Aizkraukles nov.,01,Seces pag.,0321078,"","",56.6114,25.3608
LV,LV-5124,Purviņi,Aizkraukles nov.,01,Seces pag.,0321078,"","",56.6114,25.3608
LV,LV-5123,Mellēni,Aizkraukles nov.,01,Sērenes pag.,0321080,"","",56.6121,25.4802
LV,LV-5123,Dīķi,Aizkraukles nov.,01,Sērenes pag.,0321080,"","",56.6121,25.4802
LV,LV-5123,Talsiņi,Aizkraukles nov.,01,Sērenes pag.,0321080,"","",56.6121,25.4802
LV,LV-5123,Sērene,Aizkraukles nov.,01,Sērenes pag.,0321080,"","",56.6121,25.4802
LV,LV-5123,Lielziedi,Aizkraukles nov.,01,Sērenes pag.,0321080,"","",56.6121,25.4802
LV,LV-5128,Staburags,Aizkraukles nov.,01,Staburaga pag.,0321084,"","",56.5698,25.4976
LV,LV-5130,Sunākste,Aizkraukles nov.,01,Sunākstes pag.,0321086,"","",56.4587,25.4858
LV,LV-5120,Īvāni,Aizkraukles nov.,01,Aiviekstes pag.,0321442,"","",56.6338,25.9095
LV,LV-5120,Krievciems,Aizkraukles nov.,01,Aiviekstes pag.,0321442,"","",56.6338,25.9095
LV,LV-5120,Kriškalni,Aizkraukles nov.,01,Aiviekstes pag.,0321442,"","",56.6338,25.9095
LV,LV-5120,Maiļupsala,Aizkraukles nov.,01,Aiviekstes pag.,0321442,"","",56.6338,25.9095
LV,LV-5120,Ķūģi,Aizkraukles nov.,01,Aiviekstes pag.,0321442,"","",56.6338,25.9095
LV,LV-5129,Rīteri,Aizkraukles nov.,01,Klintaines pag.,0321458,"","",56.6007,25.5127
LV,LV-5129,Stukmaņi,Aizkraukles nov.,01,Klintaines pag.,0321458,"","",56.6007,25.5127
LV,LV-5109,Odziena,Aizkraukles nov.,01,Vietalvas pag.,0321492,"","",56.7115,25.6883
LV,LV-5109,Vietalva,Aizkraukles nov.,01,Vietalvas pag.,0321492,"","",56.7369,25.7667
LV,LV-5135,Vecbebri,Aizkraukles nov.,01,Bebru pag.,0326146,"","",56.4587,25.4858
LV,LV-5108,Irši,Aizkraukles nov.,01,Iršu pag.,0326154,"","",56.7929,25.5937
LV,LV-5113,Bormaņi,Aizkraukles nov.,01,Kokneses pag.,0326160,"","",56.6516,25.4364
LV,LV-5113,Koknese,Aizkraukles nov.,01,Kokneses pag.,0326160,"","",56.6516,25.4364
LV,LV-5133,Ērberģe,Aizkraukles nov.,01,Mazzalves pag.,0327166,"","",56.4587,25.4858
LV,LV-5118,Nereta,Aizkraukles nov.,01,Neretas pag.,0327170,"","",56.2028,25.3075
LV,LV-5110,Pilskalne,Aizkraukles nov.,01,Pilskalnes pag.,0327174,"","",56.1923,25.1717
LV,LV-5112,Vērtūži,Aizkraukles nov.,01,Zalves pag.,0327196,"","",56.2998,25.2113
LV,LV-5112,Zalve,Aizkraukles nov.,01,Zalves pag.,0327196,"","",56.3266,25.2468
LV,LV-5112,Sproģi,Aizkraukles nov.,01,Zalves pag.,0327196,"","",56.273,25.1758
LV,LV-5125,Zemkopības institūts,Aizkraukles nov.,01,"","","","",56.645,25.1206
LV,LV-5125,Klidziņa,Aizkraukles nov.,01,"","","","",56.645,25.1206
LV,LV-5125,Ziedugravas,Aizkraukles nov.,01,"","","","",56.645,25.1206
LV,LV-5125,Skrīveri,Aizkraukles nov.,01,"","","","",56.645,25.1206
LV,LV-5125,Līči,Aizkraukles nov.,01,"","","","",56.645,25.1206
LV,LV-4301,Aizupītes,Alūksnes nov.,02,Alsviķu pag.,0360242,"","",57.4183,27.0006
LV,LV-4333,Alsviķi,Alūksnes nov.,02,Alsviķu pag.,0360242,"","",57.4443,26.9381
LV,LV-4333,Pullans,Alūksnes nov.,02,Alsviķu pag.,0360242,"","",57.4252,26.9145
LV,LV-4333,Strautiņi,Alūksnes nov.,02,Alsviķu pag.,0360242,"","",57.4061,26.8908
LV,LV-4341,Anna,Alūksnes nov.,02,Annas pag.,0360244,"","",57.3333,27.0333
LV,LV-4344,Jaunzemi,Alūksnes nov.,02,Ilzenes pag.,0360252,"","",57.3726,26.6758
LV,LV-4350,Beja,Alūksnes nov.,02,Jaunalūksnes pag.,0360256,"","",57.4005,27.2064
LV,LV-4350,Kolberģis,Alūksnes nov.,02,Jaunalūksnes pag.,0360256,"","",57.4387,27.1158
LV,LV-4340,Jaunanna,Alūksnes nov.,02,Jaunannas pag.,0360258,"","",57.2838,27.0684
LV,LV-4336,Jaunlaicene,Alūksnes nov.,02,Jaunlaicenes pag.,0360260,"","",57.5272,26.8704
LV,LV-4342,Kalncempji,Alūksnes nov.,02,Kalncempju pag.,0360264,"","",57.3234,26.8856
LV,LV-4354,Liepna,Alūksnes nov.,02,Liepnas pag.,0360268,"","",57.3432,27.4716
LV,LV-4359,Brenci,Alūksnes nov.,02,Malienas pag.,0360272,"","",57.362,27.1639
LV,LV-4358,Mālupe,Alūksnes nov.,02,Mālupes pag.,0360274,"","",57.3383,27.2346
LV,LV-4358,Sofikalns,Alūksnes nov.,02,Mālupes pag.,0360274,"","",57.3267,27.3127
LV,LV-4351,Mārkalne,Alūksnes nov.,02,Mārkalnes pag.,0360276,"","",57.4912,27.1944
LV,LV-4352,Pededze,Alūksnes nov.,02,Pededzes pag.,0360280,"","",57.4762,27.4402
LV,LV-4335,Korneti,Alūksnes nov.,02,Veclaicenes pag.,0360288,"","",57.5933,26.9445
LV,LV-4345,Zeltiņi,Alūksnes nov.,02,Zeltiņu pag.,0360294,"","",57.359,26.7771
LV,LV-4332,Māriņkalns,Alūksnes nov.,02,Ziemera pag.,0360296,"","",57.4875,26.9768
LV,LV-4332,Ziemeri,Alūksnes nov.,02,Ziemera pag.,0360296,"","",57.5334,27.0614
LV,LV-4501,Vaņki,Balvu nov.,03,Balvu pag.,0380246,"","",57.1466,27.3787
LV,LV-4501,Verpuļeva,Balvu nov.,03,Balvu pag.,0380246,"","",57.1466,27.3787
LV,LV-4501,Lemešava,Balvu nov.,03,Balvu pag.,0380246,"","",57.1466,27.3787
LV,LV-4501,Salmaņi,Balvu nov.,03,Balvu pag.,0380246,"","",57.1466,27.3787
LV,LV-4501,Žaugupe,Balvu nov.,03,Balvu pag.,0380246,"","",57.1466,27.3787
LV,LV-4501,Centramuiža,Balvu nov.,03,Balvu pag.,0380246,"","",57.1163,27.2589
LV,LV-4501,Stepjugabali,Balvu nov.,03,Balvu pag.,0380246,"","",57.1466,27.3787
LV,LV-4561,Lāčugabali,Balvu nov.,03,Balvu pag.,0380246,"","",57.0862,27.2173
LV,LV-4561,Mēķi,Balvu nov.,03,Balvu pag.,0380246,"","",57.11,27.2067
LV,LV-4561,Dobenieki,Balvu nov.,03,Balvu pag.,0380246,"","",57.0862,27.2173
LV,LV-4561,Lācupe,Balvu nov.,03,Balvu pag.,0380246,"","",57.0862,27.2173
LV,LV-4561,Dzeņulauza,Balvu nov.,03,Balvu pag.,0380246,"","",57.0862,27.2173
LV,LV-4561,Keņi,Balvu nov.,03,Balvu pag.,0380246,"","",57.0862,27.2173
LV,LV-4561,Reči,Balvu nov.,03,Balvu pag.,0380246,"","",57.1016,27.1878
LV,LV-4561,Naudaskalns,Balvu nov.,03,Balvu pag.,0380246,"","",57.0856,27.2355
LV,LV-4561,Dūrupe,Balvu nov.,03,Balvu pag.,0380246,"","",57.0809,27.127
LV,LV-4561,Kārklinieki,Balvu nov.,03,Balvu pag.,0380246,"","",57.0791,27.2258
LV,LV-4561,Āžudambis,Balvu nov.,03,Balvu pag.,0380246,"","",57.0862,27.2173
LV,LV-4561,Plītinava,Balvu nov.,03,Balvu pag.,0380246,"","",57.0766,27.2821
LV,LV-4561,Silamala,Balvu nov.,03,Balvu pag.,0380246,"","",57.0939,27.17
LV,LV-4561,Ozolsala,Balvu nov.,03,Balvu pag.,0380246,"","",57.062,27.3037
LV,LV-4561,Rāvusala,Balvu nov.,03,Balvu pag.,0380246,"","",57.0862,27.2173
LV,LV-4561,Pilskalns,Balvu nov.,03,Balvu pag.,0380246,"","",57.0862,27.2173
LV,LV-4501,Lemešava,Balvu nov.,03,Bērzkalnes pag.,0380248,"","",57.1466,27.3787
LV,LV-4501,Šūcene,Balvu nov.,03,Bērzkalnes pag.,0380248,"","",57.1466,27.3787
LV,LV-4501,Dubļava,Balvu nov.,03,Bērzkalnes pag.,0380248,"","",57.1222,27.3379
LV,LV-4501,Lazdukalns,Balvu nov.,03,Bērzkalnes pag.,0380248,"","",57.1466,27.3787
LV,LV-4501,Režgaļi,Balvu nov.,03,Bērzkalnes pag.,0380248,"","",57.1466,27.3787
LV,LV-4501,Silakrogs,Balvu nov.,03,Bērzkalnes pag.,0380248,"","",57.1291,27.4071
LV,LV-4501,Vējava,Balvu nov.,03,Bērzkalnes pag.,0380248,"","",57.1466,27.3787
LV,LV-4590,Bērzkalne,Balvu nov.,03,Bērzkalnes pag.,0380248,"","",57.1037,27.3495
LV,LV-4590,Taureskalns,Balvu nov.,03,Bērzkalnes pag.,0380248,"","",57.1077,27.367
LV,LV-4590,Kārnīte,Balvu nov.,03,Bērzkalnes pag.,0380248,"","",57.0929,27.3523
LV,LV-4590,Krievkalns,Balvu nov.,03,Bērzkalnes pag.,0380248,"","",57.0929,27.3523
LV,LV-4590,Babāni,Balvu nov.,03,Bērzkalnes pag.,0380248,"","",57.0929,27.3523
LV,LV-4590,Brūklāji,Balvu nov.,03,Bērzkalnes pag.,0380248,"","",57.0929,27.3523
LV,LV-4590,Užgova,Balvu nov.,03,Bērzkalnes pag.,0380248,"","",57.0929,27.3523
LV,LV-4590,Ploskena,Balvu nov.,03,Bērzkalnes pag.,0380248,"","",57.0631,27.3491
LV,LV-4590,Lielmežnieki,Balvu nov.,03,Bērzkalnes pag.,0380248,"","",57.0972,27.3436
LV,LV-4591,Elkšņeva,Balvu nov.,03,Bērzkalnes pag.,0380248,"","",57.1712,27.4106
LV,LV-4591,Mežarija,Balvu nov.,03,Bērzkalnes pag.,0380248,"","",57.1122,27.3857
LV,LV-4591,Aizpurve,Balvu nov.,03,Bērzkalnes pag.,0380248,"","",57.1712,27.4106
LV,LV-4591,Burčeva,Balvu nov.,03,Bērzkalnes pag.,0380248,"","",57.1712,27.4106
LV,LV-4591,Brieževa,Balvu nov.,03,Bērzkalnes pag.,0380248,"","",57.1389,27.3835
LV,LV-4591,Rubeņi,Balvu nov.,03,Bērzkalnes pag.,0380248,"","",57.1594,27.3987
LV,LV-4591,Moziņki,Balvu nov.,03,Bērzkalnes pag.,0380248,"","",57.1833,27.4177
LV,LV-4591,Auzāji,Balvu nov.,03,Bērzkalnes pag.,0380248,"","",57.1712,27.4106
LV,LV-4591,Mūrava,Balvu nov.,03,Bērzkalnes pag.,0380248,"","",57.1712,27.4106
LV,LV-4591,Vistusala,Balvu nov.,03,Bērzkalnes pag.,0380248,"","",57.157,27.4075
LV,LV-4576,Saksmale,Balvu nov.,03,Bērzpils pag.,0380250,"","",56.8158,27.0923
LV,LV-4576,Pugači,Balvu nov.,03,Bērzpils pag.,0380250,"","",56.8398,27.1239
LV,LV-4576,Domopole,Balvu nov.,03,Bērzpils pag.,0380250,"","",56.8594,27.0801
LV,LV-4576,Gabrāni,Balvu nov.,03,Bērzpils pag.,0380250,"","",56.8141,27.1962
LV,LV-4576,Silamuiža,Balvu nov.,03,Bērzpils pag.,0380250,"","",56.8264,27.0943
LV,LV-4576,Viškuļi,Balvu nov.,03,Bērzpils pag.,0380250,"","",56.818,27.1326
LV,LV-4576,Augstari,Balvu nov.,03,Bērzpils pag.,0380250,"","",56.8631,27.069
LV,LV-4576,Kļaviņi,Balvu nov.,03,Bērzpils pag.,0380250,"","",56.8398,27.1239
LV,LV-4576,Javenieki,Balvu nov.,03,Bērzpils pag.,0380250,"","",56.8413,27.1748
LV,LV-4576,Līdumnieki,Balvu nov.,03,Bērzpils pag.,0380250,"","",56.8398,27.1239
LV,LV-4576,Lauskinieki,Balvu nov.,03,Bērzpils pag.,0380250,"","",56.8398,27.1239
LV,LV-4576,Bonifacova,Balvu nov.,03,Bērzpils pag.,0380250,"","",56.8221,27.0597
LV,LV-4576,Zosuli,Balvu nov.,03,Bērzpils pag.,0380250,"","",56.8249,27.1954
LV,LV-4576,Sprodzenieki,Balvu nov.,03,Bērzpils pag.,0380250,"","",56.8398,27.1239
LV,LV-4576,Tabakova,Balvu nov.,03,Bērzpils pag.,0380250,"","",56.8398,27.1239
LV,LV-4576,Sola,Balvu nov.,03,Bērzpils pag.,0380250,"","",56.8093,27.0423
LV,LV-4576,Apšenieki,Balvu nov.,03,Bērzpils pag.,0380250,"","",56.8398,27.1239
LV,LV-4576,Bērži,Balvu nov.,03,Bērzpils pag.,0380250,"","",56.8398,27.1239
LV,LV-4576,Kononi,Balvu nov.,03,Bērzpils pag.,0380250,"","",56.8966,27.2369
LV,LV-4576,Mūramuiža,Balvu nov.,03,Bērzpils pag.,0380250,"","",56.8398,27.1239
LV,LV-4576,Osudari,Balvu nov.,03,Bērzpils pag.,0380250,"","",56.8398,27.1239
LV,LV-4576,Zvonovka,Balvu nov.,03,Bērzpils pag.,0380250,"","",56.8398,27.1239
LV,LV-4576,Lāčaunieki,Balvu nov.,03,Bērzpils pag.,0380250,"","",56.8398,27.1239
LV,LV-4576,Gribkova,Balvu nov.,03,Bērzpils pag.,0380250,"","",56.8398,27.1239
LV,LV-4576,Golvari,Balvu nov.,03,Bērzpils pag.,0380250,"","",56.862,27.2256
LV,LV-4576,Pāliņi,Balvu nov.,03,Bērzpils pag.,0380250,"","",56.8668,27.0941
LV,LV-4576,Beļauski,Balvu nov.,03,Bērzpils pag.,0380250,"","",56.8453,27.115
LV,LV-4576,Jabalova,Balvu nov.,03,Bērzpils pag.,0380250,"","",56.8398,27.1239
LV,LV-4576,Somi,Balvu nov.,03,Bērzpils pag.,0380250,"","",56.8398,27.1239
LV,LV-4576,Kažoki,Balvu nov.,03,Bērzpils pag.,0380250,"","",56.8398,27.1239
LV,LV-4576,Kiļauka,Balvu nov.,03,Bērzpils pag.,0380250,"","",56.8398,27.1239
LV,LV-4576,Masalnieki,Balvu nov.,03,Bērzpils pag.,0380250,"","",56.823,27.135
LV,LV-4576,Bērzieši,Balvu nov.,03,Bērzpils pag.,0380250,"","",56.8398,27.1239
LV,LV-4576,Bērzpils,Balvu nov.,03,Bērzpils pag.,0380250,"","",56.8496,27.084
LV,LV-4576,Pelerijas,Balvu nov.,03,Bērzpils pag.,0380250,"","",56.8398,27.1239
LV,LV-4576,Vecpils,Balvu nov.,03,Bērzpils pag.,0380250,"","",56.8398,27.079
LV,LV-4567,Jaunzemes,Balvu nov.,03,Briežuciema pag.,0380252,"","",57.034,27.5346
LV,LV-4567,Dubļeva,Balvu nov.,03,Briežuciema pag.,0380252,"","",56.9723,27.5523
LV,LV-4567,Sepovka,Balvu nov.,03,Briežuciema pag.,0380252,"","",57.034,27.5346
LV,LV-4567,Vāzovka,Balvu nov.,03,Briežuciema pag.,0380252,"","",57.034,27.5346
LV,LV-4567,Cērpene,Balvu nov.,03,Briežuciema pag.,0380252,"","",57.0087,27.6131
LV,LV-4567,Pūšļeva,Balvu nov.,03,Briežuciema pag.,0380252,"","",56.9927,27.6099
LV,LV-4567,Bilga,Balvu nov.,03,Briežuciema pag.,0380252,"","",57.034,27.5346
LV,LV-4567,Augstasils,Balvu nov.,03,Briežuciema pag.,0380252,"","",57.0126,27.5775
LV,LV-4567,Briežusala,Balvu nov.,03,Briežuciema pag.,0380252,"","",57.034,27.5346
LV,LV-4567,Čilipīne,Balvu nov.,03,Briežuciema pag.,0380252,"","",57.034,27.5346
LV,LV-4567,Kroni,Balvu nov.,03,Briežuciema pag.,0380252,"","",57.034,27.5346
LV,LV-4567,Kručinova,Balvu nov.,03,Briežuciema pag.,0380252,"","",57.034,27.5346
LV,LV-4567,Lazduleja,Balvu nov.,03,Briežuciema pag.,0380252,"","",57.034,27.5346
LV,LV-4567,Ploskene,Balvu nov.,03,Briežuciema pag.,0380252,"","",57.034,27.5346
LV,LV-4567,Brieksīne,Balvu nov.,03,Briežuciema pag.,0380252,"","",57.034,27.5346
LV,LV-4567,Pužulova,Balvu nov.,03,Briežuciema pag.,0380252,"","",57.034,27.5346
LV,LV-4595,Bēliņi,Balvu nov.,03,Briežuciema pag.,0380252,"","",56.988,27.5856
LV,LV-4595,Dambergi,Balvu nov.,03,Briežuciema pag.,0380252,"","",56.9565,27.5334
LV,LV-4595,Stouberova,Balvu nov.,03,Briežuciema pag.,0380252,"","",56.9786,27.5607
LV,LV-4595,Ausala,Balvu nov.,03,Briežuciema pag.,0380252,"","",56.949,27.5126
LV,LV-4595,Ostrolīdumi,Balvu nov.,03,Briežuciema pag.,0380252,"","",56.9786,27.5607
LV,LV-4595,Torkova,Balvu nov.,03,Briežuciema pag.,0380252,"","",56.9805,27.586
LV,LV-4595,Abriņas,Balvu nov.,03,Briežuciema pag.,0380252,"","",56.9736,27.6177
LV,LV-4595,Denicova,Balvu nov.,03,Briežuciema pag.,0380252,"","",56.9786,27.5607
LV,LV-4595,Dukuļeva,Balvu nov.,03,Briežuciema pag.,0380252,"","",56.9723,27.5523
LV,LV-4595,Kvašņeva,Balvu nov.,03,Briežuciema pag.,0380252,"","",56.9786,27.5607
LV,LV-4595,Grūšļeva,Balvu nov.,03,Briežuciema pag.,0380252,"","",56.9786,27.5607
LV,LV-4595,Bokova,Balvu nov.,03,Briežuciema pag.,0380252,"","",56.9786,27.5607
LV,LV-4595,Štikunova,Balvu nov.,03,Briežuciema pag.,0380252,"","",56.9786,27.5607
LV,LV-4595,Begunova,Balvu nov.,03,Briežuciema pag.,0380252,"","",56.9786,27.5607
LV,LV-4595,Briežuciems,Balvu nov.,03,Briežuciema pag.,0380252,"","",56.9623,27.5949
LV,LV-4573,Purviņas,Balvu nov.,03,Krišjāņu pag.,0380256,"","",56.828,27.3949
LV,LV-4573,Zeltupe,Balvu nov.,03,Krišjāņu pag.,0380256,"","",56.8335,27.382
LV,LV-4573,Mežupe,Balvu nov.,03,Krišjāņu pag.,0380256,"","",56.8391,27.3691
LV,LV-4573,Vītoli,Balvu nov.,03,Krišjāņu pag.,0380256,"","",56.8335,27.382
LV,LV-4574,Putrāni,Balvu nov.,03,Krišjāņu pag.,0380256,"","",56.8158,27.276
LV,LV-4574,Runcene,Balvu nov.,03,Krišjāņu pag.,0380256,"","",56.8158,27.276
LV,LV-4574,Krampiņas,Balvu nov.,03,Krišjāņu pag.,0380256,"","",56.8429,27.273
LV,LV-4574,Žogi,Balvu nov.,03,Krišjāņu pag.,0380256,"","",56.818,27.3056
LV,LV-4574,Vakšenieki,Balvu nov.,03,Krišjāņu pag.,0380256,"","",56.8158,27.276
LV,LV-4574,Naglīši,Balvu nov.,03,Krišjāņu pag.,0380256,"","",56.7952,27.2382
LV,LV-4574,Krišjāņi,Balvu nov.,03,Krišjāņu pag.,0380256,"","",56.8071,27.2873
LV,LV-4501,Guznava,Balvu nov.,03,Kubulu pag.,0380258,"","",57.1466,27.3787
LV,LV-4501,Dekšņi,Balvu nov.,03,Kubulu pag.,0380258,"","",57.1466,27.3787
LV,LV-4501,Pelnupe,Balvu nov.,03,Kubulu pag.,0380258,"","",57.1466,27.3787
LV,LV-4501,Pērkoni,Balvu nov.,03,Kubulu pag.,0380258,"","",57.1583,27.3192
LV,LV-4501,Zači,Balvu nov.,03,Kubulu pag.,0380258,"","",57.1466,27.3787
LV,LV-4501,Tutinava,Balvu nov.,03,Kubulu pag.,0380258,"","",57.1659,27.183
LV,LV-4501,Steķintava,Balvu nov.,03,Kubulu pag.,0380258,"","",57.1421,27.257
LV,LV-4501,Krasnogorka,Balvu nov.,03,Kubulu pag.,0380258,"","",57.1466,27.3787
LV,LV-4566,Paulāni,Balvu nov.,03,Kubulu pag.,0380258,"","",57.2176,27.1904
LV,LV-4566,Silaciems,Balvu nov.,03,Kubulu pag.,0380258,"","",57.1427,27.1542
LV,LV-4566,Pordari,Balvu nov.,03,Kubulu pag.,0380258,"","",57.1317,27.1547
LV,LV-4566,Tīreļi,Balvu nov.,03,Kubulu pag.,0380258,"","",57.1915,27.2016
LV,LV-4566,Kurna,Balvu nov.,03,Kubulu pag.,0380258,"","",57.1445,27.2106
LV,LV-4566,Nikolajeva,Balvu nov.,03,Kubulu pag.,0380258,"","",57.1984,27.2556
LV,LV-4566,Celmene,Balvu nov.,03,Kubulu pag.,0380258,"","",57.1379,27.1968
LV,LV-4566,Oļģina,Balvu nov.,03,Kubulu pag.,0380258,"","",57.214,27.247
LV,LV-4566,Sita,Balvu nov.,03,Kubulu pag.,0380258,"","",57.178,27.1023
LV,LV-4566,Briedīši,Balvu nov.,03,Kubulu pag.,0380258,"","",57.1983,27.1907
LV,LV-4566,Vladimirova,Balvu nov.,03,Kubulu pag.,0380258,"","",57.1755,27.1904
LV,LV-4566,Tropiņi,Balvu nov.,03,Kubulu pag.,0380258,"","",57.1755,27.1904
LV,LV-4566,Druvenieki,Balvu nov.,03,Kubulu pag.,0380258,"","",57.1755,27.1904
LV,LV-4566,Dvorupe,Balvu nov.,03,Kubulu pag.,0380258,"","",57.1755,27.1904
LV,LV-4566,Esmeraldova,Balvu nov.,03,Kubulu pag.,0380258,"","",57.1755,27.1904
LV,LV-4566,Ežusala,Balvu nov.,03,Kubulu pag.,0380258,"","",57.1755,27.1904
LV,LV-4566,Fabrika,Balvu nov.,03,Kubulu pag.,0380258,"","",57.1755,27.1904
LV,LV-4566,Gobusala,Balvu nov.,03,Kubulu pag.,0380258,"","",57.1755,27.1904
LV,LV-4566,Grīvgals,Balvu nov.,03,Kubulu pag.,0380258,"","",57.1755,27.1904
LV,LV-4566,Jāņusala,Balvu nov.,03,Kubulu pag.,0380258,"","",57.1755,27.1904
LV,LV-4566,Kozlova,Balvu nov.,03,Kubulu pag.,0380258,"","",57.1755,27.1904
LV,LV-4566,Lasinnaja,Balvu nov.,03,Kubulu pag.,0380258,"","",57.1755,27.1904
LV,LV-4566,Vasiļjeva,Balvu nov.,03,Kubulu pag.,0380258,"","",57.1755,27.1904
LV,LV-4566,Līdumnieki,Balvu nov.,03,Kubulu pag.,0380258,"","",57.1755,27.1904
LV,LV-4566,Liepava,Balvu nov.,03,Kubulu pag.,0380258,"","",57.1755,27.1904
LV,LV-4566,Meirāni,Balvu nov.,03,Kubulu pag.,0380258,"","",57.1755,27.1904
LV,LV-4566,Robežnieki,Balvu nov.,03,Kubulu pag.,0380258,"","",57.1755,27.1904
LV,LV-4566,Stirnusala,Balvu nov.,03,Kubulu pag.,0380258,"","",57.1755,27.1904
LV,LV-4566,Celmenieki,Balvu nov.,03,Kubulu pag.,0380258,"","",57.1755,27.1904
LV,LV-4566,Balvu stacija,Balvu nov.,03,Kubulu pag.,0380258,"","",57.1755,27.1904
LV,LV-4592,Šumkova,Balvu nov.,03,Lazdulejas pag.,0380266,"","",57.0525,27.4822
LV,LV-4592,Purlova,Balvu nov.,03,Lazdulejas pag.,0380266,"","",57.0485,27.4982
LV,LV-4592,Osinovka,Balvu nov.,03,Lazdulejas pag.,0380266,"","",57.0525,27.4822
LV,LV-4592,Ozolova,Balvu nov.,03,Lazdulejas pag.,0380266,"","",57.0525,27.4822
LV,LV-4592,Ozolzīles,Balvu nov.,03,Lazdulejas pag.,0380266,"","",57.0525,27.4822
LV,LV-4592,Zobukalns,Balvu nov.,03,Lazdulejas pag.,0380266,"","",57.0525,27.4822
LV,LV-4592,Plešova,Balvu nov.,03,Lazdulejas pag.,0380266,"","",57.0304,27.4752
LV,LV-4592,Aizupe,Balvu nov.,03,Lazdulejas pag.,0380266,"","",57.0525,27.4822
LV,LV-4592,Akmeņsala,Balvu nov.,03,Lazdulejas pag.,0380266,"","",57.0525,27.4822
LV,LV-4592,Zaikova,Balvu nov.,03,Lazdulejas pag.,0380266,"","",57.0525,27.4822
LV,LV-4592,Kīļi,Balvu nov.,03,Lazdulejas pag.,0380266,"","",57.0605,27.4111
LV,LV-4592,Priedes,Balvu nov.,03,Lazdulejas pag.,0380266,"","",57.0525,27.4822
LV,LV-4592,Avikši,Balvu nov.,03,Lazdulejas pag.,0380266,"","",57.0525,27.4822
LV,LV-4592,Brinķene,Balvu nov.,03,Lazdulejas pag.,0380266,"","",57.0525,27.4822
LV,LV-4592,Zirgadobe,Balvu nov.,03,Lazdulejas pag.,0380266,"","",57.0525,27.4822
LV,LV-4592,Dukuļeva,Balvu nov.,03,Lazdulejas pag.,0380266,"","",57.0401,27.4949
LV,LV-4592,Grīva,Balvu nov.,03,Lazdulejas pag.,0380266,"","",57.065,27.5135
LV,LV-4592,Egļeva,Balvu nov.,03,Lazdulejas pag.,0380266,"","",57.0414,27.5099
LV,LV-4592,Orlova,Balvu nov.,03,Lazdulejas pag.,0380266,"","",57.0277,27.4663
LV,LV-4592,Burtnieki,Balvu nov.,03,Lazdulejas pag.,0380266,"","",57.0525,27.4822
LV,LV-4592,Egļuciems,Balvu nov.,03,Lazdulejas pag.,0380266,"","",57.0525,27.4822
LV,LV-4592,Petrovka,Balvu nov.,03,Lazdulejas pag.,0380266,"","",57.0304,27.4752
LV,LV-4592,Dmitrijevka,Balvu nov.,03,Lazdulejas pag.,0380266,"","",57.0525,27.4822
LV,LV-4592,Ciganova,Balvu nov.,03,Lazdulejas pag.,0380266,"","",57.0525,27.4822
LV,LV-4592,Stīgas,Balvu nov.,03,Lazdulejas pag.,0380266,"","",57.0525,27.4822
LV,LV-4592,Spičkova,Balvu nov.,03,Lazdulejas pag.,0380266,"","",57.0525,27.4822
LV,LV-4592,Lozdova,Balvu nov.,03,Lazdulejas pag.,0380266,"","",57.0525,27.4822
LV,LV-4592,Ščeglova,Balvu nov.,03,Lazdulejas pag.,0380266,"","",57.0525,27.4822
LV,LV-4592,Lukjanovka,Balvu nov.,03,Lazdulejas pag.,0380266,"","",57.0525,27.4822
LV,LV-4592,Malnusala,Balvu nov.,03,Lazdulejas pag.,0380266,"","",57.0525,27.4822
LV,LV-4592,Medveževka,Balvu nov.,03,Lazdulejas pag.,0380266,"","",57.0525,27.4822
LV,LV-4592,Mežalauki,Balvu nov.,03,Lazdulejas pag.,0380266,"","",57.0525,27.4822
LV,LV-4592,Mežareja,Balvu nov.,03,Lazdulejas pag.,0380266,"","",57.0525,27.4822
LV,LV-4572,Mēneši,Balvu nov.,03,Tilžas pag.,0380286,"","",56.9009,27.3716
LV,LV-4572,Stangas,Balvu nov.,03,Tilžas pag.,0380286,"","",56.9009,27.3716
LV,LV-4572,Roditeļi,Balvu nov.,03,Tilžas pag.,0380286,"","",56.9009,27.3716
LV,LV-4572,Siltene,Balvu nov.,03,Tilžas pag.,0380286,"","",56.885,27.3163
LV,LV-4572,Toki,Balvu nov.,03,Tilžas pag.,0380286,"","",56.9009,27.3716
LV,LV-4572,Kadiševa,Balvu nov.,03,Tilžas pag.,0380286,"","",56.9369,27.4386
LV,LV-4572,Robežnieki,Balvu nov.,03,Tilžas pag.,0380286,"","",56.9009,27.3716
LV,LV-4572,Rutkova,Balvu nov.,03,Tilžas pag.,0380286,"","",56.9009,27.3716
LV,LV-4572,Kuģenieki,Balvu nov.,03,Tilžas pag.,0380286,"","",56.9009,27.3716
LV,LV-4572,Siliņi,Balvu nov.,03,Tilžas pag.,0380286,"","",56.86,27.3345
LV,LV-4572,Eglīši,Balvu nov.,03,Tilžas pag.,0380286,"","",56.9009,27.3716
LV,LV-4572,Vindava,Balvu nov.,03,Tilžas pag.,0380286,"","",56.9009,27.3716
LV,LV-4572,Kļavusala,Balvu nov.,03,Tilžas pag.,0380286,"","",56.9349,27.4129
LV,LV-4572,Dievžeikari,Balvu nov.,03,Tilžas pag.,0380286,"","",56.9009,27.3716
LV,LV-4572,Petrovka,Balvu nov.,03,Tilžas pag.,0380286,"","",56.8879,27.2832
LV,LV-4572,Tilža,Balvu nov.,03,Tilžas pag.,0380286,"","",56.9041,27.3648
LV,LV-4572,Degumnieki,Balvu nov.,03,Tilžas pag.,0380286,"","",56.9009,27.3716
LV,LV-4572,Raicene,Balvu nov.,03,Tilžas pag.,0380286,"","",56.9157,27.4198
LV,LV-4572,Barbāni,Balvu nov.,03,Tilžas pag.,0380286,"","",56.9009,27.3716
LV,LV-4572,Baltiņi,Balvu nov.,03,Tilžas pag.,0380286,"","",56.9009,27.3716
LV,LV-4572,Mežarijas,Balvu nov.,03,Tilžas pag.,0380286,"","",56.9009,27.3716
LV,LV-4572,Ūdrene,Balvu nov.,03,Tilžas pag.,0380286,"","",56.9009,27.3716
LV,LV-4572,Zvaigznes,Balvu nov.,03,Tilžas pag.,0380286,"","",56.9009,27.3716
LV,LV-4572,Akmeņrūči,Balvu nov.,03,Tilžas pag.,0380286,"","",56.9176,27.3639
LV,LV-4572,Kāpessils,Balvu nov.,03,Tilžas pag.,0380286,"","",56.8663,27.4101
LV,LV-4572,Spirģi,Balvu nov.,03,Tilžas pag.,0380286,"","",56.9009,27.3716
LV,LV-4572,Keibinieki,Balvu nov.,03,Tilžas pag.,0380286,"","",56.9009,27.3716
LV,LV-4572,Jaujas,Balvu nov.,03,Tilžas pag.,0380286,"","",56.9009,27.3716
LV,LV-4562,Auška,Balvu nov.,03,Vectilžas pag.,0380290,"","",57.0217,27.3311
LV,LV-4562,Sudarbe,Balvu nov.,03,Vectilžas pag.,0380290,"","",57.0025,27.3192
LV,LV-4562,Vuškusala,Balvu nov.,03,Vectilžas pag.,0380290,"","",57.0059,27.3193
LV,LV-4562,Vilkarūcis,Balvu nov.,03,Vectilžas pag.,0380290,"","",56.9936,27.3078
LV,LV-4562,Doburūcis,Balvu nov.,03,Vectilžas pag.,0380290,"","",57.0059,27.3193
LV,LV-4562,Grūznis,Balvu nov.,03,Vectilžas pag.,0380290,"","",57.0059,27.3193
LV,LV-4570,Gailīši,Balvu nov.,03,Vectilžas pag.,0380290,"","",56.9742,27.1612
LV,LV-4571,Krutova,Balvu nov.,03,Vectilžas pag.,0380290,"","",56.9826,27.4217
LV,LV-4571,Lutenāni,Balvu nov.,03,Vectilžas pag.,0380290,"","",56.9864,27.4427
LV,LV-4571,Sāvāni,Balvu nov.,03,Vectilžas pag.,0380290,"","",56.9562,27.3394
LV,LV-4571,Upenieki,Balvu nov.,03,Vectilžas pag.,0380290,"","",56.9513,27.3819
LV,LV-4571,Dambīši,Balvu nov.,03,Vectilžas pag.,0380290,"","",56.9644,27.3867
LV,LV-4571,Ranguči,Balvu nov.,03,Vectilžas pag.,0380290,"","",56.9469,27.3326
LV,LV-4571,Vectilža,Balvu nov.,03,Vectilžas pag.,0380290,"","",56.9627,27.4017
LV,LV-4580,Oknupe,Balvu nov.,03,Vīksnas pag.,0380294,"","",57.2199,27.3688
LV,LV-4580,Mežārija,Balvu nov.,03,Vīksnas pag.,0380294,"","",57.2172,27.4458
LV,LV-4580,Dampadruva,Balvu nov.,03,Vīksnas pag.,0380294,"","",57.2553,27.3249
LV,LV-4580,Lauzas,Balvu nov.,03,Vīksnas pag.,0380294,"","",57.2199,27.3688
LV,LV-4580,Kuprava,Balvu nov.,03,Vīksnas pag.,0380294,"","",57.2199,27.3688
LV,LV-4580,Berezņaks,Balvu nov.,03,Vīksnas pag.,0380294,"","",57.2199,27.3688
LV,LV-4580,Augstābirzs,Balvu nov.,03,Vīksnas pag.,0380294,"","",57.2199,27.3688
LV,LV-4580,Vīksna,Balvu nov.,03,Vīksnas pag.,0380294,"","",57.2149,27.3208
LV,LV-4580,Apšukalns,Balvu nov.,03,Vīksnas pag.,0380294,"","",57.2199,27.3688
LV,LV-4580,Rimši,Balvu nov.,03,Vīksnas pag.,0380294,"","",57.2199,27.3688
LV,LV-4580,Smiltene,Balvu nov.,03,Vīksnas pag.,0380294,"","",57.2199,27.3688
LV,LV-4580,Valentinova,Balvu nov.,03,Vīksnas pag.,0380294,"","",57.2199,27.3688
LV,LV-4580,Derdziņi,Balvu nov.,03,Vīksnas pag.,0380294,"","",57.2199,27.3688
LV,LV-4580,Kačupe,Balvu nov.,03,Vīksnas pag.,0380294,"","",57.2432,27.3723
LV,LV-4580,Zaļmežnieki,Balvu nov.,03,Vīksnas pag.,0380294,"","",57.181,27.3859
LV,LV-4580,Pokuļeva,Balvu nov.,03,Vīksnas pag.,0380294,"","",57.2199,27.3688
LV,LV-4580,Miezāji,Balvu nov.,03,Vīksnas pag.,0380294,"","",57.2042,27.4175
LV,LV-4580,Čāgas,Balvu nov.,03,Vīksnas pag.,0380294,"","",57.2199,27.3688
LV,LV-4580,Annasbirzs,Balvu nov.,03,Vīksnas pag.,0380294,"","",57.1884,27.3129
LV,LV-4580,Jūdiņi,Balvu nov.,03,Vīksnas pag.,0380294,"","",57.2199,27.3688
LV,LV-4580,Georgijeva,Balvu nov.,03,Vīksnas pag.,0380294,"","",57.2199,27.3688
LV,LV-4580,Sprogas,Balvu nov.,03,Vīksnas pag.,0380294,"","",57.2367,27.3496
LV,LV-4580,Egļukalns,Balvu nov.,03,Vīksnas pag.,0380294,"","",57.2199,27.3688
LV,LV-4580,Aizezere,Balvu nov.,03,Vīksnas pag.,0380294,"","",57.2378,27.389
LV,LV-4580,Pakalnieši,Balvu nov.,03,Vīksnas pag.,0380294,"","",57.2199,27.3688
LV,LV-4582,Makšinava,Balvu nov.,03,Vīksnas pag.,0380294,"","",57.2512,27.4813
LV,LV-4582,Makšinava Strauti,Balvu nov.,03,Vīksnas pag.,0380294,"","",57.252,27.4646
LV,LV-4582,Strauti,Balvu nov.,03,Vīksnas pag.,0380294,"","",57.2752,27.4759
LV,LV-4582,Ašusils,Balvu nov.,03,Vīksnas pag.,0380294,"","",57.2381,27.4978
LV,LV-4582,Repševa,Balvu nov.,03,Vīksnas pag.,0380294,"","",57.2381,27.4978
LV,LV-4582,Kuprava,Balvu nov.,03,Vīksnas pag.,0380294,"","",57.2293,27.381
LV,LV-4582,Dubudeksnis,Balvu nov.,03,Vīksnas pag.,0380294,"","",57.2381,27.4978
LV,LV-4582,Kuprava,Balvu nov.,03,Kupravas pag.,0381660,"","",57.2371,27.4958
LV,LV-4583,Bronti,Balvu nov.,03,Medņevas pag.,0381670,"","",57.172,27.6851
LV,LV-4583,Ilziņi,Balvu nov.,03,Medņevas pag.,0381670,"","",57.172,27.6851
LV,LV-4583,Rači,Balvu nov.,03,Medņevas pag.,0381670,"","",57.172,27.6851
LV,LV-4583,Janapole,Balvu nov.,03,Medņevas pag.,0381670,"","",57.1454,27.668
LV,LV-4583,Tereškova,Balvu nov.,03,Medņevas pag.,0381670,"","",57.172,27.6851
LV,LV-4586,Lozdova,Balvu nov.,03,Medņevas pag.,0381670,"","",57.124,27.6353
LV,LV-4586,Kļučniki,Balvu nov.,03,Medņevas pag.,0381670,"","",57.124,27.6353
LV,LV-4586,Lāški,Balvu nov.,03,Medņevas pag.,0381670,"","",57.1072,27.6227
LV,LV-4586,Skandīne,Balvu nov.,03,Medņevas pag.,0381670,"","",57.1492,27.6158
LV,LV-4586,Vīksnīne,Balvu nov.,03,Medņevas pag.,0381670,"","",57.124,27.6353
LV,LV-4586,Bahmatova,Balvu nov.,03,Medņevas pag.,0381670,"","",57.124,27.6353
LV,LV-4586,Slotukalns,Balvu nov.,03,Medņevas pag.,0381670,"","",57.124,27.6353
LV,LV-4586,Viduči,Balvu nov.,03,Medņevas pag.,0381670,"","",57.131,27.6044
LV,LV-4586,Zaiceva,Balvu nov.,03,Medņevas pag.,0381670,"","",57.124,27.6353
LV,LV-4586,Medņeva,Balvu nov.,03,Medņevas pag.,0381670,"","",57.127,27.6676
LV,LV-4586,Loduma,Balvu nov.,03,Medņevas pag.,0381670,"","",57.1125,27.6584
LV,LV-4586,Bordova,Balvu nov.,03,Medņevas pag.,0381670,"","",57.124,27.6353
LV,LV-4586,Torkova,Balvu nov.,03,Medņevas pag.,0381670,"","",57.124,27.6353
LV,LV-4586,Semenova,Balvu nov.,03,Medņevas pag.,0381670,"","",57.124,27.6353
LV,LV-4586,Aizpurve,Balvu nov.,03,Medņevas pag.,0381670,"","",57.117,27.6427
LV,LV-4586,Aizgalīne,Balvu nov.,03,Medņevas pag.,0381670,"","",57.124,27.6353
LV,LV-4587,Kangari,Balvu nov.,03,Medņevas pag.,0381670,"","",57.0696,27.6405
LV,LV-4587,Dagunova,Balvu nov.,03,Medņevas pag.,0381670,"","",57.0696,27.6405
LV,LV-4587,Kozlova,Balvu nov.,03,Medņevas pag.,0381670,"","",57.0898,27.5788
LV,LV-4587,Rogovski,Balvu nov.,03,Medņevas pag.,0381670,"","",57.0696,27.6405
LV,LV-4587,Olutova,Balvu nov.,03,Medņevas pag.,0381670,"","",57.0696,27.6405
LV,LV-4501,Garstērdele,Balvu nov.,03,Susāju pag.,0381678,"","",57.1466,27.3787
LV,LV-4501,Mucukalns,Balvu nov.,03,Susāju pag.,0381678,"","",57.1466,27.3787
LV,LV-4501,Stompaki,Balvu nov.,03,Susāju pag.,0381678,"","",57.1466,27.3787
LV,LV-4582,Klāni,Balvu nov.,03,Susāju pag.,0381678,"","",57.2128,27.5765
LV,LV-4582,Irikava,Balvu nov.,03,Susāju pag.,0381678,"","",57.2381,27.4978
LV,LV-4582,Melnrūcis,Balvu nov.,03,Susāju pag.,0381678,"","",57.2381,27.4978
LV,LV-4582,Gailava,Balvu nov.,03,Susāju pag.,0381678,"","",57.2074,27.4532
LV,LV-4582,Kulpene,Balvu nov.,03,Susāju pag.,0381678,"","",57.2381,27.4978
LV,LV-4582,Nastrova,Balvu nov.,03,Susāju pag.,0381678,"","",57.2381,27.4978
LV,LV-4582,Krustacelms,Balvu nov.,03,Susāju pag.,0381678,"","",57.2322,27.5395
LV,LV-4583,Kravaļi,Balvu nov.,03,Susāju pag.,0381678,"","",57.172,27.6851
LV,LV-4583,Svilpova,Balvu nov.,03,Susāju pag.,0381678,"","",57.1813,27.6179
LV,LV-4583,Susāji,Balvu nov.,03,Susāju pag.,0381678,"","",57.1731,27.5946
LV,LV-4583,Pokšova,Balvu nov.,03,Susāju pag.,0381678,"","",57.172,27.6851
LV,LV-4583,Posacki,Balvu nov.,03,Susāju pag.,0381678,"","",57.172,27.6851
LV,LV-4583,Keiši,Balvu nov.,03,Susāju pag.,0381678,"","",57.172,27.6851
LV,LV-4583,Geinova,Balvu nov.,03,Susāju pag.,0381678,"","",57.2082,27.7015
LV,LV-4583,Birznieki,Balvu nov.,03,Susāju pag.,0381678,"","",57.172,27.6851
LV,LV-4583,Brāslava,Balvu nov.,03,Susāju pag.,0381678,"","",57.172,27.6851
LV,LV-4583,Čabatrova,Balvu nov.,03,Susāju pag.,0381678,"","",57.172,27.6851
LV,LV-4583,Egļava,Balvu nov.,03,Susāju pag.,0381678,"","",57.172,27.6851
LV,LV-4583,Eržepole,Balvu nov.,03,Susāju pag.,0381678,"","",57.172,27.6851
LV,LV-4583,Gruzdova,Balvu nov.,03,Susāju pag.,0381678,"","",57.172,27.6851
LV,LV-4583,Gurinova,Balvu nov.,03,Susāju pag.,0381678,"","",57.172,27.6851
LV,LV-4583,Ilziņi,Balvu nov.,03,Susāju pag.,0381678,"","",57.172,27.6851
LV,LV-4583,Jauji,Balvu nov.,03,Susāju pag.,0381678,"","",57.172,27.6851
LV,LV-4583,Mežarija,Balvu nov.,03,Susāju pag.,0381678,"","",57.172,27.6851
LV,LV-4583,Meirova,Balvu nov.,03,Susāju pag.,0381678,"","",57.172,27.6851
LV,LV-4583,Leļi,Balvu nov.,03,Susāju pag.,0381678,"","",57.172,27.6851
LV,LV-4583,Skockova,Balvu nov.,03,Susāju pag.,0381678,"","",57.172,27.6851
LV,LV-4583,Tepenīca,Balvu nov.,03,Susāju pag.,0381678,"","",57.172,27.6851
LV,LV-4583,Tutinova,Balvu nov.,03,Susāju pag.,0381678,"","",57.172,27.6851
LV,LV-4583,Vonagova,Balvu nov.,03,Susāju pag.,0381678,"","",57.172,27.6851
LV,LV-4584,Glazunova,Balvu nov.,03,Susāju pag.,0381678,"","",57.243,27.6925
LV,LV-4584,Plešova,Balvu nov.,03,Susāju pag.,0381678,"","",57.191,27.5691
LV,LV-4584,Žīgurova,Balvu nov.,03,Susāju pag.,0381678,"","",57.243,27.6925
LV,LV-4584,Sils,Balvu nov.,03,Susāju pag.,0381678,"","",57.2519,27.7108
LV,LV-4584,Sosnīcas,Balvu nov.,03,Susāju pag.,0381678,"","",57.2728,27.734
LV,LV-4584,Vēdenieši,Balvu nov.,03,Susāju pag.,0381678,"","",57.2386,27.6688
LV,LV-4584,Karigova,Balvu nov.,03,Susāju pag.,0381678,"","",57.252,27.6559
LV,LV-4584,Šalgunova,Balvu nov.,03,Susāju pag.,0381678,"","",57.243,27.6925
LV,LV-4584,Sola,Balvu nov.,03,Susāju pag.,0381678,"","",57.243,27.6925
LV,LV-4584,Stūrīši,Balvu nov.,03,Susāju pag.,0381678,"","",57.243,27.6925
LV,LV-4587,Logini,Balvu nov.,03,Šķilbēnu pag.,0381682,"","",57.0771,27.5797
LV,LV-4587,Zeļči,Balvu nov.,03,Šķilbēnu pag.,0381682,"","",57.0696,27.6405
LV,LV-4587,Zogadi,Balvu nov.,03,Šķilbēnu pag.,0381682,"","",57.0696,27.6405
LV,LV-4587,Čerbakova,Balvu nov.,03,Šķilbēnu pag.,0381682,"","",57.0696,27.6405
LV,LV-4587,Plešova,Balvu nov.,03,Šķilbēnu pag.,0381682,"","",57.0266,27.559
LV,LV-4587,Lemešova,Balvu nov.,03,Šķilbēnu pag.,0381682,"","",57.0696,27.6405
LV,LV-4587,Grohova,Balvu nov.,03,Šķilbēnu pag.,0381682,"","",57.0696,27.6405
LV,LV-4587,Stiglova,Balvu nov.,03,Šķilbēnu pag.,0381682,"","",57.0696,27.6405
LV,LV-4587,Gusakova,Balvu nov.,03,Šķilbēnu pag.,0381682,"","",57.0696,27.6405
LV,LV-4587,Iļvezi,Balvu nov.,03,Šķilbēnu pag.,0381682,"","",57.0696,27.6405
LV,LV-4587,Čilipīne,Balvu nov.,03,Šķilbēnu pag.,0381682,"","",57.029,27.6118
LV,LV-4587,Ivanovka,Balvu nov.,03,Šķilbēnu pag.,0381682,"","",57.0696,27.6405
LV,LV-4587,Kangari,Balvu nov.,03,Šķilbēnu pag.,0381682,"","",57.0696,27.6405
LV,LV-4587,Komugreiva,Balvu nov.,03,Šķilbēnu pag.,0381682,"","",57.0696,27.6405
LV,LV-4587,Krutova,Balvu nov.,03,Šķilbēnu pag.,0381682,"","",57.0696,27.6405
LV,LV-4587,Šķilbani,Balvu nov.,03,Šķilbēnu pag.,0381682,"","",57.0543,27.6399
LV,LV-4587,Kubulova,Balvu nov.,03,Šķilbēnu pag.,0381682,"","",57.0696,27.6405
LV,LV-4587,Lejastači,Balvu nov.,03,Šķilbēnu pag.,0381682,"","",57.0696,27.6405
LV,LV-4587,Dagunova,Balvu nov.,03,Šķilbēnu pag.,0381682,"","",57.0696,27.6405
LV,LV-4587,Dubļova,Balvu nov.,03,Šķilbēnu pag.,0381682,"","",57.0696,27.6405
LV,LV-4587,Dzjorgova,Balvu nov.,03,Šķilbēnu pag.,0381682,"","",57.0696,27.6405
LV,LV-4587,Eriki,Balvu nov.,03,Šķilbēnu pag.,0381682,"","",57.0696,27.6405
LV,LV-4587,Lotuši,Balvu nov.,03,Šķilbēnu pag.,0381682,"","",57.0696,27.6405
LV,LV-4587,Ļipovka,Balvu nov.,03,Šķilbēnu pag.,0381682,"","",57.0696,27.6405
LV,LV-4587,Maļinovka,Balvu nov.,03,Šķilbēnu pag.,0381682,"","",57.0696,27.6405
LV,LV-4587,Masandrovka,Balvu nov.,03,Šķilbēnu pag.,0381682,"","",57.0696,27.6405
LV,LV-4587,Pakašova,Balvu nov.,03,Šķilbēnu pag.,0381682,"","",57.0696,27.6405
LV,LV-4587,Peksīne,Balvu nov.,03,Šķilbēnu pag.,0381682,"","",57.0696,27.6405
LV,LV-4587,Pikusola,Balvu nov.,03,Šķilbēnu pag.,0381682,"","",57.0696,27.6405
LV,LV-4587,Porskova,Balvu nov.,03,Šķilbēnu pag.,0381682,"","",57.0696,27.6405
LV,LV-4587,Prīdovka,Balvu nov.,03,Šķilbēnu pag.,0381682,"","",57.0696,27.6405
LV,LV-4587,Rekosari,Balvu nov.,03,Šķilbēnu pag.,0381682,"","",57.0696,27.6405
LV,LV-4587,Sviļova,Balvu nov.,03,Šķilbēnu pag.,0381682,"","",57.0696,27.6405
LV,LV-4587,Zaļčupe,Balvu nov.,03,Šķilbēnu pag.,0381682,"","",57.0696,27.6405
LV,LV-4587,Antonovka,Balvu nov.,03,Šķilbēnu pag.,0381682,"","",57.0696,27.6405
LV,LV-4587,Supretka,Balvu nov.,03,Šķilbēnu pag.,0381682,"","",57.0696,27.6405
LV,LV-4587,Buki,Balvu nov.,03,Šķilbēnu pag.,0381682,"","",57.0696,27.6405
LV,LV-4587,Gabačova,Balvu nov.,03,Šķilbēnu pag.,0381682,"","",57.0696,27.6405
LV,LV-4587,Riosari,Balvu nov.,03,Šķilbēnu pag.,0381682,"","",57.0696,27.6405
LV,LV-4587,Roguļeva,Balvu nov.,03,Šķilbēnu pag.,0381682,"","",57.0696,27.6405
LV,LV-4587,Rozumegi,Balvu nov.,03,Šķilbēnu pag.,0381682,"","",57.0696,27.6405
LV,LV-4587,Prisjolova,Balvu nov.,03,Šķilbēnu pag.,0381682,"","",57.0696,27.6405
LV,LV-4587,Borovka,Balvu nov.,03,Šķilbēnu pag.,0381682,"","",57.0696,27.6405
LV,LV-4587,Čalkova,Balvu nov.,03,Šķilbēnu pag.,0381682,"","",57.0696,27.6405
LV,LV-4587,Borisova,Balvu nov.,03,Šķilbēnu pag.,0381682,"","",57.0529,27.6513
LV,LV-4587,Vilkova,Balvu nov.,03,Šķilbēnu pag.,0381682,"","",57.0682,27.5978
LV,LV-4587,Fabriki,Balvu nov.,03,Šķilbēnu pag.,0381682,"","",57.0794,27.6317
LV,LV-4587,Rekova,Balvu nov.,03,Šķilbēnu pag.,0381682,"","",57.0412,27.6151
LV,LV-4587,Viduči,Balvu nov.,03,Šķilbēnu pag.,0381682,"","",57.0529,27.6513
LV,LV-4587,Raipoļi,Balvu nov.,03,Šķilbēnu pag.,0381682,"","",57.0696,27.6405
LV,LV-4587,Mukaušova,Balvu nov.,03,Šķilbēnu pag.,0381682,"","",57.0184,27.6702
LV,LV-4587,Tribunova,Balvu nov.,03,Šķilbēnu pag.,0381682,"","",57.0696,27.6405
LV,LV-4587,Ančipova,Balvu nov.,03,Šķilbēnu pag.,0381682,"","",57.0418,27.7288
LV,LV-4587,Zatišje,Balvu nov.,03,Šķilbēnu pag.,0381682,"","",57.0696,27.6405
LV,LV-4587,Bākarova,Balvu nov.,03,Šķilbēnu pag.,0381682,"","",57.0709,27.737
LV,LV-4587,Saucīne,Balvu nov.,03,Šķilbēnu pag.,0381682,"","",57.0696,27.6405
LV,LV-4587,Svičova,Balvu nov.,03,Šķilbēnu pag.,0381682,"","",57.0696,27.6405
LV,LV-4587,Sišova,Balvu nov.,03,Šķilbēnu pag.,0381682,"","",57.0696,27.6405
LV,LV-4587,Nikolajevka,Balvu nov.,03,Šķilbēnu pag.,0381682,"","",57.0696,27.6405
LV,LV-4587,Stabļova,Balvu nov.,03,Šķilbēnu pag.,0381682,"","",57.0696,27.6405
LV,LV-4587,Upīte,Balvu nov.,03,Šķilbēnu pag.,0381682,"","",57.0262,27.6731
LV,LV-4583,Kazukalns,Balvu nov.,03,Vecumu pag.,0381692,"","",57.1723,27.7321
LV,LV-4583,Vainagi,Balvu nov.,03,Vecumu pag.,0381692,"","",57.137,27.7684
LV,LV-4583,Ūlasi,Balvu nov.,03,Vecumu pag.,0381692,"","",57.172,27.6851
LV,LV-4583,Goršāni,Balvu nov.,03,Vecumu pag.,0381692,"","",57.172,27.6851
LV,LV-4583,Slīpači,Balvu nov.,03,Vecumu pag.,0381692,"","",57.1868,27.7129
LV,LV-4583,Ezermala,Balvu nov.,03,Vecumu pag.,0381692,"","",57.172,27.6851
LV,LV-4585,Borisova,Balvu nov.,03,Vecumu pag.,0381692,"","",57.22,27.7392
LV,LV-4585,Žogova,Balvu nov.,03,Vecumu pag.,0381692,"","",57.2368,27.8058
LV,LV-4585,Gubeņi,Balvu nov.,03,Vecumu pag.,0381692,"","",57.2368,27.8058
LV,LV-4585,Cūkine,Balvu nov.,03,Vecumu pag.,0381692,"","",57.2368,27.8058
LV,LV-4585,Tālavieši,Balvu nov.,03,Vecumu pag.,0381692,"","",57.261,27.8543
LV,LV-4585,Šļopkine,Balvu nov.,03,Vecumu pag.,0381692,"","",57.2368,27.8058
LV,LV-4585,Lugi,Balvu nov.,03,Vecumu pag.,0381692,"","",57.1541,27.8136
LV,LV-4585,Lavošnieki,Balvu nov.,03,Vecumu pag.,0381692,"","",57.2368,27.8058
LV,LV-4585,Bliņica,Balvu nov.,03,Vecumu pag.,0381692,"","",57.2368,27.8058
LV,LV-4585,Ņemecki,Balvu nov.,03,Vecumu pag.,0381692,"","",57.2368,27.8058
LV,LV-4585,Vecumi,Balvu nov.,03,Vecumu pag.,0381692,"","",57.2368,27.8058
LV,LV-4585,Kozīne,Balvu nov.,03,Vecumu pag.,0381692,"","",57.2797,27.83
LV,LV-4585,Lauzi,Balvu nov.,03,Vecumu pag.,0381692,"","",57.2368,27.8058
LV,LV-4585,Rejeva,Balvu nov.,03,Vecumu pag.,0381692,"","",57.2894,27.7874
LV,LV-4585,Gārša,Balvu nov.,03,Vecumu pag.,0381692,"","",57.2368,27.8058
LV,LV-4585,Sola,Balvu nov.,03,Vecumu pag.,0381692,"","",57.2368,27.8058
LV,LV-4585,Upmala,Balvu nov.,03,Vecumu pag.,0381692,"","",57.2304,27.7666
LV,LV-4585,Indriči,Balvu nov.,03,Vecumu pag.,0381692,"","",57.2368,27.8058
LV,LV-4585,Robežnieki,Balvu nov.,03,Vecumu pag.,0381692,"","",57.244,27.8535
LV,LV-4585,Repkova,Balvu nov.,03,Vecumu pag.,0381692,"","",57.2368,27.8058
LV,LV-4585,Badnova,Balvu nov.,03,Vecumu pag.,0381692,"","",57.2161,27.8017
LV,LV-4584,Sosnīcas,Balvu nov.,03,Žīguru pag.,0381698,"","",57.2728,27.734
LV,LV-4584,Žīguri,Balvu nov.,03,Žīguru pag.,0381698,"","",57.243,27.6925
LV,LV-4584,Šalgunova,Balvu nov.,03,Žīguru pag.,0381698,"","",57.243,27.6925
LV,LV-4584,Pritikova,Balvu nov.,03,Žīguru pag.,0381698,"","",57.243,27.6925
LV,LV-4584,Černova,Balvu nov.,03,Žīguru pag.,0381698,"","",57.2933,27.7457
LV,LV-4584,Katleši,Balvu nov.,03,Žīguru pag.,0381698,"","",57.3361,27.7319
LV,LV-4584,Gārša,Balvu nov.,03,Žīguru pag.,0381698,"","",57.243,27.6925
LV,LV-4584,Brizgova,Balvu nov.,03,Žīguru pag.,0381698,"","",57.243,27.6925
LV,LV-4584,Glazunova,Balvu nov.,03,Žīguru pag.,0381698,"","",57.243,27.6925
LV,LV-4577,Benislava,Balvu nov.,03,Lazdukalna pag.,0387564,"","",56.9156,27.1685
LV,LV-4577,Skujetnieki,Balvu nov.,03,Lazdukalna pag.,0387564,"","",56.9156,27.1685
LV,LV-4570,Rugāji,Balvu nov.,03,Rugāju pag.,0387574,"","",57.0033,27.1337
LV,LV-4570,Tikaiņi,Balvu nov.,03,Rugāju pag.,0387574,"","",56.9451,27.1886
LV,LV-4594,Buksti,Balvu nov.,03,"","","","",56.939,27.5461
LV,LV-4594,Sviļpova,Balvu nov.,03,"","","","",56.991,27.6756
LV,LV-4594,Lemešova,Balvu nov.,03,"","","","",56.7531,27.6986
LV,LV-4594,Viļumi,Balvu nov.,03,"","","","",56.922,27.5053
LV,LV-4594,Maiļupe,Balvu nov.,03,"","","","",56.922,27.5053
LV,LV-4594,Pliešova,Balvu nov.,03,"","","","",56.9488,27.5949
LV,LV-4594,Rudukova,Balvu nov.,03,"","","","",56.922,27.5053
LV,LV-4594,Dupurova,Balvu nov.,03,"","","","",56.922,27.5053
LV,LV-4594,Dursprīde,Balvu nov.,03,"","","","",56.922,27.5053
LV,LV-4594,Punduri,Balvu nov.,03,"","","","",56.922,27.5053
LV,LV-4594,Tutinova,Balvu nov.,03,"","","","",56.922,27.5053
LV,LV-4594,Pleitova,Balvu nov.,03,"","","","",56.9488,27.5949
LV,LV-4594,Timšāni,Balvu nov.,03,"","","","",56.922,27.5053
LV,LV-4594,Sarkaņi,Balvu nov.,03,"","","","",56.922,27.5053
LV,LV-4594,Sloboda,Balvu nov.,03,"","","","",56.9603,27.678
LV,LV-4594,Bārzulova,Balvu nov.,03,"","","","",56.922,27.5053
LV,LV-4594,Žeikari,Balvu nov.,03,"","","","",57.0841,25.7399
LV,LV-4594,Dziervīne,Balvu nov.,03,"","","","",56.8739,27.6455
LV,LV-4594,Lauruti,Balvu nov.,03,"","","","",56.922,27.5053
LV,LV-4594,Ķēvesdruva,Balvu nov.,03,"","","","",56.922,27.5053
LV,LV-4594,Silagaiļi,Balvu nov.,03,"","","","",56.6471,27.2676
LV,LV-4594,Kraukļova,Balvu nov.,03,"","","","",56.922,27.5053
LV,LV-4594,Kožurki,Balvu nov.,03,"","","","",56.922,27.5053
LV,LV-4594,Gnilki,Balvu nov.,03,"","","","",56.9859,27.6963
LV,LV-4594,Teležnīki,Balvu nov.,03,"","","","",56.9536,27.7327
LV,LV-4594,Safronovka,Balvu nov.,03,"","","","",56.922,27.5053
LV,LV-4594,Slostova,Balvu nov.,03,"","","","",56.922,27.5053
LV,LV-4594,Keiši,Balvu nov.,03,"","","","",56.922,27.5053
LV,LV-4594,Ļevaškova,Balvu nov.,03,"","","","",56.922,27.5053
LV,LV-4594,Leidumi,Balvu nov.,03,"","","","",56.922,27.5053
LV,LV-4594,Surikova,Balvu nov.,03,"","","","",56.9292,27.5716
LV,LV-4594,Kolnumeži,Balvu nov.,03,"","","","",56.922,27.5053
LV,LV-4594,Peisova,Balvu nov.,03,"","","","",56.922,27.5053
LV,LV-4594,Ezerova,Balvu nov.,03,"","","","",56.922,27.5053
LV,LV-4594,Morkova,Balvu nov.,03,"","","","",56.922,27.5053
LV,LV-4594,Kotlova,Balvu nov.,03,"","","","",56.922,27.5053
LV,LV-4594,Kļangova,Balvu nov.,03,"","","","",56.922,27.5053
LV,LV-4594,Odumova,Balvu nov.,03,"","","","",56.922,27.5053
LV,LV-4594,Svātūne,Balvu nov.,03,"","","","",56.8914,27.544
LV,LV-4594,Karpova,Balvu nov.,03,"","","","",56.922,27.5053
LV,LV-4594,Jorzova,Balvu nov.,03,"","","","",56.922,27.5053
LV,LV-4594,Grikovka,Balvu nov.,03,"","","","",56.922,27.5053
LV,LV-4594,Mišāni,Balvu nov.,03,"","","","",56.922,27.5053
LV,LV-4594,Upiņi,Balvu nov.,03,"","","","",56.922,27.5053
LV,LV-4594,Merkuzīne,Balvu nov.,03,"","","","",56.922,27.5053
LV,LV-4594,Mačusola,Balvu nov.,03,"","","","",56.922,27.5053
LV,LV-4594,Viborgi,Balvu nov.,03,"","","","",56.922,27.5053
LV,LV-4594,Brieksīne,Balvu nov.,03,"","","","",56.9915,27.6499
LV,LV-4594,Zubki,Balvu nov.,03,"","","","",56.922,27.5053
LV,LV-4594,Dokti,Balvu nov.,03,"","","","",57.4103,27.4411
LV,LV-4594,Vasiliški,Balvu nov.,03,"","","","",56.922,27.5053
LV,LV-4594,Ūzulova,Balvu nov.,03,"","","","",56.922,27.5053
LV,LV-4594,Danski,Balvu nov.,03,"","","","",56.922,27.5053
LV,LV-4594,Boncāni,Balvu nov.,03,"","","","",56.922,27.5053
LV,LV-4594,Blauzgova,Balvu nov.,03,"","","","",56.922,27.5053
LV,LV-4594,Bahmati,Balvu nov.,03,"","","","",56.922,27.5053
LV,LV-4594,Apšova,Balvu nov.,03,"","","","",56.922,27.5053
LV,LV-4594,Upmale,Balvu nov.,03,"","","","",56.922,27.5053
LV,LV-4594,Demerova,Balvu nov.,03,"","","","",56.9699,27.6978
LV,LV-4594,Čudarīne,Balvu nov.,03,"","","","",56.93,27.6423
LV,LV-4594,Risova,Balvu nov.,03,"","","","",56.922,27.5053
LV,LV-4594,Motrīne,Balvu nov.,03,"","","","",56.8635,27.6114
LV,LV-4594,Kaši,Balvu nov.,03,"","","","",56.5867,27.1512
LV,LV-4594,Obeļova,Balvu nov.,03,"","","","",56.9018,27.5642
LV,LV-4594,Mežupe,Balvu nov.,03,"","","","",56.8391,27.3691
LV,LV-4594,Puncuļova,Balvu nov.,03,"","","","",56.9016,27.6271
LV,LV-4594,Baltinava,Balvu nov.,03,"","","","",56.9439,27.644
LV,LV-4594,Kuzņecova,Balvu nov.,03,"","","","",56.9149,27.6272
LV,LV-4594,Pazlauga,Balvu nov.,03,"","","","",56.8904,27.6224
LV,LV-4594,Putrova,Balvu nov.,03,"","","","",56.922,27.5053
LV,LV-3907,Brunava,Bauskas nov.,04,Brunavas pag.,0400246,"","",56.3564,24.3876
LV,LV-3907,Budberga,Bauskas nov.,04,Brunavas pag.,0400246,"","",56.3122,24.5206
LV,LV-3907,Grenctāle,Bauskas nov.,04,Brunavas pag.,0400246,"","",56.3123,24.343
LV,LV-3907,Ērgļi,Bauskas nov.,04,Brunavas pag.,0400246,"","",56.3269,24.4171
LV,LV-3901,Janeikas,Bauskas nov.,04,Ceraukstes pag.,0400250,"","",56.4004,24.151
LV,LV-3901,Mūsa,Bauskas nov.,04,Ceraukstes pag.,0400250,"","",56.3947,24.2398
LV,LV-3908,Ceraukste,Bauskas nov.,04,Ceraukstes pag.,0400250,"","",56.3604,24.2899
LV,LV-3901,Jauncode,Bauskas nov.,04,Codes pag.,0400252,"","",56.4004,24.151
LV,LV-3901,Elektriķi,Bauskas nov.,04,Codes pag.,0400252,"","",56.4004,24.151
LV,LV-3901,Guntas,Bauskas nov.,04,Codes pag.,0400252,"","",56.4004,24.151
LV,LV-3910,Code,Bauskas nov.,04,Codes pag.,0400252,"","",56.4692,24.1734
LV,LV-3910,Dāliņi,Bauskas nov.,04,Codes pag.,0400252,"","",56.4692,24.1734
LV,LV-3913,Lambārte,Bauskas nov.,04,Dāviņu pag.,0400256,"","",56.5212,24.3499
LV,LV-3929,Dāviņi,Bauskas nov.,04,Dāviņu pag.,0400256,"","",56.4838,24.3463
LV,LV-3931,Birzgaļi,Bauskas nov.,04,Gailīšu pag.,0400260,"","",56.2863,24.2235
LV,LV-3931,Bukubirzs,Bauskas nov.,04,Gailīšu pag.,0400260,"","",56.3127,24.2068
LV,LV-3931,Pāce,Bauskas nov.,04,Gailīšu pag.,0400260,"","",56.3192,24.1887
LV,LV-3931,Pīrāgi,Bauskas nov.,04,Gailīšu pag.,0400260,"","",56.3127,24.2068
LV,LV-3931,Uzvara,Bauskas nov.,04,Gailīšu pag.,0400260,"","",56.3127,24.2068
LV,LV-3931,Pograniča,Bauskas nov.,04,Gailīšu pag.,0400260,"","",56.3127,24.2068
LV,LV-3931,Brunavišķi,Bauskas nov.,04,Gailīšu pag.,0400260,"","",56.2875,24.1868
LV,LV-3931,Mūsa,Bauskas nov.,04,Gailīšu pag.,0400260,"","",56.3165,24.2121
LV,LV-3931,Pamūša,Bauskas nov.,04,Gailīšu pag.,0400260,"","",56.3127,24.2068
LV,LV-3931,Krievgaļi,Bauskas nov.,04,Gailīšu pag.,0400260,"","",56.2758,24.1949
LV,LV-3901,Bērzkalni,Bauskas nov.,04,Īslīces pag.,0400268,"","",56.4004,24.151
LV,LV-3901,Rītausmas,Bauskas nov.,04,Īslīces pag.,0400268,"","",56.3826,24.1696
LV,LV-3914,Ādžūni,Bauskas nov.,04,Īslīces pag.,0400268,"","",56.3182,24.0631
LV,LV-3914,Pastališķi,Bauskas nov.,04,Īslīces pag.,0400268,"","",56.3173,24.0997
LV,LV-3914,Bērzi,Bauskas nov.,04,Īslīces pag.,0400268,"","",56.3429,24.1059
LV,LV-3901,Jumprava,Bauskas nov.,04,Mežotnes pag.,0400272,"","",56.4175,24.1126
LV,LV-3918,Mežotne,Bauskas nov.,04,Mežotnes pag.,0400272,"","",56.4424,24.0577
LV,LV-3918,Ceplis,Bauskas nov.,04,Mežotnes pag.,0400272,"","",56.4424,24.0577
LV,LV-3926,Strēlnieki,Bauskas nov.,04,Mežotnes pag.,0400272,"","",56.5024,24.083
LV,LV-3926,Garoza,Bauskas nov.,04,Mežotnes pag.,0400272,"","",56.5084,24.0988
LV,LV-3915,Jaunsaule,Bauskas nov.,04,Vecsaules pag.,0400292,"","",56.3459,24.4553
LV,LV-3932,Likverteni,Bauskas nov.,04,Vecsaules pag.,0400292,"","",56.4274,24.2964
LV,LV-3932,Vecsaule,Bauskas nov.,04,Vecsaules pag.,0400292,"","",56.4326,24.3525
LV,LV-3932,Zvaigzne,Bauskas nov.,04,Vecsaules pag.,0400292,"","",56.4007,24.3742
LV,LV-3936,Ozolaine,Bauskas nov.,04,Vecsaules pag.,0400292,"","",56.4324,24.4648
LV,LV-3936,Kūdra,Bauskas nov.,04,Vecsaules pag.,0400292,"","",56.4404,24.4077
LV,LV-3901,Priedītes,Bauskas nov.,04,Rundāles pag.,0407776,"","",56.4004,24.151
LV,LV-3901,Saulaine,Bauskas nov.,04,Rundāles pag.,0407776,"","",56.3938,24.1264
LV,LV-3901,Lepšas,Bauskas nov.,04,Rundāles pag.,0407776,"","",56.4011,24.1526
LV,LV-3901,Ziedoņi,Bauskas nov.,04,Rundāles pag.,0407776,"","",56.4124,24.1047
LV,LV-3921,Vecrundāle,Bauskas nov.,04,Rundāles pag.,0407776,"","",56.4285,23.9685
LV,LV-3921,Pilsrundāle,Bauskas nov.,04,Rundāles pag.,0407776,"","",56.4181,24.0162
LV,LV-3921,Mazbērstele,Bauskas nov.,04,Rundāles pag.,0407776,"","",56.396,24.0357
LV,LV-3921,Punslavas,Bauskas nov.,04,Rundāles pag.,0407776,"","",56.4285,23.9685
LV,LV-3921,Mazmežotne,Bauskas nov.,04,Rundāles pag.,0407776,"","",56.4285,23.9685
LV,LV-3921,Jāņukrogs,Bauskas nov.,04,Rundāles pag.,0407776,"","",56.4285,23.9685
LV,LV-3921,Švirkale,Bauskas nov.,04,Rundāles pag.,0407776,"","",56.4285,23.9685
LV,LV-3917,Svitene,Bauskas nov.,04,Svitenes pag.,0407788,"","",56.3758,23.9298
LV,LV-3917,Tīrumi,Bauskas nov.,04,Svitenes pag.,0407788,"","",56.3758,23.9298
LV,LV-3921,Grāvendāle,Bauskas nov.,04,Viesturu pag.,0407796,"","",56.4285,23.9685
LV,LV-3921,Viesturi,Bauskas nov.,04,Viesturu pag.,0407796,"","",56.4285,23.9685
LV,LV-3927,Vairogi,Bauskas nov.,04,Viesturu pag.,0407796,"","",56.4537,23.9468
LV,LV-3927,Bērstele,Bauskas nov.,04,Viesturu pag.,0407796,"","",56.4456,23.9272
LV,LV-3905,Gaisma,Bauskas nov.,04,Bārbeles pag.,0409544,"","",56.4503,24.5983
LV,LV-3905,Bārbele,Bauskas nov.,04,Bārbeles pag.,0409544,"","",56.4503,24.5983
LV,LV-5115,Kurmene,Bauskas nov.,04,Kurmenes pag.,0409562,"","",56.3718,25.2537
LV,LV-3915,Mēmele,Bauskas nov.,04,Skaistkalnes pag.,0409580,"","",56.3459,24.4553
LV,LV-3924,Putni,Bauskas nov.,04,Skaistkalnes pag.,0409580,"","",56.3815,24.6456
LV,LV-3924,Skaistkalne,Bauskas nov.,04,Skaistkalnes pag.,0409580,"","",56.3815,24.6456
LV,LV-3925,Nīzere,Bauskas nov.,04,Stelpes pag.,0409584,"","",56.5281,24.4722
LV,LV-3925,Stelpe,Bauskas nov.,04,Stelpes pag.,0409584,"","",56.5379,24.5275
LV,LV-3925,Beitiņi,Bauskas nov.,04,Stelpes pag.,0409584,"","",56.533,24.4998
LV,LV-5106,Taurkalne,Bauskas nov.,04,Valles pag.,0409590,"","",56.5647,24.9286
LV,LV-5106,Valle,Bauskas nov.,04,Valles pag.,0409590,"","",56.5647,24.9286
LV,LV-3906,Misa,Bauskas nov.,04,Vecumnieku pag.,0409594,"","",56.589,24.398
LV,LV-3930,Vecumnieku,Bauskas nov.,04,Vecumnieku pag.,0409594,"","",56.4076,24.3251
LV,LV-3933,Vecumnieki,Bauskas nov.,04,Vecumnieku pag.,0409594,"","",56.6061,24.5223
LV,LV-3933,Beibeži,Bauskas nov.,04,Vecumnieku pag.,0409594,"","",56.5881,24.4492
LV,LV-3933,Piebalgas,Bauskas nov.,04,Vecumnieku pag.,0409594,"","",56.5971,24.4857
LV,LV-3913,Audrupi,Bauskas nov.,04,"","","","",56.5973,24.2285
LV,LV-3913,Dzimtmisa,Bauskas nov.,04,"","","","",56.681,24.2458
LV,LV-3913,Dimzukalns,Bauskas nov.,04,"","","","",56.5973,24.2285
LV,LV-3913,Dzelzāmurs,Bauskas nov.,04,"","","","",56.6624,24.3496
LV,LV-3913,Rosme,Bauskas nov.,04,"","","","",56.5371,24.197
LV,LV-3913,Iecava,Bauskas nov.,04,"","","","",56.5977,24.2076
LV,LV-3913,Zālīte,Bauskas nov.,04,"","","","",56.6173,24.0826
LV,LV-3913,Zorģi,Bauskas nov.,04,"","","","",56.5646,24.1668
LV,LV-4136,Krīvi,Cēsu nov.,05,Vaives pag.,0420290,"","",57.2742,25.327
LV,LV-4136,Veismaņi,Cēsu nov.,05,Vaives pag.,0420290,"","",57.2956,25.3526
LV,LV-4136,Rāmuļi,Cēsu nov.,05,Vaives pag.,0420290,"","",57.2126,25.4112
LV,LV-4136,Rīdzene,Cēsu nov.,05,Vaives pag.,0420290,"","",57.2622,25.4294
LV,LV-4136,Mežmaļi,Cēsu nov.,05,Vaives pag.,0420290,"","",57.281,25.4069
LV,LV-4108,Skaļupes,Cēsu nov.,05,Līgatnes pag.,0421262,"","",57.2105,25.023
LV,LV-4108,Augšlīgatne,Cēsu nov.,05,Līgatnes pag.,0421262,"","",57.1885,25.0389
LV,LV-4108,Ratnieki,Cēsu nov.,05,Līgatnes pag.,0421262,"","",57.223,24.9615
LV,LV-4108,Ķempji,Cēsu nov.,05,Līgatnes pag.,0421262,"","",57.2198,25.0687
LV,LV-4139,Spāre,Cēsu nov.,05,Amatas pag.,0424742,"","",57.2186,25.2401
LV,LV-4141,Ģikši,Cēsu nov.,05,Amatas pag.,0424742,"","",57.1946,25.3922
LV,LV-4101,Līvi,Cēsu nov.,05,Drabešu pag.,0424746,"","",57.2265,25.2909
LV,LV-4101,Amata,Cēsu nov.,05,Drabešu pag.,0424746,"","",57.2099,25.3043
LV,LV-4101,Drabeši,Cēsu nov.,05,Drabešu pag.,0424746,"","",57.2432,25.2775
LV,LV-4101,Meijermuiža,Cēsu nov.,05,Drabešu pag.,0424746,"","",57.2265,25.2909
LV,LV-4139,Bille,Cēsu nov.,05,Drabešu pag.,0424746,"","",57.2186,25.2401
LV,LV-4139,Ieriķi,Cēsu nov.,05,Drabešu pag.,0424746,"","",57.2186,25.2401
LV,LV-4139,Kārļi,Cēsu nov.,05,Drabešu pag.,0424746,"","",57.2186,25.2401
LV,LV-4112,Nītaure,Cēsu nov.,05,Nītaures pag.,0424768,"","",57.1052,25.3823
LV,LV-4143,Sērmūkši,Cēsu nov.,05,Skujenes pag.,0424778,"","",57.1234,25.5136
LV,LV-4143,Skujene,Cēsu nov.,05,Skujenes pag.,0424778,"","",57.0929,25.4695
LV,LV-4113,Bērzs,Cēsu nov.,05,Zaubes pag.,0424796,"","",56.9582,25.2062
LV,LV-4113,Zaube,Cēsu nov.,05,Zaubes pag.,0424796,"","",56.9933,25.2608
LV,LV-4113,Annas,Cēsu nov.,05,Zaubes pag.,0424796,"","",57.038,25.3625
LV,LV-4113,Kliģene,Cēsu nov.,05,Zaubes pag.,0424796,"","",56.9867,25.3519
LV,LV-4125,Jaunpiebalga,Cēsu nov.,05,Jaunpiebalgas pag.,0425756,"","",57.1775,26.0284
LV,LV-4125,Abrupe,Cēsu nov.,05,Jaunpiebalgas pag.,0425756,"","",57.1443,25.988
LV,LV-4133,Melnbārži,Cēsu nov.,05,Zosēnu pag.,0425798,"","",57.1731,25.8412
LV,LV-4128,Liepa,Cēsu nov.,05,Liepas pag.,0427360,"","",57.3844,25.4256
LV,LV-4128,Sarkaņi,Cēsu nov.,05,Liepas pag.,0427360,"","",57.3844,25.4256
LV,LV-4129,Mārsnēni,Cēsu nov.,05,Mārsnēnu pag.,0427364,"","",57.2354,25.6532
LV,LV-4126,Dukuri,Cēsu nov.,05,Priekuļu pag.,0427372,"","",57.3303,25.2995
LV,LV-4126,Priekuļi,Cēsu nov.,05,Priekuļu pag.,0427372,"","",57.315,25.3615
LV,LV-4126,Strautmaļi,Cēsu nov.,05,Priekuļu pag.,0427372,"","",57.3226,25.3305
LV,LV-4154,Jāņmuiža,Cēsu nov.,05,Priekuļu pag.,0427372,"","",57.3986,25.0159
LV,LV-4116,Veselava,Cēsu nov.,05,Veselavas pag.,0427394,"","",57.2802,25.4955
LV,LV-4116,Bērzkrogs,Cēsu nov.,05,Veselavas pag.,0427394,"","",57.2802,25.4955
LV,LV-4146,Kūdums,Cēsu nov.,05,Raiskuma pag.,0427574,"","",57.3516,25.1771
LV,LV-4146,Lenči,Cēsu nov.,05,Raiskuma pag.,0427574,"","",57.3904,25.1969
LV,LV-4146,Bērziņi,Cēsu nov.,05,Raiskuma pag.,0427574,"","",57.3516,25.1771
LV,LV-4146,Gundegas,Cēsu nov.,05,Raiskuma pag.,0427574,"","",57.3516,25.1771
LV,LV-4146,Raiskums,Cēsu nov.,05,Raiskuma pag.,0427574,"","",57.3129,25.1572
LV,LV-4146,Auciems,Cēsu nov.,05,Raiskuma pag.,0427574,"","",57.3516,25.1771
LV,LV-4151,Rozula,Cēsu nov.,05,Stalbes pag.,0427580,"","",57.4068,24.9763
LV,LV-4151,Daibe,Cēsu nov.,05,Stalbes pag.,0427580,"","",57.4537,25.0768
LV,LV-4151,Stalbe,Cēsu nov.,05,Stalbes pag.,0427580,"","",57.3707,25.0311
LV,LV-4152,Straupe,Cēsu nov.,05,Straupes pag.,0427582,"","",57.3633,24.9795
LV,LV-4152,Plācis,Cēsu nov.,05,Straupes pag.,0427582,"","",57.3633,24.9795
LV,LV-4152,Lielstraupe,Cēsu nov.,05,Straupes pag.,0427582,"","",57.3633,24.9795
LV,LV-4118,Dzērbene,Cēsu nov.,05,Dzērbenes pag.,0429350,"","",57.1915,25.6764
LV,LV-4123,Ineši,Cēsu nov.,05,Inešu pag.,0429354,"","",57.2354,25.6532
LV,LV-4144,Kaive,Cēsu nov.,05,Kaives pag.,0429358,"","",57.0535,25.6236
LV,LV-4119,Taurene,Cēsu nov.,05,Taurenes pag.,0429386,"","",57.1596,25.6647
LV,LV-4122,Vecpiebalga,Cēsu nov.,05,Vecpiebalgas pag.,0429392,"","",57.0609,25.8162
LV,LV-4102,Cēsis,Cēsu nov.,05,"","","","",57.3119,25.2746
LV,LV-4103,Cēsis,Cēsu nov.,05,"","","","",57.3119,25.2746
LV,LV-4110,Līgatne,Cēsu nov.,05,"","","","",57.2343,25.0406
LV,LV-5401,Daugavpils,Daugavpils,06,"","","","",55.9765,26.6427
LV,LV-5404,Daugavpils,Daugavpils,06,"","","","",55.9765,26.6427
LV,LV-5410,Daugavpils,Daugavpils,06,"","","","",55.9083,26.6188
LV,LV-5412,Daugavpils,Daugavpils,06,"","","","",55.9083,26.6188
LV,LV-5413,Daugavpils,Daugavpils,06,"","","","",55.9083,26.6188
LV,LV-5414,Daugavpils,Daugavpils,06,"","","","",55.9083,26.6188
LV,LV-5415,Daugavpils,Daugavpils,06,"","","","",55.9083,26.6188
LV,LV-5417,Daugavpils,Daugavpils,06,"","","","",55.9083,26.6188
LV,LV-5418,Daugavpils,Daugavpils,06,"","","","",55.9083,26.6188
LV,LV-5422,Daugavpils,Daugavpils,06,"","","","",55.9765,26.6427
LV,LV-3718,Kaķenieki,Dobeles nov.,08,Annenieku pag.,0460242,"","",56.6659,23.0376
LV,LV-3718,Annenieki,Dobeles nov.,08,Annenieku pag.,0460242,"","",56.6757,23.0962
LV,LV-3701,Gardene,Dobeles nov.,08,Auru pag.,0460246,"","",56.6485,23.2188
LV,LV-3701,Lielbērze,Dobeles nov.,08,Auru pag.,0460246,"","",56.6444,23.2406
LV,LV-3701,Liepziedi,Dobeles nov.,08,Auru pag.,0460246,"","",56.6602,23.2239
LV,LV-3710,Auri,Dobeles nov.,08,Auru pag.,0460246,"","",56.5643,23.2939
LV,LV-3710,Ķirpēni,Dobeles nov.,08,Auru pag.,0460246,"","",56.5316,23.3253
LV,LV-3732,Bērze,Dobeles nov.,08,Bērzes pag.,0460252,"","",56.6857,23.4389
LV,LV-3732,Miltiņi,Dobeles nov.,08,Bērzes pag.,0460252,"","",56.63,23.3467
LV,LV-3732,Šķibe,Dobeles nov.,08,Bērzes pag.,0460252,"","",56.6228,23.4086
LV,LV-3713,Biksti,Dobeles nov.,08,Bikstu pag.,0460254,"","",56.6708,22.9671
LV,LV-3701,Aizstrautnieki,Dobeles nov.,08,Dobeles pag.,0460260,"","",56.6876,23.2123
LV,LV-3722,Lejasstrazdi,Dobeles nov.,08,Dobeles pag.,0460260,"","",56.6612,23.3133
LV,LV-3717,Jaunbērze,Dobeles nov.,08,Jaunbērzes pag.,0460268,"","",56.7382,23.3919
LV,LV-3701,Ceriņi,Dobeles nov.,08,Krimūnu pag.,0460272,"","",56.6602,23.2239
LV,LV-3719,Krimūnas,Dobeles nov.,08,Krimūnu pag.,0460272,"","",56.5707,23.3785
LV,LV-3719,Akācijas,Dobeles nov.,08,Krimūnu pag.,0460272,"","",56.5522,23.4175
LV,LV-3724,Apgulde,Dobeles nov.,08,Naudītes pag.,0460280,"","",56.5331,23.2388
LV,LV-3724,Naudīte,Dobeles nov.,08,Naudītes pag.,0460280,"","",56.5354,23.1953
LV,LV-3725,Penkule,Dobeles nov.,08,Penkules pag.,0460284,"","",56.4852,23.1877
LV,LV-3731,Zebrene,Dobeles nov.,08,Zebrenes pag.,0460298,"","",56.6037,22.8838
LV,LV-3708,Vecauce,Dobeles nov.,08,Vecauces pag.,0460825,"","",56.56,23.2842
LV,LV-3711,Bēne,Dobeles nov.,08,Bēnes pag.,0460850,"","",56.4828,23.0672
LV,LV-3711,Vecmiķeļi,Dobeles nov.,08,Bēnes pag.,0460850,"","",56.4582,23.0646
LV,LV-3716,Īle,Dobeles nov.,08,Īles pag.,0460864,"","",56.5591,23.2006
LV,LV-3723,Ražotāji,Dobeles nov.,08,Lielauces pag.,0460876,"","",56.5136,22.8663
LV,LV-3723,Lielauce,Dobeles nov.,08,Lielauces pag.,0460876,"","",56.5136,22.8663
LV,LV-3723,Ķieģeļceplis,Dobeles nov.,08,Lielauces pag.,0460876,"","",56.5136,22.8663
LV,LV-3714,Sniķere,Dobeles nov.,08,Ukru pag.,0460890,"","",56.3989,23.1146
LV,LV-3729,Ukri,Dobeles nov.,08,Ukru pag.,0460890,"","",56.3419,23.0582
LV,LV-3708,Vītiņi,Dobeles nov.,08,Vītiņu pag.,0460894,"","",56.56,23.2842
LV,LV-3721,Ķevele,Dobeles nov.,08,Vītiņu pag.,0460894,"","",56.5117,23.1433
LV,LV-3709,Augstkalne,Dobeles nov.,08,Augstkalnes pag.,0468944,"","",56.4064,23.3385
LV,LV-3709,Dzeguzēni,Dobeles nov.,08,Augstkalnes pag.,0468944,"","",56.4132,23.4106
LV,LV-3714,Bukaiši,Dobeles nov.,08,Bukaišu pag.,0468956,"","",56.4003,23.2524
LV,LV-3730,Tērvete,Dobeles nov.,08,Tērvetes pag.,0468988,"","",56.4799,23.3889
LV,LV-3730,Zelmeņi,Dobeles nov.,08,Tērvetes pag.,0468988,"","",56.4517,23.3519
LV,LV-3730,Kroņauce,Dobeles nov.,08,Tērvetes pag.,0468988,"","",56.5131,23.3427
LV,LV-4401,Svelberģis,Gulbenes nov.,09,Beļavas pag.,0500244,"","",57.2509,26.8768
LV,LV-4409,Beļava,Gulbenes nov.,09,Beļavas pag.,0500244,"","",57.2544,26.7716
LV,LV-4409,Pilskalns,Gulbenes nov.,09,Beļavas pag.,0500244,"","",57.2886,26.7878
LV,LV-4409,Letes,Gulbenes nov.,09,Beļavas pag.,0500244,"","",57.3017,26.8496
LV,LV-4410,Ozolkalns,Gulbenes nov.,09,Beļavas pag.,0500244,"","",57.1945,26.6964
LV,LV-4410,Svelberģis,Gulbenes nov.,09,Beļavas pag.,0500244,"","",57.1945,26.6964
LV,LV-4417,Stari,Gulbenes nov.,09,Daukstu pag.,0500248,"","",57.1179,26.7279
LV,LV-4429,Daukstes,Gulbenes nov.,09,Daukstu pag.,0500248,"","",57.0833,26.7667
LV,LV-4429,Krapa,Gulbenes nov.,09,Daukstu pag.,0500248,"","",57.1297,26.6567
LV,LV-4426,Druviena,Gulbenes nov.,09,Druvienas pag.,0500252,"","",57.1146,26.2964
LV,LV-4428,Rimstavas,Gulbenes nov.,09,Galgauskas pag.,0500256,"","",57.1439,26.6062
LV,LV-4428,Galgauska,Gulbenes nov.,09,Galgauskas pag.,0500256,"","",57.1669,26.5515
LV,LV-4420,Jaungulbene,Gulbenes nov.,09,Jaungulbenes pag.,0500260,"","",57.0671,26.5985
LV,LV-4420,Gulbītis,Gulbenes nov.,09,Jaungulbenes pag.,0500260,"","",57.0774,26.6295
LV,LV-4412,Lejasciems,Gulbenes nov.,09,Lejasciema pag.,0500264,"","",57.2802,26.5768
LV,LV-4412,Sinole,Gulbenes nov.,09,Lejasciema pag.,0500264,"","",57.2505,26.497
LV,LV-4405,Litene,Gulbenes nov.,09,Litenes pag.,0500268,"","",57.1901,27.0276
LV,LV-4415,Velēna,Gulbenes nov.,09,Lizuma pag.,0500272,"","",57.2393,26.4024
LV,LV-4425,Lizums,Gulbenes nov.,09,Lizuma pag.,0500272,"","",57.1904,26.3698
LV,LV-4421,Līgo,Gulbenes nov.,09,Līgo pag.,0500276,"","",57.0169,26.5783
LV,LV-4416,Ranka,Gulbenes nov.,09,Rankas pag.,0500284,"","",57.2105,26.1844
LV,LV-4416,Gaujasrēveļi,Gulbenes nov.,09,Rankas pag.,0500284,"","",57.222,26.1358
LV,LV-4416,Rēveļi,Gulbenes nov.,09,Rankas pag.,0500284,"","",57.2396,26.1331
LV,LV-4406,Stāmeriena,Gulbenes nov.,09,Stāmerienas pag.,0500288,"","",57.2353,26.8835
LV,LV-4406,Vecstāmeriena,Gulbenes nov.,09,Stāmerienas pag.,0500288,"","",57.2146,26.888
LV,LV-4406,Kalniena,Gulbenes nov.,09,Stāmerienas pag.,0500288,"","",57.2714,26.9295
LV,LV-4417,Stradi,Gulbenes nov.,09,Stradu pag.,0500290,"","",57.1398,26.7931
LV,LV-4417,Margas,Gulbenes nov.,09,Stradu pag.,0500290,"","",57.1332,26.7469
LV,LV-4417,Ceļmalas,Gulbenes nov.,09,Stradu pag.,0500290,"","",57.1332,26.7469
LV,LV-4417,Šķieneri,Gulbenes nov.,09,Stradu pag.,0500290,"","",57.1417,26.7353
LV,LV-4417,Stāķi,Gulbenes nov.,09,Stradu pag.,0500290,"","",57.1334,26.7312
LV,LV-4424,Tirza,Gulbenes nov.,09,Tirzas pag.,0500294,"","",57.141,26.4306
LV,LV-4424,Vecaduliena,Gulbenes nov.,09,Tirzas pag.,0500294,"","",57.0894,26.4092
LV,LV-5201,Brodi,Jēkabpils nov.,10,Ābeļu pag.,0560248,"","",56.4689,25.8698
LV,LV-5212,Ābeļi,Jēkabpils nov.,10,Ābeļu pag.,0560248,"","",56.4689,25.8698
LV,LV-5212,Laši,Jēkabpils nov.,10,Ābeļu pag.,0560248,"","",56.4689,25.8698
LV,LV-5212,Brodi,Jēkabpils nov.,10,Ābeļu pag.,0560248,"","",56.4689,25.8698
LV,LV-5215,Vandāni,Jēkabpils nov.,10,Dignājas pag.,0560252,"","",56.3333,26.16
LV,LV-5216,Dunava,Jēkabpils nov.,10,Dunavas pag.,0560254,"","",56.2142,26.2031
LV,LV-5216,Sudrabkalns,Jēkabpils nov.,10,Dunavas pag.,0560254,"","",56.2525,26.1741
LV,LV-5220,Vidsala,Jēkabpils nov.,10,Kalna pag.,0560266,"","",56.3431,25.8598
LV,LV-5220,Dubulti,Jēkabpils nov.,10,Kalna pag.,0560266,"","",56.3431,25.8598
LV,LV-5223,Leimaņi,Jēkabpils nov.,10,Leimaņu pag.,0560274,"","",56.3111,25.9256
LV,LV-5223,Mežgale,Jēkabpils nov.,10,Leimaņu pag.,0560274,"","",56.2781,25.8582
LV,LV-5229,Kaldabruņa,Jēkabpils nov.,10,Rubenes pag.,0560282,"","",56.1075,26.0538
LV,LV-5229,Rubeņi,Jēkabpils nov.,10,Rubenes pag.,0560282,"","",56.1358,25.9866
LV,LV-5229,Slate,Jēkabpils nov.,10,Rubenes pag.,0560282,"","",56.202,25.9987
LV,LV-5221,Liepas,Jēkabpils nov.,10,Zasas pag.,0560298,"","",56.2547,26.0215
LV,LV-5239,Zasa,Jēkabpils nov.,10,Zasas pag.,0560298,"","",56.2927,25.9807
LV,LV-5208,Aknīstes,Jēkabpils nov.,10,Aknīstes pag.,0560825,"","",56.4979,25.8693
LV,LV-5210,Ancene,Jēkabpils nov.,10,Asares pag.,0560844,"","",56.1026,25.9614
LV,LV-5210,Asare,Jēkabpils nov.,10,Asares pag.,0560844,"","",56.1179,25.8875
LV,LV-5218,Kraujas,Jēkabpils nov.,10,Gārsenes pag.,0560862,"","",56.2482,26.0426
LV,LV-5218,Gārsene,Jēkabpils nov.,10,Gārsenes pag.,0560862,"","",56.2482,26.0426
LV,LV-5217,Apserde,Jēkabpils nov.,10,Elkšņu pag.,0561858,"","",56.2482,26.0426
LV,LV-5217,Elkšņi,Jēkabpils nov.,10,Elkšņu pag.,0561858,"","",56.2482,26.0426
LV,LV-5237,Klauce,Jēkabpils nov.,10,Elkšņu pag.,0561858,"","",56.4528,25.7943
LV,LV-5228,Rites,Jēkabpils nov.,10,Rites pag.,0561880,"","",56.2713,25.9933
LV,LV-5224,Sauka,Jēkabpils nov.,10,Saukas pag.,0561888,"","",56.2713,25.9933
LV,LV-5224,Lone,Jēkabpils nov.,10,Saukas pag.,0561888,"","",56.2713,25.9933
LV,LV-5211,Atašiene,Jēkabpils nov.,10,Atašienes pag.,0566946,"","",56.2482,26.0426
LV,LV-5202,Krustpils,Jēkabpils nov.,10,Krustpils pag.,0566968,"","",56.5259,25.8808
LV,LV-5204,Spunģēni,Jēkabpils nov.,10,Krustpils pag.,0566968,"","",56.4979,25.8693
LV,LV-5204,Priži,Jēkabpils nov.,10,Krustpils pag.,0566968,"","",56.4979,25.8693
LV,LV-5222,Zīlāni,Jēkabpils nov.,10,Kūku pag.,0566970,"","",56.2713,25.9933
LV,LV-5222,Kūkas,Jēkabpils nov.,10,Kūku pag.,0566970,"","",56.2713,25.9933
LV,LV-5222,Jaunā muiža,Jēkabpils nov.,10,Kūku pag.,0566970,"","",56.2713,25.9933
LV,LV-5226,Mežāre,Jēkabpils nov.,10,Mežāres pag.,0566976,"","",56.5378,26.2424
LV,LV-5209,Antūži,Jēkabpils nov.,10,Variešu pag.,0566994,"","",56.4979,25.8693
LV,LV-5236,Varieši,Jēkabpils nov.,10,Variešu pag.,0566994,"","",56.4528,25.7943
LV,LV-5236,Medņi,Jēkabpils nov.,10,Variešu pag.,0566994,"","",56.4528,25.7943
LV,LV-5238,Vīpe,Jēkabpils nov.,10,Vīpes pag.,0566996,"","",56.4528,25.7943
LV,LV-5214,Dolomīts,Jēkabpils nov.,10,Salas pag.,0568786,"","",56.2482,26.0426
LV,LV-5214,Birži,Jēkabpils nov.,10,Salas pag.,0568786,"","",56.2482,26.0426
LV,LV-5230,Putnukalni,Jēkabpils nov.,10,Salas pag.,0568786,"","",56.5068,25.7642
LV,LV-5230,Sala,Jēkabpils nov.,10,Salas pag.,0568786,"","",56.5068,25.7642
LV,LV-5230,Ošāni,Jēkabpils nov.,10,Salas pag.,0568786,"","",56.5068,25.7642
LV,LV-5230,Gravāni,Jēkabpils nov.,10,Salas pag.,0568786,"","",56.5068,25.7642
LV,LV-5230,Indrāni,Jēkabpils nov.,10,Salas pag.,0568786,"","",56.5068,25.7642
LV,LV-5232,Sēlija,Jēkabpils nov.,10,Sēlpils pag.,0568790,"","",56.5589,25.638
LV,LV-5201,Jekabpils,Jēkabpils nov.,10,"","","","",56.499,25.8574
LV,LV-5202,Jekabpils,Jēkabpils nov.,10,"","","","",56.5259,25.8808
LV,LV-3001,Jelgava,Jelgava,11,"","","","",56.65,23.7128
LV,LV-3002,Jelgava,Jelgava,11,"","","","",56.65,23.7128
LV,LV-3003,Jelgava,Jelgava,11,"","","","",56.65,23.7128
LV,LV-3004,Jelgava,Jelgava,11,"","","","",56.65,23.7128
LV,LV-3007,Jelgava,Jelgava,11,"","","","",56.65,23.7128
LV,LV-3008,Jelgava,Jelgava,11,"","","","",56.65,23.7128
LV,LV-3018,Jelgava,Jelgava,11,"","","","",56.65,23.7128
LV,LV-3023,Eleja,Jelgavas nov.,12,Elejas pag.,0540248,"","",56.4159,23.6833
LV,LV-3003,Viesturciems,Jelgavas nov.,12,Glūdas pag.,0540252,"","",56.6223,23.5967
LV,LV-3040,Viesturciems,Jelgavas nov.,12,Glūdas pag.,0540252,"","",56.6223,23.5967
LV,LV-3040,Dorupe,Jelgavas nov.,12,Glūdas pag.,0540252,"","",56.6234,23.5435
LV,LV-3040,Zemgale,Jelgavas nov.,12,Glūdas pag.,0540252,"","",56.5832,23.5528
LV,LV-3040,Nākotne,Jelgavas nov.,12,Glūdas pag.,0540252,"","",56.6182,23.448
LV,LV-3001,Mežciems,Jelgavas nov.,12,Jaunsvirlaukas pag.,0540256,"","",56.6197,23.7711
LV,LV-3001,Kārniņi,Jelgavas nov.,12,Jaunsvirlaukas pag.,0540256,"","",56.632,23.7902
LV,LV-3031,Staļģene,Jelgavas nov.,12,Jaunsvirlaukas pag.,0540256,"","",56.5707,23.9567
LV,LV-3031,Vecsvirlauka,Jelgavas nov.,12,Jaunsvirlaukas pag.,0540256,"","",56.6034,23.8905
LV,LV-3031,Dzirnieki,Jelgavas nov.,12,Jaunsvirlaukas pag.,0540256,"","",56.563,23.8746
LV,LV-3016,Poķi,Jelgavas nov.,12,Kalnciema pag.,0540258,"","",56.7741,23.6199
LV,LV-3016,Kalnciems,Jelgavas nov.,12,Kalnciema pag.,0540258,"","",56.7991,23.615
LV,LV-3017,Kaļķis,Jelgavas nov.,12,Kalnciema pag.,0540258,"","",56.8371,23.5553
LV,LV-3022,Lielplatone,Jelgavas nov.,12,Lielplatones pag.,0540260,"","",56.4508,23.6638
LV,LV-3022,Sidrabe,Jelgavas nov.,12,Lielplatones pag.,0540260,"","",56.4352,23.6372
LV,LV-3003,Vārpa,Jelgavas nov.,12,Līvbērzes pag.,0540262,"","",56.6791,23.6675
LV,LV-3003,Tušķi,Jelgavas nov.,12,Līvbērzes pag.,0540262,"","",56.6522,23.6288
LV,LV-3014,Līvbērze,Jelgavas nov.,12,Līvbērzes pag.,0540262,"","",56.6875,23.4969
LV,LV-3021,Platone,Jelgavas nov.,12,Platones pag.,0540270,"","",56.5398,23.6931
LV,LV-3021,Poķi,Jelgavas nov.,12,Platones pag.,0540270,"","",56.5046,23.6858
LV,LV-3036,Lielvircava,Jelgavas nov.,12,Platones pag.,0540270,"","",56.5158,23.7479
LV,LV-3036,Platone,Jelgavas nov.,12,Platones pag.,0540270,"","",56.5398,23.6931
LV,LV-3034,Bērvircava,Jelgavas nov.,12,Sesavas pag.,0540274,"","",56.4037,23.7471
LV,LV-3034,Sesava,Jelgavas nov.,12,Sesavas pag.,0540274,"","",56.4259,23.8185
LV,LV-3008,Svēte,Jelgavas nov.,12,Svētes pag.,0540282,"","",56.5895,23.6698
LV,LV-3008,Atpūta,Jelgavas nov.,12,Svētes pag.,0540282,"","",56.6043,23.6704
LV,LV-3028,Jēkabnieki,Jelgavas nov.,12,Svētes pag.,0540282,"","",56.5306,23.6047
LV,LV-3017,Valgunde,Jelgavas nov.,12,Valgundes pag.,0540286,"","",56.7492,23.6806
LV,LV-3017,Vītoliņi,Jelgavas nov.,12,Valgundes pag.,0540286,"","",56.7009,23.7007
LV,LV-3017,Tīreļi,Jelgavas nov.,12,Valgundes pag.,0540286,"","",56.8399,23.589
LV,LV-3026,Ziedkalne,Jelgavas nov.,12,Vilces pag.,0540290,"","",56.4348,23.4797
LV,LV-3026,Vilce,Jelgavas nov.,12,Vilces pag.,0540290,"","",56.4203,23.5478
LV,LV-3020,Vircava,Jelgavas nov.,12,Vircavas pag.,0540292,"","",56.5588,23.7726
LV,LV-3036,Oglaine,Jelgavas nov.,12,Vircavas pag.,0540292,"","",56.4917,23.8244
LV,LV-3037,Mazlauki,Jelgavas nov.,12,Vircavas pag.,0540292,"","",56.5205,23.8516
LV,LV-3011,Zaļenieki,Jelgavas nov.,12,Zaļenieku pag.,0540296,"","",56.5266,23.508
LV,LV-3002,Raubēni,Jelgavas nov.,12,Cenu pag.,0546744,"","",56.65,23.7128
LV,LV-3018,Iecēni,Jelgavas nov.,12,Cenu pag.,0546744,"","",56.7018,23.8218
LV,LV-3018,Glūdas,Jelgavas nov.,12,Cenu pag.,0546744,"","",56.7148,23.8007
LV,LV-3018,Cena,Jelgavas nov.,12,Cenu pag.,0546744,"","",56.7018,23.8218
LV,LV-3018,Brankas,Jelgavas nov.,12,Cenu pag.,0546744,"","",56.6818,23.842
LV,LV-3018,Dalbe,Jelgavas nov.,12,Cenu pag.,0546744,"","",56.7401,23.897
LV,LV-3018,Jaunpēternieki,Jelgavas nov.,12,Cenu pag.,0546744,"","",56.7298,23.924
LV,LV-3042,Brankas,Jelgavas nov.,12,Cenu pag.,0546744,"","",56.6818,23.842
LV,LV-3043,Raubēni,Jelgavas nov.,12,Cenu pag.,0546744,"","",56.6429,23.8254
LV,LV-3043,Tetele,Jelgavas nov.,12,Cenu pag.,0546744,"","",56.6383,23.8381
LV,LV-3043,Āne,Jelgavas nov.,12,Cenu pag.,0546744,"","",56.6475,23.8127
LV,LV-3004,Ozolnieku,Jelgavas nov.,12,Ozolnieku pag.,0546766,"","",56.65,23.7128
LV,LV-3018,Ozolnieki,Jelgavas nov.,12,Ozolnieku pag.,0546766,"","",56.6942,23.7542
LV,LV-3045,Garoza,Jelgavas nov.,12,Salgales pag.,0546778,"","",56.6281,23.9396
LV,LV-3045,Emburga,Jelgavas nov.,12,Salgales pag.,0546778,"","",56.566,23.9854
LV,LV-3045,Renceles,Jelgavas nov.,12,Salgales pag.,0546778,"","",56.5277,24.0347
LV,LV-2008,Jurmala,Jurmala,13,"","","","",56.968,23.7704
LV,LV-2010,Jurmala,Jurmala,13,"","","","",56.968,23.7704
LV,LV-2011,Jurmala,Jurmala,13,"","","","",56.968,23.7704
LV,LV-2012,Jurmala,Jurmala,13,"","","","",56.968,23.7704
LV,LV-2015,Jurmala,Jurmala,13,"","","","",56.968,23.7704
LV,LV-2016,Jurmala,Jurmala,13,"","","","",56.968,23.7704
LV,LV-5681,Viļamāni,Krāslavas nov.,14,Aulejas pag.,0600248,"","",56.0479,27.2654
LV,LV-5681,Meža Doski,Krāslavas nov.,14,Aulejas pag.,0600248,"","",56.0479,27.2654
LV,LV-5681,Nitiški,Krāslavas nov.,14,Aulejas pag.,0600248,"","",56.0479,27.2654
LV,LV-5681,Plotie,Krāslavas nov.,14,Aulejas pag.,0600248,"","",56.0479,27.2654
LV,LV-5681,Ramaniški,Krāslavas nov.,14,Aulejas pag.,0600248,"","",56.0479,27.2654
LV,LV-5681,Rubeni,Krāslavas nov.,14,Aulejas pag.,0600248,"","",56.0479,27.2654
LV,LV-5681,Veiguļi,Krāslavas nov.,14,Aulejas pag.,0600248,"","",56.0479,27.2654
LV,LV-5681,Vaišļi,Krāslavas nov.,14,Aulejas pag.,0600248,"","",56.0479,27.2654
LV,LV-5681,Lielie Doski,Krāslavas nov.,14,Aulejas pag.,0600248,"","",56.0479,27.2654
LV,LV-5681,Māteji,Krāslavas nov.,14,Aulejas pag.,0600248,"","",56.0479,27.2654
LV,LV-5681,Šķipi,Krāslavas nov.,14,Aulejas pag.,0600248,"","",56.0353,27.2135
LV,LV-5681,Čerpinski,Krāslavas nov.,14,Aulejas pag.,0600248,"","",56.0479,27.2654
LV,LV-5681,Anči,Krāslavas nov.,14,Aulejas pag.,0600248,"","",56.0479,27.2654
LV,LV-5681,Žaunerāni,Krāslavas nov.,14,Aulejas pag.,0600248,"","",56.0479,27.2654
LV,LV-5681,Zīperi,Krāslavas nov.,14,Aulejas pag.,0600248,"","",56.0479,27.2654
LV,LV-5681,Bleideļi,Krāslavas nov.,14,Aulejas pag.,0600248,"","",56.0519,27.335
LV,LV-5681,Ezergali,Krāslavas nov.,14,Aulejas pag.,0600248,"","",56.0479,27.2654
LV,LV-5681,Drongāni,Krāslavas nov.,14,Aulejas pag.,0600248,"","",56.0479,27.2654
LV,LV-5681,Kalviši,Krāslavas nov.,14,Aulejas pag.,0600248,"","",56.0479,27.2654
LV,LV-5681,Kalna Podnieki,Krāslavas nov.,14,Aulejas pag.,0600248,"","",56.0479,27.2654
LV,LV-5681,Vanagi,Krāslavas nov.,14,Aulejas pag.,0600248,"","",56.0365,27.2802
LV,LV-5681,Dzalbi,Krāslavas nov.,14,Aulejas pag.,0600248,"","",56.0243,27.2439
LV,LV-5681,Grītāni,Krāslavas nov.,14,Aulejas pag.,0600248,"","",56.0634,27.2216
LV,LV-5681,Lejas Podnieki,Krāslavas nov.,14,Aulejas pag.,0600248,"","",56.066,27.2347
LV,LV-5681,Auleja,Krāslavas nov.,14,Aulejas pag.,0600248,"","",56.0594,27.2929
LV,LV-5681,Brāslava,Krāslavas nov.,14,Aulejas pag.,0600248,"","",56.0479,27.2654
LV,LV-5681,Buseniški,Krāslavas nov.,14,Aulejas pag.,0600248,"","",56.046,27.3016
LV,LV-5664,Kravčonki,Krāslavas nov.,14,Indras pag.,0600262,"","",55.8582,27.5156
LV,LV-5664,Zeļonščina,Krāslavas nov.,14,Indras pag.,0600262,"","",55.8582,27.5156
LV,LV-5664,Butkunova,Krāslavas nov.,14,Indras pag.,0600262,"","",55.8582,27.5156
LV,LV-5664,Baltā,Krāslavas nov.,14,Indras pag.,0600262,"","",55.8582,27.5156
LV,LV-5664,Indra,Krāslavas nov.,14,Indras pag.,0600262,"","",55.8759,27.5329
LV,LV-5664,Vaicuļeva,Krāslavas nov.,14,Indras pag.,0600262,"","",55.854,27.5484
LV,LV-5664,Kļasi,Krāslavas nov.,14,Indras pag.,0600262,"","",55.8582,27.5156
LV,LV-5664,Savenci,Krāslavas nov.,14,Indras pag.,0600262,"","",55.8582,27.5156
LV,LV-5664,Kikovščina,Krāslavas nov.,14,Indras pag.,0600262,"","",55.8582,27.5156
LV,LV-5664,Kelova,Krāslavas nov.,14,Indras pag.,0600262,"","",55.8582,27.5156
LV,LV-5664,Baļbinova,Krāslavas nov.,14,Indras pag.,0600262,"","",55.8582,27.5156
LV,LV-5664,Karklinova,Krāslavas nov.,14,Indras pag.,0600262,"","",55.8582,27.5156
LV,LV-5664,Janeļeva,Krāslavas nov.,14,Indras pag.,0600262,"","",55.8582,27.5156
LV,LV-5664,Auguļi,Krāslavas nov.,14,Indras pag.,0600262,"","",55.8582,27.5156
LV,LV-5664,Kevreļeva,Krāslavas nov.,14,Indras pag.,0600262,"","",55.8582,27.5156
LV,LV-5664,Bārtuļi,Krāslavas nov.,14,Indras pag.,0600262,"","",55.8582,27.5156
LV,LV-5664,Dargeļeva,Krāslavas nov.,14,Indras pag.,0600262,"","",55.8586,27.4887
LV,LV-5664,Vaivodi,Krāslavas nov.,14,Indras pag.,0600262,"","",55.8441,27.4923
LV,LV-5664,Gorodišče,Krāslavas nov.,14,Indras pag.,0600262,"","",55.8582,27.5156
LV,LV-5664,Izova,Krāslavas nov.,14,Indras pag.,0600262,"","",55.8582,27.5156
LV,LV-5664,Geidāni,Krāslavas nov.,14,Indras pag.,0600262,"","",55.8582,27.5156
LV,LV-5664,Fiļipovci,Krāslavas nov.,14,Indras pag.,0600262,"","",55.8582,27.5156
LV,LV-5664,Udinova,Krāslavas nov.,14,Indras pag.,0600262,"","",55.8582,27.5156
LV,LV-5664,Saveiki,Krāslavas nov.,14,Indras pag.,0600262,"","",55.8582,27.5156
LV,LV-5664,Zareki,Krāslavas nov.,14,Indras pag.,0600262,"","",55.8582,27.5156
LV,LV-5664,Šņokova,Krāslavas nov.,14,Indras pag.,0600262,"","",55.8582,27.5156
LV,LV-5664,Semjoški,Krāslavas nov.,14,Indras pag.,0600262,"","",55.8582,27.5156
LV,LV-5664,Rusakova,Krāslavas nov.,14,Indras pag.,0600262,"","",55.8582,27.5156
LV,LV-5664,Petrovščina,Krāslavas nov.,14,Indras pag.,0600262,"","",55.8582,27.5156
LV,LV-5664,Ostrovna,Krāslavas nov.,14,Indras pag.,0600262,"","",55.8582,27.5156
LV,LV-5664,Naktjunova,Krāslavas nov.,14,Indras pag.,0600262,"","",55.8582,27.5156
LV,LV-5664,Melnā,Krāslavas nov.,14,Indras pag.,0600262,"","",55.8582,27.5156
LV,LV-5664,Lapoški,Krāslavas nov.,14,Indras pag.,0600262,"","",55.8582,27.5156
LV,LV-5664,Kuzmini,Krāslavas nov.,14,Indras pag.,0600262,"","",55.8582,27.5156
LV,LV-5652,Lielie Stivriņi,Krāslavas nov.,14,Izvaltas pag.,0600264,"","",55.9731,27.0587
LV,LV-5652,Meža Suveizdi,Krāslavas nov.,14,Izvaltas pag.,0600264,"","",55.9731,27.0587
LV,LV-5652,Mazie Ģengeri,Krāslavas nov.,14,Izvaltas pag.,0600264,"","",55.9628,27.0595
LV,LV-5652,Zeiļi,Krāslavas nov.,14,Izvaltas pag.,0600264,"","",55.9731,27.0587
LV,LV-5652,Stacija Silava,Krāslavas nov.,14,Izvaltas pag.,0600264,"","",55.9731,27.0587
LV,LV-5652,Undrukāni,Krāslavas nov.,14,Izvaltas pag.,0600264,"","",55.9731,27.0587
LV,LV-5652,Sturmoviči,Krāslavas nov.,14,Izvaltas pag.,0600264,"","",55.9731,27.0587
LV,LV-5652,Pupiki,Krāslavas nov.,14,Izvaltas pag.,0600264,"","",55.9699,27.0148
LV,LV-5652,Bernadski,Krāslavas nov.,14,Izvaltas pag.,0600264,"","",55.9833,27.0129
LV,LV-5652,Torpāni,Krāslavas nov.,14,Izvaltas pag.,0600264,"","",56.0045,26.9372
LV,LV-5652,Naiņi,Krāslavas nov.,14,Izvaltas pag.,0600264,"","",55.9731,27.0587
LV,LV-5652,Livkāni,Krāslavas nov.,14,Izvaltas pag.,0600264,"","",55.9731,27.0587
LV,LV-5652,Kozliški,Krāslavas nov.,14,Izvaltas pag.,0600264,"","",55.992,26.9726
LV,LV-5652,Krekeliški,Krāslavas nov.,14,Izvaltas pag.,0600264,"","",55.9685,26.9561
LV,LV-5652,Izvalta,Krāslavas nov.,14,Izvaltas pag.,0600264,"","",55.9566,27.0196
LV,LV-5652,Pitrini,Krāslavas nov.,14,Izvaltas pag.,0600264,"","",55.9731,27.0587
LV,LV-5652,Stacija Izvalda,Krāslavas nov.,14,Izvaltas pag.,0600264,"","",55.9731,27.0587
LV,LV-5652,Mazie Trūļi,Krāslavas nov.,14,Izvaltas pag.,0600264,"","",55.9731,27.0587
LV,LV-5652,Mazie Škipori,Krāslavas nov.,14,Izvaltas pag.,0600264,"","",55.9731,27.0587
LV,LV-5652,Lielie Trūļi,Krāslavas nov.,14,Izvaltas pag.,0600264,"","",55.9864,26.9999
LV,LV-5652,Mazie Suveizdi,Krāslavas nov.,14,Izvaltas pag.,0600264,"","",55.9731,27.0587
LV,LV-5652,Mazie Stivriņi,Krāslavas nov.,14,Izvaltas pag.,0600264,"","",55.9731,27.0587
LV,LV-5652,Mazie Pokuļi,Krāslavas nov.,14,Izvaltas pag.,0600264,"","",55.9731,27.0587
LV,LV-5652,Lielie Škipori,Krāslavas nov.,14,Izvaltas pag.,0600264,"","",55.9731,27.0587
LV,LV-5652,Mazie Murāni,Krāslavas nov.,14,Izvaltas pag.,0600264,"","",55.9731,27.0587
LV,LV-5652,Lielie Valaiņi,Krāslavas nov.,14,Izvaltas pag.,0600264,"","",55.9731,27.0587
LV,LV-5652,Lejas Boliņi,Krāslavas nov.,14,Izvaltas pag.,0600264,"","",55.9731,27.0587
LV,LV-5652,Kloviņi,Krāslavas nov.,14,Izvaltas pag.,0600264,"","",55.9731,27.0587
LV,LV-5652,Jaunie Račini,Krāslavas nov.,14,Izvaltas pag.,0600264,"","",55.9397,26.9479
LV,LV-5652,Žmuidzini,Krāslavas nov.,14,Izvaltas pag.,0600264,"","",55.9731,27.0587
LV,LV-5652,Rimšāni,Krāslavas nov.,14,Izvaltas pag.,0600264,"","",55.9813,27.106
LV,LV-5652,Eliši,Krāslavas nov.,14,Izvaltas pag.,0600264,"","",55.9731,27.0587
LV,LV-5652,Gubernati,Krāslavas nov.,14,Izvaltas pag.,0600264,"","",55.9731,27.0587
LV,LV-5652,Beržine,Krāslavas nov.,14,Izvaltas pag.,0600264,"","",55.9749,27.0822
LV,LV-5652,Lielie Gengeri,Krāslavas nov.,14,Izvaltas pag.,0600264,"","",55.9587,27.044
LV,LV-5652,Mazie Loči,Krāslavas nov.,14,Izvaltas pag.,0600264,"","",55.9731,27.0587
LV,LV-5652,Mazie Valaiņi,Krāslavas nov.,14,Izvaltas pag.,0600264,"","",55.9731,27.0587
LV,LV-5652,Lielie Pokuļi,Krāslavas nov.,14,Izvaltas pag.,0600264,"","",55.9587,27.044
LV,LV-5652,Tukāni,Krāslavas nov.,14,Izvaltas pag.,0600264,"","",55.9731,27.0587
LV,LV-5652,Butāni,Krāslavas nov.,14,Izvaltas pag.,0600264,"","",55.9731,27.0587
LV,LV-5652,Celitāni,Krāslavas nov.,14,Izvaltas pag.,0600264,"","",55.9731,27.0587
LV,LV-5652,Kalna Boliņi,Krāslavas nov.,14,Izvaltas pag.,0600264,"","",55.9731,27.0587
LV,LV-5652,Mazie Onzuļi,Krāslavas nov.,14,Izvaltas pag.,0600264,"","",55.9731,27.0587
LV,LV-5652,Sprūģi,Krāslavas nov.,14,Izvaltas pag.,0600264,"","",55.9731,27.0587
LV,LV-5652,Hmeļnicki,Krāslavas nov.,14,Izvaltas pag.,0600264,"","",55.9731,27.0587
LV,LV-5652,Kalna Japini,Krāslavas nov.,14,Izvaltas pag.,0600264,"","",55.9731,27.0587
LV,LV-5652,Kalviši,Krāslavas nov.,14,Izvaltas pag.,0600264,"","",55.9731,27.0587
LV,LV-5652,Kurtiši,Krāslavas nov.,14,Izvaltas pag.,0600264,"","",55.9731,27.0587
LV,LV-5652,Leikumi,Krāslavas nov.,14,Izvaltas pag.,0600264,"","",55.9731,27.0587
LV,LV-5652,Lielie Loči,Krāslavas nov.,14,Izvaltas pag.,0600264,"","",55.9731,27.0587
LV,LV-5652,Lielie Murāni,Krāslavas nov.,14,Izvaltas pag.,0600264,"","",55.9731,27.0587
LV,LV-5652,Lielie Onzuļi,Krāslavas nov.,14,Izvaltas pag.,0600264,"","",55.9731,27.0587
LV,LV-5652,Meža Japini,Krāslavas nov.,14,Izvaltas pag.,0600264,"","",55.9731,27.0587
LV,LV-5660,Vikaiņi,Krāslavas nov.,14,Kalniešu pag.,0600268,"","",55.8676,27.2771
LV,LV-5660,Kalna Vikaiņi,Krāslavas nov.,14,Kalniešu pag.,0600268,"","",55.8676,27.2771
LV,LV-5660,Jaloveckaja Gora,Krāslavas nov.,14,Kalniešu pag.,0600268,"","",55.8863,27.3553
LV,LV-5660,Sloboda,Krāslavas nov.,14,Kalniešu pag.,0600268,"","",55.8484,27.3332
LV,LV-5660,Silovi,Krāslavas nov.,14,Kalniešu pag.,0600268,"","",55.8815,27.3542
LV,LV-5660,Loņki,Krāslavas nov.,14,Kalniešu pag.,0600268,"","",55.8815,27.3542
LV,LV-5660,Spalviški,Krāslavas nov.,14,Kalniešu pag.,0600268,"","",55.8815,27.3542
LV,LV-5660,Andžāni,Krāslavas nov.,14,Kalniešu pag.,0600268,"","",55.9177,27.3249
LV,LV-5660,Stacija Skaista,Krāslavas nov.,14,Kalniešu pag.,0600268,"","",55.8815,27.3542
LV,LV-5660,Baltica,Krāslavas nov.,14,Kalniešu pag.,0600268,"","",55.8748,27.273
LV,LV-5660,Baldeniški,Krāslavas nov.,14,Kalniešu pag.,0600268,"","",55.8815,27.3542
LV,LV-5660,Baltiņa,Krāslavas nov.,14,Kalniešu pag.,0600268,"","",55.8815,27.3542
LV,LV-5660,Kalnieši,Krāslavas nov.,14,Kalniešu pag.,0600268,"","",55.8671,27.3817
LV,LV-5660,Caurumi,Krāslavas nov.,14,Kalniešu pag.,0600268,"","",55.8815,27.3542
LV,LV-5660,Daudziši,Krāslavas nov.,14,Kalniešu pag.,0600268,"","",55.8815,27.3542
LV,LV-5660,Dervaniški,Krāslavas nov.,14,Kalniešu pag.,0600268,"","",55.8815,27.3542
LV,LV-5660,Dilbi,Krāslavas nov.,14,Kalniešu pag.,0600268,"","",55.8815,27.3542
LV,LV-5660,Dorotpole,Krāslavas nov.,14,Kalniešu pag.,0600268,"","",55.8815,27.3542
LV,LV-5660,Stalti,Krāslavas nov.,14,Kalniešu pag.,0600268,"","",55.8671,27.3817
LV,LV-5660,Grabežiški,Krāslavas nov.,14,Kalniešu pag.,0600268,"","",55.8815,27.3542
LV,LV-5660,Juragova,Krāslavas nov.,14,Kalniešu pag.,0600268,"","",55.8815,27.3542
LV,LV-5660,Kačāni,Krāslavas nov.,14,Kalniešu pag.,0600268,"","",55.8815,27.3542
LV,LV-5660,Karoliški,Krāslavas nov.,14,Kalniešu pag.,0600268,"","",55.8815,27.3542
LV,LV-5660,Kazimirova,Krāslavas nov.,14,Kalniešu pag.,0600268,"","",55.8815,27.3542
LV,LV-5660,Kokini,Krāslavas nov.,14,Kalniešu pag.,0600268,"","",55.8815,27.3542
LV,LV-5660,Leiniki,Krāslavas nov.,14,Kalniešu pag.,0600268,"","",55.8815,27.3542
LV,LV-5660,Taulinova,Krāslavas nov.,14,Kalniešu pag.,0600268,"","",55.8815,27.3542
LV,LV-5660,Felicianova,Krāslavas nov.,14,Kalniešu pag.,0600268,"","",55.8815,27.3542
LV,LV-5660,Ļukati,Krāslavas nov.,14,Kalniešu pag.,0600268,"","",55.8815,27.3542
LV,LV-5660,Peļniki,Krāslavas nov.,14,Kalniešu pag.,0600268,"","",55.8815,27.3542
LV,LV-5660,Podgurje,Krāslavas nov.,14,Kalniešu pag.,0600268,"","",55.8815,27.3542
LV,LV-5660,Vaičuki,Krāslavas nov.,14,Kalniešu pag.,0600268,"","",55.8815,27.3542
LV,LV-5660,Stirniški,Krāslavas nov.,14,Kalniešu pag.,0600268,"","",55.8815,27.3542
LV,LV-5660,Stainiški,Krāslavas nov.,14,Kalniešu pag.,0600268,"","",55.8815,27.3542
LV,LV-5660,Trestiški,Krāslavas nov.,14,Kalniešu pag.,0600268,"","",55.8815,27.3542
LV,LV-5660,Ringi,Krāslavas nov.,14,Kalniešu pag.,0600268,"","",55.8815,27.3542
LV,LV-5660,Lielindrica,Krāslavas nov.,14,Kalniešu pag.,0600268,"","",55.8621,27.3208
LV,LV-5660,Podži,Krāslavas nov.,14,Kalniešu pag.,0600268,"","",55.8972,27.3369
LV,LV-5660,Vonogi,Krāslavas nov.,14,Kalniešu pag.,0600268,"","",55.8815,27.3542
LV,LV-5660,Veceļi,Krāslavas nov.,14,Kalniešu pag.,0600268,"","",55.8815,27.3542
LV,LV-5660,Bindari,Krāslavas nov.,14,Kalniešu pag.,0600268,"","",55.8815,27.3542
LV,LV-5660,Spalvi,Krāslavas nov.,14,Kalniešu pag.,0600268,"","",55.8591,27.396
LV,LV-5660,Rukmani,Krāslavas nov.,14,Kalniešu pag.,0600268,"","",55.8815,27.3542
LV,LV-5660,Zatišje,Krāslavas nov.,14,Kalniešu pag.,0600268,"","",55.8815,27.3542
LV,LV-5660,Noviki,Krāslavas nov.,14,Kalniešu pag.,0600268,"","",55.8815,27.3542
LV,LV-5660,Kurpnieki,Krāslavas nov.,14,Kalniešu pag.,0600268,"","",55.9106,27.4018
LV,LV-5660,Borovka,Krāslavas nov.,14,Kalniešu pag.,0600268,"","",55.8968,27.2793
LV,LV-5660,Zarembovka,Krāslavas nov.,14,Kalniešu pag.,0600268,"","",55.8815,27.3542
LV,LV-5660,Paulinova,Krāslavas nov.,14,Kalniešu pag.,0600268,"","",55.9292,27.4379
LV,LV-5660,Šakini,Krāslavas nov.,14,Kalniešu pag.,0600268,"","",55.9089,27.3842
LV,LV-5660,Novoseļci,Krāslavas nov.,14,Kalniešu pag.,0600268,"","",55.8906,27.3693
LV,LV-5660,Trušeļi,Krāslavas nov.,14,Kalniešu pag.,0600268,"","",55.8815,27.3542
LV,LV-5660,Livčāni,Krāslavas nov.,14,Kalniešu pag.,0600268,"","",55.8815,27.3542
LV,LV-5660,Čaupi,Krāslavas nov.,14,Kalniešu pag.,0600268,"","",55.8984,27.3641
LV,LV-5660,Dauguļi,Krāslavas nov.,14,Kalniešu pag.,0600268,"","",55.8785,27.3641
LV,LV-5660,Streiki,Krāslavas nov.,14,Kalniešu pag.,0600268,"","",55.8815,27.3542
LV,LV-5660,Atgoniški,Krāslavas nov.,14,Kalniešu pag.,0600268,"","",55.9148,27.3941
LV,LV-5660,Pakuliški,Krāslavas nov.,14,Kalniešu pag.,0600268,"","",55.8815,27.3542
LV,LV-5660,Raudaviški,Krāslavas nov.,14,Kalniešu pag.,0600268,"","",55.8815,27.3542
LV,LV-5660,Obročnaja Statja,Krāslavas nov.,14,Kalniešu pag.,0600268,"","",55.8815,27.3542
LV,LV-5660,Evarti,Krāslavas nov.,14,Kalniešu pag.,0600268,"","",55.9056,27.3753
LV,LV-5660,Otrie Rukmani,Krāslavas nov.,14,Kalniešu pag.,0600268,"","",55.8815,27.3542
LV,LV-5660,Dubrovka,Krāslavas nov.,14,Kalniešu pag.,0600268,"","",55.8815,27.3542
LV,LV-5660,Lukštāni,Krāslavas nov.,14,Kalniešu pag.,0600268,"","",55.8442,27.389
LV,LV-5660,Juhniki,Krāslavas nov.,14,Kalniešu pag.,0600268,"","",55.8556,27.4193
LV,LV-5668,Teņki,Krāslavas nov.,14,Kaplavas pag.,0600270,"","",55.8444,27.1012
LV,LV-5668,Gaspari,Krāslavas nov.,14,Kaplavas pag.,0600270,"","",55.8444,27.1012
LV,LV-5668,Gaiseļi,Krāslavas nov.,14,Kaplavas pag.,0600270,"","",55.8444,27.1012
LV,LV-5668,Veckaplava,Krāslavas nov.,14,Kaplavas pag.,0600270,"","",55.8444,27.1012
LV,LV-5668,Stirbļi,Krāslavas nov.,14,Kaplavas pag.,0600270,"","",55.8444,27.1012
LV,LV-5668,Upmale,Krāslavas nov.,14,Kaplavas pag.,0600270,"","",55.8444,27.1012
LV,LV-5668,Saulkrasti,Krāslavas nov.,14,Kaplavas pag.,0600270,"","",55.8444,27.1012
LV,LV-5668,Zimaši,Krāslavas nov.,14,Kaplavas pag.,0600270,"","",55.8444,27.1012
LV,LV-5668,Bangas,Krāslavas nov.,14,Kaplavas pag.,0600270,"","",55.8316,27.0684
LV,LV-5668,Rožupole,Krāslavas nov.,14,Kaplavas pag.,0600270,"","",55.8444,27.1012
LV,LV-5668,Varnaviči,Krāslavas nov.,14,Kaplavas pag.,0600270,"","",55.8305,27.296
LV,LV-5668,Dvorišči,Krāslavas nov.,14,Kaplavas pag.,0600270,"","",55.8548,27.165
LV,LV-5668,Vecborne,Krāslavas nov.,14,Kaplavas pag.,0600270,"","",55.8606,27.0087
LV,LV-5668,Kaplava,Krāslavas nov.,14,Kaplavas pag.,0600270,"","",55.8582,27.0377
LV,LV-5668,Matulišķi,Krāslavas nov.,14,Kaplavas pag.,0600270,"","",55.831,27.0317
LV,LV-5668,Upmalieši,Krāslavas nov.,14,Kaplavas pag.,0600270,"","",55.8444,27.1012
LV,LV-5656,Pliuči,Krāslavas nov.,14,Kombuļu pag.,0600274,"","",55.974,27.2312
LV,LV-5656,Plociņi,Krāslavas nov.,14,Kombuļu pag.,0600274,"","",55.974,27.2312
LV,LV-5656,Jadlovci,Krāslavas nov.,14,Kombuļu pag.,0600274,"","",55.974,27.2312
LV,LV-5656,Ģeriņi,Krāslavas nov.,14,Kombuļu pag.,0600274,"","",55.974,27.2312
LV,LV-5656,Dricmuiža,Krāslavas nov.,14,Kombuļu pag.,0600274,"","",55.974,27.2312
LV,LV-5656,Kūdiņi,Krāslavas nov.,14,Kombuļu pag.,0600274,"","",55.974,27.2312
LV,LV-5656,Dombrova,Krāslavas nov.,14,Kombuļu pag.,0600274,"","",55.974,27.2312
LV,LV-5656,Pītrāni,Krāslavas nov.,14,Kombuļu pag.,0600274,"","",55.974,27.2312
LV,LV-5656,Pīzāni,Krāslavas nov.,14,Kombuļu pag.,0600274,"","",55.974,27.2312
LV,LV-5656,Dobromiļa,Krāslavas nov.,14,Kombuļu pag.,0600274,"","",55.974,27.2312
LV,LV-5656,Cihani,Krāslavas nov.,14,Kombuļu pag.,0600274,"","",55.974,27.2312
LV,LV-5656,Bragas,Krāslavas nov.,14,Kombuļu pag.,0600274,"","",55.974,27.2312
LV,LV-5656,Gribuļi,Krāslavas nov.,14,Kombuļu pag.,0600274,"","",55.974,27.2312
LV,LV-5656,Bolūži,Krāslavas nov.,14,Kombuļu pag.,0600274,"","",55.974,27.2312
LV,LV-5656,Bauriškas,Krāslavas nov.,14,Kombuļu pag.,0600274,"","",55.974,27.2312
LV,LV-5656,Rimšāni,Krāslavas nov.,14,Kombuļu pag.,0600274,"","",55.9828,27.2165
LV,LV-5656,Cimoškas,Krāslavas nov.,14,Kombuļu pag.,0600274,"","",55.974,27.2312
LV,LV-5656,Banceniškas,Krāslavas nov.,14,Kombuļu pag.,0600274,"","",55.974,27.2312
LV,LV-5656,Kebzeri,Krāslavas nov.,14,Kombuļu pag.,0600274,"","",55.974,27.2312
LV,LV-5656,Andžāni,Krāslavas nov.,14,Kombuļu pag.,0600274,"","",55.9828,27.2165
LV,LV-5656,Romuļi,Krāslavas nov.,14,Kombuļu pag.,0600274,"","",55.9841,27.1513
LV,LV-5656,Kombuļi,Krāslavas nov.,14,Kombuļu pag.,0600274,"","",55.9841,27.1513
LV,LV-5656,Krumpāni,Krāslavas nov.,14,Kombuļu pag.,0600274,"","",55.974,27.2312
LV,LV-5656,Skadiņi,Krāslavas nov.,14,Kombuļu pag.,0600274,"","",55.974,27.2312
LV,LV-5656,Skrebeļi,Krāslavas nov.,14,Kombuļu pag.,0600274,"","",55.974,27.2312
LV,LV-5656,Soleimi,Krāslavas nov.,14,Kombuļu pag.,0600274,"","",55.974,27.2312
LV,LV-5656,Škutāni,Krāslavas nov.,14,Kombuļu pag.,0600274,"","",55.974,27.2312
LV,LV-5656,Platači,Krāslavas nov.,14,Kombuļu pag.,0600274,"","",55.9969,27.2215
LV,LV-5656,Lielie Unguri,Krāslavas nov.,14,Kombuļu pag.,0600274,"","",56.0047,27.25
LV,LV-5656,Voronkas,Krāslavas nov.,14,Kombuļu pag.,0600274,"","",55.974,27.2312
LV,LV-5656,Zubri,Krāslavas nov.,14,Kombuļu pag.,0600274,"","",55.974,27.2312
LV,LV-5656,Vagaļi,Krāslavas nov.,14,Kombuļu pag.,0600274,"","",55.974,27.2312
LV,LV-5656,Ašari,Krāslavas nov.,14,Kombuļu pag.,0600274,"","",55.974,27.2312
LV,LV-5656,Žuras,Krāslavas nov.,14,Kombuļu pag.,0600274,"","",55.974,27.2312
LV,LV-5656,Mazie Unguri,Krāslavas nov.,14,Kombuļu pag.,0600274,"","",55.974,27.2312
LV,LV-5656,Valdiniškas,Krāslavas nov.,14,Kombuļu pag.,0600274,"","",55.974,27.2312
LV,LV-5656,Vidoki,Krāslavas nov.,14,Kombuļu pag.,0600274,"","",55.974,27.2312
LV,LV-5656,Kropiškas,Krāslavas nov.,14,Kombuļu pag.,0600274,"","",55.974,27.2312
LV,LV-5656,Virveliškas,Krāslavas nov.,14,Kombuļu pag.,0600274,"","",55.974,27.2312
LV,LV-5656,Virveļi,Krāslavas nov.,14,Kombuļu pag.,0600274,"","",55.974,27.2312
LV,LV-5656,Vonogi,Krāslavas nov.,14,Kombuļu pag.,0600274,"","",55.974,27.2312
LV,LV-5656,Mateļi,Krāslavas nov.,14,Kombuļu pag.,0600274,"","",55.974,27.2312
LV,LV-5656,Ļakses,Krāslavas nov.,14,Kombuļu pag.,0600274,"","",55.974,27.2312
LV,LV-5656,Ludzeiši,Krāslavas nov.,14,Kombuļu pag.,0600274,"","",55.974,27.2312
LV,LV-5656,Lielie Zīmaiži,Krāslavas nov.,14,Kombuļu pag.,0600274,"","",55.974,27.2312
LV,LV-5656,Čaupi,Krāslavas nov.,14,Kombuļu pag.,0600274,"","",55.9828,27.2165
LV,LV-5656,Kusiņi,Krāslavas nov.,14,Kombuļu pag.,0600274,"","",55.9828,27.2165
LV,LV-5656,Vanagi,Krāslavas nov.,14,Kombuļu pag.,0600274,"","",55.9828,27.2165
LV,LV-5656,Mazie Zīmaiži,Krāslavas nov.,14,Kombuļu pag.,0600274,"","",55.974,27.2312
LV,LV-5656,Turki,Krāslavas nov.,14,Kombuļu pag.,0600274,"","",55.974,27.2312
LV,LV-5656,Dzalbi,Krāslavas nov.,14,Kombuļu pag.,0600274,"","",56.0243,27.2439
LV,LV-5656,Sēneitis,Krāslavas nov.,14,Kombuļu pag.,0600274,"","",55.974,27.2312
LV,LV-5656,Kursīši,Krāslavas nov.,14,Kombuļu pag.,0600274,"","",55.974,27.2312
LV,LV-5656,Plintes,Krāslavas nov.,14,Kombuļu pag.,0600274,"","",55.974,27.2312
LV,LV-5656,Sarkanais Rags,Krāslavas nov.,14,Kombuļu pag.,0600274,"","",55.974,27.2312
LV,LV-5601,Cimoškas,Krāslavas nov.,14,Krāslavas pag.,0600278,"","",55.9274,27.1967
LV,LV-5601,Rusaki,Krāslavas nov.,14,Krāslavas pag.,0600278,"","",55.9274,27.1967
LV,LV-5601,Podboroks,Krāslavas nov.,14,Krāslavas pag.,0600278,"","",55.9274,27.1967
LV,LV-5601,Pirmie Tračumi,Krāslavas nov.,14,Krāslavas pag.,0600278,"","",55.9274,27.1967
LV,LV-5601,Pastari,Krāslavas nov.,14,Krāslavas pag.,0600278,"","",55.9142,27.2062
LV,LV-5601,Pārpuci,Krāslavas nov.,14,Krāslavas pag.,0600278,"","",55.9274,27.1967
LV,LV-5601,Otrie Tračumi,Krāslavas nov.,14,Krāslavas pag.,0600278,"","",55.9274,27.1967
LV,LV-5601,Liučāni,Krāslavas nov.,14,Krāslavas pag.,0600278,"","",55.9274,27.1967
LV,LV-5601,Lielie Kusiņi,Krāslavas nov.,14,Krāslavas pag.,0600278,"","",55.9274,27.1967
LV,LV-5601,Krumpāni,Krāslavas nov.,14,Krāslavas pag.,0600278,"","",55.9274,27.1967
LV,LV-5601,Aišpuri,Krāslavas nov.,14,Krāslavas pag.,0600278,"","",55.9057,27.2376
LV,LV-5601,Krīviņi,Krāslavas nov.,14,Krāslavas pag.,0600278,"","",55.9274,27.1967
LV,LV-5601,Mazie Kusiņi,Krāslavas nov.,14,Krāslavas pag.,0600278,"","",55.9119,27.2192
LV,LV-5601,Gintauti,Krāslavas nov.,14,Krāslavas pag.,0600278,"","",55.9274,27.1967
LV,LV-5601,Ezerkalns,Krāslavas nov.,14,Krāslavas pag.,0600278,"","",55.9274,27.1967
LV,LV-5601,Kozindi,Krāslavas nov.,14,Krāslavas pag.,0600278,"","",55.9274,27.1967
LV,LV-5601,Ģerķi,Krāslavas nov.,14,Krāslavas pag.,0600278,"","",55.9274,27.1967
LV,LV-5601,Krasnoļenka,Krāslavas nov.,14,Krāslavas pag.,0600278,"","",55.911,27.2529
LV,LV-5601,Baltica,Krāslavas nov.,14,Krāslavas pag.,0600278,"","",55.9057,27.2376
LV,LV-5601,Naudīši,Krāslavas nov.,14,Krāslavas pag.,0600278,"","",55.8572,27.2038
LV,LV-5601,Miglāni,Krāslavas nov.,14,Krāslavas pag.,0600278,"","",55.9408,27.2722
LV,LV-5601,Ceplīši,Krāslavas nov.,14,Krāslavas pag.,0600278,"","",55.9274,27.1967
LV,LV-5601,Baltiņi,Krāslavas nov.,14,Krāslavas pag.,0600278,"","",55.9274,27.1967
LV,LV-5601,Gribuļi,Krāslavas nov.,14,Krāslavas pag.,0600278,"","",55.9274,27.1967
LV,LV-5601,Voiņi,Krāslavas nov.,14,Krāslavas pag.,0600278,"","",55.9274,27.1967
LV,LV-5601,Skumbiņi,Krāslavas nov.,14,Krāslavas pag.,0600278,"","",55.9274,27.1967
LV,LV-5662,Lupandi,Krāslavas nov.,14,Piedrujas pag.,0600284,"","",55.7923,27.537
LV,LV-5662,Piedruja,Krāslavas nov.,14,Piedrujas pag.,0600284,"","",55.8185,27.4789
LV,LV-5662,Stremki,Krāslavas nov.,14,Piedrujas pag.,0600284,"","",55.8185,27.4789
LV,LV-5662,Kiseļevci,Krāslavas nov.,14,Piedrujas pag.,0600284,"","",55.8185,27.4789
LV,LV-5662,Škļarovščina,Krāslavas nov.,14,Piedrujas pag.,0600284,"","",55.8185,27.4789
LV,LV-5662,Aleksandrova,Krāslavas nov.,14,Piedrujas pag.,0600284,"","",55.8185,27.4789
LV,LV-5662,Cirmani,Krāslavas nov.,14,Piedrujas pag.,0600284,"","",55.8448,27.4209
LV,LV-5662,Toloevci,Krāslavas nov.,14,Piedrujas pag.,0600284,"","",55.8185,27.4789
LV,LV-5662,Koškovci,Krāslavas nov.,14,Piedrujas pag.,0600284,"","",55.8185,27.4789
LV,LV-5662,Berjozki,Krāslavas nov.,14,Piedrujas pag.,0600284,"","",55.8185,27.4789
LV,LV-5662,Lazoviki,Krāslavas nov.,14,Piedrujas pag.,0600284,"","",55.8185,27.4789
LV,LV-5662,Dvorčani,Krāslavas nov.,14,Piedrujas pag.,0600284,"","",55.8185,27.4789
LV,LV-5662,Marki,Krāslavas nov.,14,Piedrujas pag.,0600284,"","",55.8185,27.4789
LV,LV-5662,Makņi,Krāslavas nov.,14,Piedrujas pag.,0600284,"","",55.8185,27.4789
LV,LV-5662,Krivoseļci,Krāslavas nov.,14,Piedrujas pag.,0600284,"","",55.8185,27.4789
LV,LV-5662,Patarnieki,Krāslavas nov.,14,Piedrujas pag.,0600284,"","",55.8185,27.4789
LV,LV-5662,Kuļbova,Krāslavas nov.,14,Piedrujas pag.,0600284,"","",55.8185,27.4789
LV,LV-5662,Berjozovka,Krāslavas nov.,14,Piedrujas pag.,0600284,"","",55.8185,27.4789
LV,LV-5662,Domnopole,Krāslavas nov.,14,Piedrujas pag.,0600284,"","",55.8185,27.4789
LV,LV-5662,Gorbačova,Krāslavas nov.,14,Piedrujas pag.,0600284,"","",55.8185,27.4789
LV,LV-5666,Jalova,Krāslavas nov.,14,Robežnieku pag.,0600286,"","",55.9674,27.5903
LV,LV-5666,Borovina,Krāslavas nov.,14,Robežnieku pag.,0600286,"","",55.9674,27.5903
LV,LV-5666,Gromiki,Krāslavas nov.,14,Robežnieku pag.,0600286,"","",55.9674,27.5903
LV,LV-5666,Suhorukova,Krāslavas nov.,14,Robežnieku pag.,0600286,"","",55.9674,27.5903
LV,LV-5666,Podozerci,Krāslavas nov.,14,Robežnieku pag.,0600286,"","",55.9674,27.5903
LV,LV-5666,Stanislavova,Krāslavas nov.,14,Robežnieku pag.,0600286,"","",55.9674,27.5903
LV,LV-5666,Gelutjova,Krāslavas nov.,14,Robežnieku pag.,0600286,"","",55.9674,27.5903
LV,LV-5666,Podleškova,Krāslavas nov.,14,Robežnieku pag.,0600286,"","",55.9674,27.5903
LV,LV-5666,Kazinova,Krāslavas nov.,14,Robežnieku pag.,0600286,"","",55.9556,27.5875
LV,LV-5666,Pupiki,Krāslavas nov.,14,Robežnieku pag.,0600286,"","",55.9828,27.5812
LV,LV-5666,Sinkeļi,Krāslavas nov.,14,Robežnieku pag.,0600286,"","",55.9674,27.5903
LV,LV-5666,Skuki,Krāslavas nov.,14,Robežnieku pag.,0600286,"","",55.9356,27.5684
LV,LV-5666,Pipiri,Krāslavas nov.,14,Robežnieku pag.,0600286,"","",55.9674,27.5903
LV,LV-5666,Pleiki,Krāslavas nov.,14,Robežnieku pag.,0600286,"","",55.9456,27.4994
LV,LV-5666,Dunci,Krāslavas nov.,14,Robežnieku pag.,0600286,"","",55.9674,27.5903
LV,LV-5666,Denisova,Krāslavas nov.,14,Robežnieku pag.,0600286,"","",55.9674,27.5903
LV,LV-5666,Zareniški,Krāslavas nov.,14,Robežnieku pag.,0600286,"","",55.9674,27.5903
LV,LV-5666,Čerepova,Krāslavas nov.,14,Robežnieku pag.,0600286,"","",55.9674,27.5903
LV,LV-5666,Joņini,Krāslavas nov.,14,Robežnieku pag.,0600286,"","",55.9266,27.6224
LV,LV-5666,Zarečje,Krāslavas nov.,14,Robežnieku pag.,0600286,"","",55.9674,27.5903
LV,LV-5666,Plitarova,Krāslavas nov.,14,Robežnieku pag.,0600286,"","",55.9674,27.5903
LV,LV-5666,Ikaženci,Krāslavas nov.,14,Robežnieku pag.,0600286,"","",55.9461,27.6346
LV,LV-5666,Mikova,Krāslavas nov.,14,Robežnieku pag.,0600286,"","",55.9838,27.6642
LV,LV-5666,Robežnieki,Krāslavas nov.,14,Robežnieku pag.,0600286,"","",55.9748,27.6026
LV,LV-5666,Broģi,Krāslavas nov.,14,Robežnieku pag.,0600286,"","",55.9674,27.5903
LV,LV-5666,Ļumāni,Krāslavas nov.,14,Robežnieku pag.,0600286,"","",55.9674,27.5903
LV,LV-5666,Auguļova,Krāslavas nov.,14,Robežnieku pag.,0600286,"","",55.9674,27.5903
LV,LV-5666,Kulakiški,Krāslavas nov.,14,Robežnieku pag.,0600286,"","",55.9674,27.5903
LV,LV-5666,Kuhtiški,Krāslavas nov.,14,Robežnieku pag.,0600286,"","",55.9674,27.5903
LV,LV-5666,Andinova,Krāslavas nov.,14,Robežnieku pag.,0600286,"","",56.0119,27.4921
LV,LV-5666,Kseverova,Krāslavas nov.,14,Robežnieku pag.,0600286,"","",55.9674,27.5903
LV,LV-5666,Koveriški,Krāslavas nov.,14,Robežnieku pag.,0600286,"","",55.9674,27.5903
LV,LV-5666,Blusi,Krāslavas nov.,14,Robežnieku pag.,0600286,"","",55.9674,27.5903
LV,LV-5666,Pavļinova,Krāslavas nov.,14,Robežnieku pag.,0600286,"","",55.9674,27.5903
LV,LV-5666,Parahovņa,Krāslavas nov.,14,Robežnieku pag.,0600286,"","",55.9674,27.5903
LV,LV-5666,Padari,Krāslavas nov.,14,Robežnieku pag.,0600286,"","",55.9674,27.5903
LV,LV-5666,Okolica,Krāslavas nov.,14,Robežnieku pag.,0600286,"","",55.9674,27.5903
LV,LV-5666,Nikšāni,Krāslavas nov.,14,Robežnieku pag.,0600286,"","",55.9674,27.5903
LV,LV-5666,Nauļāni,Krāslavas nov.,14,Robežnieku pag.,0600286,"","",55.9674,27.5903
LV,LV-5666,Mihalova,Krāslavas nov.,14,Robežnieku pag.,0600286,"","",55.9674,27.5903
LV,LV-5666,Meļevščina,Krāslavas nov.,14,Robežnieku pag.,0600286,"","",55.9674,27.5903
LV,LV-5666,Žakeļi,Krāslavas nov.,14,Robežnieku pag.,0600286,"","",55.9674,27.5903
LV,LV-5666,Žurilova,Krāslavas nov.,14,Robežnieku pag.,0600286,"","",55.9674,27.5903
LV,LV-5666,Noviki,Krāslavas nov.,14,Robežnieku pag.,0600286,"","",55.9674,27.5903
LV,LV-5666,Borisovka,Krāslavas nov.,14,Robežnieku pag.,0600286,"","",55.9674,27.5903
LV,LV-5666,Masāni,Krāslavas nov.,14,Robežnieku pag.,0600286,"","",55.9674,27.5903
LV,LV-5666,Teļežki,Krāslavas nov.,14,Robežnieku pag.,0600286,"","",55.9674,27.5903
LV,LV-5666,Zaharova,Krāslavas nov.,14,Robežnieku pag.,0600286,"","",55.9852,27.6849
LV,LV-5666,Maksimova,Krāslavas nov.,14,Robežnieku pag.,0600286,"","",55.9674,27.5903
LV,LV-5666,Krumāni,Krāslavas nov.,14,Robežnieku pag.,0600286,"","",55.9935,27.5566
LV,LV-5666,Kaļedovka,Krāslavas nov.,14,Robežnieku pag.,0600286,"","",55.9674,27.5903
LV,LV-5671,Gaugariški,Krāslavas nov.,14,Skaistas pag.,0600288,"","",55.9752,27.3883
LV,LV-5671,Valteri,Krāslavas nov.,14,Skaistas pag.,0600288,"","",55.9727,27.4458
LV,LV-5671,Kaziņči,Krāslavas nov.,14,Skaistas pag.,0600288,"","",56.0152,27.3977
LV,LV-5671,Veterovka,Krāslavas nov.,14,Skaistas pag.,0600288,"","",55.9703,27.4168
LV,LV-5671,Seikaļi,Krāslavas nov.,14,Skaistas pag.,0600288,"","",55.9504,27.3389
LV,LV-5671,Indrica,Krāslavas nov.,14,Skaistas pag.,0600288,"","",55.9833,27.4705
LV,LV-5671,Kotolnieki,Krāslavas nov.,14,Skaistas pag.,0600288,"","",55.9833,27.3806
LV,LV-5671,Skradeli,Krāslavas nov.,14,Skaistas pag.,0600288,"","",55.9466,27.3677
LV,LV-5671,Stoli,Krāslavas nov.,14,Skaistas pag.,0600288,"","",56.003,27.3779
LV,LV-5671,Veceļi,Krāslavas nov.,14,Skaistas pag.,0600288,"","",55.9752,27.3883
LV,LV-5671,Vēveri,Krāslavas nov.,14,Skaistas pag.,0600288,"","",55.9752,27.3883
LV,LV-5671,Unzuli,Krāslavas nov.,14,Skaistas pag.,0600288,"","",55.9752,27.3883
LV,LV-5671,Trušeliški,Krāslavas nov.,14,Skaistas pag.,0600288,"","",55.9752,27.3883
LV,LV-5671,Treikaniški,Krāslavas nov.,14,Skaistas pag.,0600288,"","",55.9752,27.3883
LV,LV-5671,Trapciški,Krāslavas nov.,14,Skaistas pag.,0600288,"","",55.9752,27.3883
LV,LV-5671,Teneismuiža,Krāslavas nov.,14,Skaistas pag.,0600288,"","",55.9752,27.3883
LV,LV-5671,Stolņiki,Krāslavas nov.,14,Skaistas pag.,0600288,"","",55.9752,27.3883
LV,LV-5671,Smildiški,Krāslavas nov.,14,Skaistas pag.,0600288,"","",55.9752,27.3883
LV,LV-5671,Kuliniški,Krāslavas nov.,14,Skaistas pag.,0600288,"","",55.9752,27.3883
LV,LV-5671,Grundāni,Krāslavas nov.,14,Skaistas pag.,0600288,"","",55.9752,27.3883
LV,LV-5671,Glagači,Krāslavas nov.,14,Skaistas pag.,0600288,"","",55.9752,27.3883
LV,LV-5671,Dembovci,Krāslavas nov.,14,Skaistas pag.,0600288,"","",55.9752,27.3883
LV,LV-5671,Čenčupi,Krāslavas nov.,14,Skaistas pag.,0600288,"","",55.9752,27.3883
LV,LV-5671,Brenciški,Krāslavas nov.,14,Skaistas pag.,0600288,"","",55.9752,27.3883
LV,LV-5671,Bogdāni,Krāslavas nov.,14,Skaistas pag.,0600288,"","",55.9752,27.3883
LV,LV-5671,Bluzmi,Krāslavas nov.,14,Skaistas pag.,0600288,"","",55.9752,27.3883
LV,LV-5671,Berniški,Krāslavas nov.,14,Skaistas pag.,0600288,"","",55.9752,27.3883
LV,LV-5671,Ezeriņi,Krāslavas nov.,14,Skaistas pag.,0600288,"","",55.9632,27.3173
LV,LV-5671,Romuliški,Krāslavas nov.,14,Skaistas pag.,0600288,"","",55.9752,27.3883
LV,LV-5671,Puzi,Krāslavas nov.,14,Skaistas pag.,0600288,"","",55.9752,27.3883
