<?xml version="1.0" encoding="UTF-8"?>
<zipcodes>
  <object>
    <country_code>LV</country_code>
    <zipcode>LV-5101</zipcode>
    <place>Aizkraukles stacija</place>
    <state>Aizkraukles nov.</state>
    <state_code>01</state_code>
    <province>Aizkraukles pag.</province>
    <province_code>0320244</province_code>
    <community></community>
    <community_code></community_code>
    <latitude>56.6048</latitude>
    <longitude>25.2553</longitude>
  </object>
  <object>
    <country_code>LV</country_code>
    <zipcode>LV-5101</zipcode>
    <place>Aizkraukle</place>
    <state>Aizkraukles nov.</state>
    <state_code>01</state_code>
    <province>Aizkraukles pag.</province>
    <province_code>0320244</province_code>
    <community></community>
    <community_code></community_code>
    <latitude>56.6448</latitude>
    <longitude>25.2299</longitude>
  </object>
  <object>
    <country_code>LV</country_code>
    <zipcode>LV-5134</zipcode>
    <place>Jaunjelgavas</place>
    <state>Aizkraukles nov.</state>
    <state_code>01</state_code>
    <province>Jaunjelgavas pag.</province>
    <province_code>0321027</province_code>
    <community></community>
    <community_code></community_code>
    <latitude>56.4587</latitude>
    <longitude>25.4858</longitude>
  </object>
  <object>
    <country_code>LV</country_code>
    <zipcode>LV-5111</zipcode>
    <place>Daudzese</place>
    <state>Aizkraukles nov.</state>
    <state_code>01</state_code>
    <province>Daudzeses pag.</province>
    <province_code>0321050</province_code>
    <community></community>
    <community_code></community_code>
    <latitude>56.4782</latitude>
    <longitude>25.2189</longitude>
  </object>
  <object>
    <country_code>LV</country_code>
    <zipcode>LV-5111</zipcode>
    <place>Daudzeva</place>
    <state>Aizkraukles nov.</state>
    <state_code>01</state_code>
    <province>Daudzeses pag.</province>
    <province_code>0321050</province_code>
    <community></community>
    <community_code></community_code>
    <latitude>56.4782</latitude>
    <longitude>25.2189</longitude>
  </object>
  <object>
    <country_code>LV</country_code>
    <zipcode>LV-5124</zipcode>
    <place>Ziedāni</place>
    <state>Aizkraukles nov.</state>
    <state_code>01</state_code>
    <province>Seces pag.</province>
    <province_code>0321078</province_code>
    <community></community>
    <community_code></community_code>
    <latitude>56.6114</latitude>
    <longitude>25.3608</longitude>
  </object>
  <object>
    <country_code>LV</country_code>
    <zipcode>LV-5124</zipcode>
    <place>Sece</place>
    <state>Aizkraukles nov.</state>
    <state_code>01</state_code>
    <province>Seces pag.</province>
    <province_code>0321078</province_code>
    <community></community>
    <community_code></community_code>
    <latitude>56.6114</latitude>
    <longitude>25.3608</longitude>
  </object>
  <object>
    <country_code>LV</country_code>
    <zipcode>LV-5124</zipcode>
    <place>Bitāni</place>
    <state>Aizkraukles nov.</state>
    <state_code>01</state_code>
    <province>Seces pag.</province>
    <province_code>0321078</province_code>
    <community></community>
    <community_code></community_code>
    <latitude>56.6114</latitude>
    <longitude>25.3608</longitude>
  </object>
  <object>
    <country_code>LV</country_code>
    <zipcode>LV-5124</zipcode>
    <place>Purviņi</place>
    <state>Aizkraukles nov.</state>
    <state_code>01</state_code>
    <province>Seces pag.</province>
    <province_code>0321078</province_code>
    <community></community>
    <community_code></community_code>
    <latitude>56.6114</latitude>
    <longitude>25.3608</longitude>
  </object>
  <object>
    <country_code>LV</country_code>
    <zipcode>LV-5123</zipcode>
    <place>Mellēni</place>
    <state>Aizkraukles nov.</state>
    <state_code>01</state_code>
    <province>Sērenes pag.</province>
    <province_code>0321080</province_code>
    <community></community>
    <community_code></community_code>
    <latitude>56.6121</latitude>
    <longitude>25.4802</longitude>
  </object>
  <object>
    <country_code>LV</country_code>
    <zipcode>LV-5123</zipcode>
    <place>Dīķi</place>
    <state>Aizkraukles nov.</state>
    <state_code>01</state_code>
    <province>Sērenes pag.</province>
    <province_code>0321080</province_code>
    <community></community>
    <community_code></community_code>
    <latitude>56.6121</latitude>
    <longitude>25.4802</longitude>
  </object>
  <object>
    <country_code>LV</country_code>
    <zipcode>LV-5123</zipcode>
    <place>Talsiņi</place>
    <state>Aizkraukles nov.</state>
    <state_code>01</state_code>
    <province>Sērenes pag.</province>
    <province_code>0321080</province_code>
    <community></community>
    <community_code></community_code>
    <latitude>56.6121</latitude>
    <longitude>25.4802</longitude>
  </object>
  <object>
    <country_code>LV</country_code>
    <zipcode>LV-5123</zipcode>
    <place>Sērene</place>
    <state>Aizkraukles nov.</state>
    <state_code>01</state_code>
    <province>Sērenes pag.</province>
    <province_code>0321080</province_code>
    <community></community>
    <community_code></community_code>
    <latitude>56.6121</latitude>
    <longitude>25.4802</longitude>
  </object>
  <object>
    <country_code>LV</country_code>
    <zipcode>LV-5123</zipcode>
    <place>Lielziedi</place>
    <state>Aizkraukles nov.</state>
    <state_code>01</state_code>
    <province>Sērenes pag.</province>
    <province_code>0321080</province_code>
    <community></community>
    <community_code></community_code>
    <latitude>56.6121</latitude>
    <longitude>25.4802</longitude>
  </object>
  <object>
    <country_code>LV</country_code>
    <zipcode>LV-5128</zipcode>
    <place>Staburags</place>
    <state>Aizkraukles nov.</state>
    <state_code>01</state_code>
    <province>Staburaga pag.</province>
    <province_code>0321084</province_code>
    <community></community>
    <community_code></community_code>
    <latitude>56.5698</latitude>
    <longitude>25.4976</longitude>
  </object>
  <object>
    <country_code>LV</country_code>
    <zipcode>LV-5130</zipcode>
    <place>Sunākste</place>
    <state>Aizkraukles nov.</state>
    <state_code>01</state_code>
    <province>Sunākstes pag.</province>
    <province_code>0321086</province_code>
    <community></community>
    <community_code></community_code>
    <latitude>56.4587</latitude>
    <longitude>25.4858</longitude>
  </object>
  <object>
    <country_code>LV</country_code>
    <zipcode>LV-5120</zipcode>
    <place>Īvāni</place>
    <state>Aizkraukles nov.</state>
    <state_code>01</state_code>
    <province>Aiviekstes pag.</province>
    <province_code>0321442</province_code>
    <community></community>
    <community_code></community_code>
    <latitude>56.6338</latitude>
    <longitude>25.9095</longitude>
  </object>
  <object>
    <country_code>LV</country_code>
    <zipcode>LV-5120</zipcode>
    <place>Krievciems</place>
    <state>Aizkraukles nov.</state>
    <state_code>01</state_code>
    <province>Aiviekstes pag.</province>
    <province_code>0321442</province_code>
    <community></community>
    <community_code></community_code>
    <latitude>56.6338</latitude>
    <longitude>25.9095</longitude>
  </object>
  <object>
    <country_code>LV</country_code>
    <zipcode>LV-5120</zipcode>
    <place>Kriškalni</place>
    <state>Aizkraukles nov.</state>
    <state_code>01</state_code>
    <province>Aiviekstes pag.</province>
    <province_code>0321442</province_code>
    <community></community>
    <community_code></community_code>
    <latitude>56.6338</latitude>
    <longitude>25.9095</longitude>
  </object>
  <object>
    <country_code>LV</country_code>
    <zipcode>LV-5120</zipcode>
    <place>Maiļupsala</place>
    <state>Aizkraukles nov.</state>
    <state_code>01</state_code>
    <province>Aiviekstes pag.</province>
    <province_code>0321442</province_code>
    <community></community>
    <community_code></community_code>
    <latitude>56.6338</latitude>
    <longitude>25.9095</longitude>
  </object>
  <object>
    <country_code>LV</country_code>
    <zipcode>LV-5120</zipcode>
    <place>Ķūģi</place>
    <state>Aizkraukles nov.</state>
    <state_code>01</state_code>
    <province>Aiviekstes pag.</province>
    <province_code>0321442</province_code>
    <community></community>
    <community_code></community_code>
    <latitude>56.6338</latitude>
    <longitude>25.9095</longitude>
  </object>
  <object>
    <country_code>LV</country_code>
    <zipcode>LV-5129</zipcode>
    <place>Rīteri</place>
    <state>Aizkraukles nov.</state>
    <state_code>01</state_code>
    <province>Klintaines pag.</province>
    <province_code>0321458</province_code>
    <community></community>
    <community_code></community_code>
    <latitude>56.6007</latitude>
    <longitude>25.5127</longitude>
  </object>
  <object>
    <country_code>LV</country_code>
    <zipcode>LV-5129</zipcode>
    <place>Stukmaņi</place>
    <state>Aizkraukles nov.</state>
    <state_code>01</state_code>
    <province>Klintaines pag.</province>
    <province_code>0321458</province_code>
    <community></community>
    <community_code></community_code>
    <latitude>56.6007</latitude>
    <longitude>25.5127</longitude>
  </object>
  <object>
    <country_code>LV</country_code>
    <zipcode>LV-5109</zipcode>
    <place>Odziena</place>
    <state>Aizkraukles nov.</state>
    <state_code>01</state_code>
    <province>Vietalvas pag.</province>
    <province_code>0321492</province_code>
    <community></community>
    <community_code></community_code>
    <latitude>56.7115</latitude>
    <longitude>25.6883</longitude>
  </object>
  <object>
    <country_code>LV</country_code>
    <zipcode>LV-5109</zipcode>
    <place>Vietalva</place>
    <state>Aizkraukles nov.</state>
    <state_code>01</state_code>
    <province>Vietalvas pag.</province>
    <province_code>0321492</province_code>
    <community></community>
    <community_code></community_code>
    <latitude>56.7369</latitude>
    <longitude>25.7667</longitude>
  </object>
  <object>
    <country_code>LV</country_code>
    <zipcode>LV-5135</zipcode>
    <place>Vecbebri</place>
    <state>Aizkraukles nov.</state>
    <state_code>01</state_code>
    <province>Bebru pag.</province>
    <province_code>0326146</province_code>
    <community></community>
    <community_code></community_code>
    <latitude>56.4587</latitude>
    <longitude>25.4858</longitude>
  </object>
  <object>
    <country_code>LV</country_code>
    <zipcode>LV-5108</zipcode>
    <place>Irši</place>
    <state>Aizkraukles nov.</state>
    <state_code>01</state_code>
    <province>Iršu pag.</province>
    <province_code>0326154</province_code>
    <community></community>
    <community_code></community_code>
    <latitude>56.7929</latitude>
    <longitude>25.5937</longitude>
  </object>
  <object>
    <country_code>LV</country_code>
    <zipcode>LV-5113</zipcode>
    <place>Bormaņi</place>
    <state>Aizkraukles nov.</state>
    <state_code>01</state_code>
    <province>Kokneses pag.</province>
    <province_code>0326160</province_code>
    <community></community>
    <community_code></community_code>
    <latitude>56.6516</latitude>
    <longitude>25.4364</longitude>
  </object>
  <object>
    <country_code>LV</country_code>
    <zipcode>LV-5113</zipcode>
    <place>Koknese</place>
    <state>Aizkraukles nov.</state>
    <state_code>01</state_code>
    <province>Kokneses pag.</province>
    <province_code>0326160</province_code>
    <community></community>
    <community_code></community_code>
    <latitude>56.6516</latitude>
    <longitude>25.4364</longitude>
  </object>
  <object>
    <country_code>LV</country_code>
    <zipcode>LV-5133</zipcode>
    <place>Ērberģe</place>
    <state>Aizkraukles nov.</state>
    <state_code>01</state_code>
    <province>Mazzalves pag.</province>
    <province_code>0327166</province_code>
    <community></community>
    <community_code></community_code>
    <latitude>56.4587</latitude>
    <longitude>25.4858</longitude>
  </object>
  <object>
    <country_code>LV</country_code>
    <zipcode>LV-5118</zipcode>
    <place>Nereta</place>
    <state>Aizkraukles nov.</state>
    <state_code>01</state_code>
    <province>Neretas pag.</province>
    <province_code>0327170</province_code>
    <community></community>
    <community_code></community_code>
    <latitude>56.2028</latitude>
    <longitude>25.3075</longitude>
  </object>
  <object>
    <country_code>LV</country_code>
    <zipcode>LV-5110</zipcode>
    <place>Pilskalne</place>
    <state>Aizkraukles nov.</state>
    <state_code>01</state_code>
    <province>Pilskalnes pag.</province>
    <province_code>0327174</province_code>
    <community></community>
    <community_code></community_code>
    <latitude>56.1923</latitude>
    <longitude>25.1717</longitude>
  </object>
  <object>
    <country_code>LV</country_code>
    <zipcode>LV-5112</zipcode>
    <place>Vērtūži</place>
    <state>Aizkraukles nov.</state>
    <state_code>01</state_code>
    <province>Zalves pag.</province>
    <province_code>0327196</province_code>
    <community></community>
    <community_code></community_code>
    <latitude>56.2998</latitude>
    <longitude>25.2113</longitude>
  </object>
  <object>
    <country_code>LV</country_code>
    <zipcode>LV-5112</zipcode>
    <place>Zalve</place>
    <state>Aizkraukles nov.</state>
    <state_code>01</state_code>
    <province>Zalves pag.</province>
    <province_code>0327196</province_code>
    <community></community>
    <community_code></community_code>
    <latitude>56.3266</latitude>
    <longitude>25.2468</longitude>
  </object>
  <object>
    <country_code>LV</country_code>
    <zipcode>LV-5112</zipcode>
    <place>Sproģi</place>
    <state>Aizkraukles nov.</state>
    <state_code>01</state_code>
    <province>Zalves pag.</province>
    <province_code>0327196</province_code>
    <community></community>
    <community_code></community_code>
    <latitude>56.273</latitude>
    <longitude>25.1758</longitude>
  </object>
  <object>
    <country_code>LV</country_code>
    <zipcode>LV-5125</zipcode>
    <place>Zemkopības institūts</place>
    <state>Aizkraukles nov.</state>
    <state_code>01</state_code>
    <province></province>
    <province_code></province_code>
    <community></community>
    <community_code></community_code>
    <latitude>56.645</latitude>
    <longitude>25.1206</longitude>
  </object>
  <object>
    <country_code>LV</country_code>
    <zipcode>LV-5125</zipcode>
    <place>Klidziņa</place>
    <state>Aizkraukles nov.</state>
    <state_code>01</state_code>
    <province></province>
    <province_code></province_code>
    <community></community>
    <community_code></community_code>
    <latitude>56.645</latitude>
    <longitude>25.1206</longitude>
  </object>
  <object>
    <country_code>LV</country_code>
    <zipcode>LV-5125</zipcode>
    <place>Ziedugravas</place>
    <state>Aizkraukles nov.</state>
    <state_code>01</state_code>
    <province></province>
    <province_code></province_code>
    <community></community>
    <community_code></community_code>
    <latitude>56.645</latitude>
    <longitude>25.1206</longitude>
  </object>
  <object>
    <country_code>LV</country_code>
    <zipcode>LV-5125</zipcode>
    <place>Skrīveri</place>
    <state>Aizkraukles nov.</state>
    <state_code>01</state_code>
    <province></province>
    <province_code></province_code>
    <community></community>
    <community_code></community_code>
    <latitude>56.645</latitude>
    <longitude>25.1206</longitude>
  </object>
  <object>
    <country_code>LV</country_code>
    <zipcode>LV-5125</zipcode>
    <place>Līči</place>
    <state>Aizkraukles nov.</state>
    <state_code>01</state_code>
    <province></province>
    <province_code></province_code>
    <community></community>
    <community_code></community_code>
    <latitude>56.645</latitude>
    <longitude>25.1206</longitude>
  </object>
  <object>
    <country_code>LV</country_code>
    <zipcode>LV-4301</zipcode>
    <place>Aizupītes</place>
    <state>Alūksnes nov.</state>
    <state_code>02</state_code>
    <province>Alsviķu pag.</province>
    <province_code>0360242</province_code>
    <community></community>
    <community_code></community_code>
    <latitude>57.4183</latitude>
    <longitude>27.0006</longitude>
  </object>
  <object>
    <country_code>LV</country_code>
    <zipcode>LV-4333</zipcode>
    <place>Alsviķi</place>
    <state>Alūksnes nov.</state>
    <state_code>02</state_code>
    <province>Alsviķu pag.</province>
    <province_code>0360242</province_code>
    <community></community>
    <community_code></community_code>
    <latitude>57.4443</latitude>
    <longitude>26.9381</longitude>
  </object>
  <object>
    <country_code>LV</country_code>
    <zipcode>LV-4333</zipcode>
    <place>Pullans</place>
    <state>Alūksnes nov.</state>
    <state_code>02</state_code>
    <province>Alsviķu pag.</province>
    <province_code>0360242</province_code>
    <community></community>
    <community_code></community_code>
    <latitude>57.4252</latitude>
    <longitude>26.9145</longitude>
  </object>
  <object>
    <country_code>LV</country_code>
    <zipcode>LV-4333</zipcode>
    <place>Strautiņi</place>
    <state>Alūksnes nov.</state>
    <state_code>02</state_code>
    <province>Alsviķu pag.</province>
    <province_code>0360242</province_code>
    <community></community>
    <community_code></community_code>
    <latitude>57.4061</latitude>
    <longitude>26.8908</longitude>
  </object>
  <object>
    <country_code>LV</country_code>
    <zipcode>LV-4341</zipcode>
    <place>Anna</place>
    <state>Alūksnes nov.</state>
    <state_code>02</state_code>
    <province>Annas pag.</province>
    <province_code>0360244</province_code>
    <community></community>
    <community_code></community_code>
    <latitude>57.3333</latitude>
    <longitude>27.0333</longitude>
  </object>
  <object>
    <country_code>LV</country_code>
    <zipcode>LV-4344</zipcode>
    <place>Jaunzemi</place>
    <state>Alūksnes nov.</state>
    <state_code>02</state_code>
    <province>Ilzenes pag.</province>
    <province_code>0360252</province_code>
    <community></community>
    <community_code></community_code>
    <latitude>57.3726</latitude>
    <longitude>26.6758</longitude>
  </object>
  <object>
    <country_code>LV</country_code>
    <zipcode>LV-4350</zipcode>
    <place>Beja</place>
    <state>Alūksnes nov.</state>
    <state_code>02</state_code>
    <province>Jaunalūksnes pag.</province>
    <province_code>0360256</province_code>
    <community></community>
    <community_code></community_code>
    <latitude>57.4005</latitude>
    <longitude>27.2064</longitude>
  </object>
  <object>
    <country_code>LV</country_code>
    <zipcode>LV-4350</zipcode>
    <place>Kolberģis</place>
    <state>Alūksnes nov.</state>
    <state_code>02</state_code>
    <province>Jaunalūksnes pag.</province>
    <province_code>0360256</province_code>
    <community></community>
    <community_code></community_code>
    <latitude>57.4387</latitude>
    <longitude>27.1158</longitude>
  </object>
  <object>
    <country_code>LV</country_code>
    <zipcode>LV-4340</zipcode>
    <place>Jaunanna</place>
    <state>Alūksnes nov.</state>
    <state_code>02</state_code>
    <province>Jaunannas pag.</province>
    <province_code>0360258</province_code>
    <community></community>
    <community_code></community_code>
    <latitude>57.2838</latitude>
    <longitude>27.0684</longitude>
  </object>
  <object>
    <country_code>LV</country_code>
    <zipcode>LV-4336</zipcode>
    <place>Jaunlaicene</place>
    <state>Alūksnes nov.</state>
    <state_code>02</state_code>
    <province>Jaunlaicenes pag.</province>
    <province_code>0360260</province_code>
    <community></community>
    <community_code></community_code>
    <latitude>57.5272</latitude>
    <longitude>26.8704</longitude>
  </object>
  <object>
    <country_code>LV</country_code>
    <zipcode>LV-4342</zipcode>
    <place>Kalncempji</place>
    <state>Alūksnes nov.</state>
    <state_code>02</state_code>
    <province>Kalncempju pag.</province>
    <province_code>0360264</province_code>
    <community></community>
    <community_code></community_code>
    <latitude>57.3234</latitude>
    <longitude>26.8856</longitude>
  </object>
  <object>
    <country_code>LV</country_code>
    <zipcode>LV-4354</zipcode>
    <place>Liepna</place>
    <state>Alūksnes nov.</state>
    <state_code>02</state_code>
    <province>Liepnas pag.</province>
    <province_code>0360268</province_code>
    <community></community>
    <community_code></community_code>
    <latitude>57.3432</latitude>
    <longitude>27.4716</longitude>
  </object>
  <object>
    <country_code>LV</country_code>
    <zipcode>LV-4359</zipcode>
    <place>Brenci</place>
    <state>Alūksnes nov.</state>
    <state_code>02</state_code>
    <province>Malienas pag.</province>
    <province_code>0360272</province_code>
    <community></community>
    <community_code></community_code>
    <latitude>57.362</latitude>
    <longitude>27.1639</longitude>
  </object>
  <object>
    <country_code>LV</country_code>
    <zipcode>LV-4358</zipcode>
    <place>Mālupe</place>
    <state>Alūksnes nov.</state>
    <state_code>02</state_code>
    <province>Mālupes pag.</province>
    <province_code>0360274</province_code>
    <community></community>
    <community_code></community_code>
    <latitude>57.3383</latitude>
    <longitude>27.2346</longitude>
  </object>
  <object>
    <country_code>LV</country_code>
    <zipcode>LV-4358</zipcode>
    <place>Sofikalns</place>
    <state>Alūksnes nov.</state>
    <state_code>02</state_code>
    <province>Mālupes pag.</province>
    <province_code>0360274</province_code>
    <community></community>
    <community_code></community_code>
    <latitude>57.3267</latitude>
    <longitude>27.3127</longitude>
  </object>
  <object>
    <country_code>LV</country_code>
    <zipcode>LV-4351</zipcode>
    <place>Mārkalne</place>
    <state>Alūksnes nov.</state>
    <state_code>02</state_code>
    <province>Mārkalnes pag.</province>
    <province_code>0360276</province_code>
    <community></community>
    <community_code></community_code>
    <latitude>57.4912</latitude>
    <longitude>27.1944</longitude>
  </object>
  <object>
    <country_code>LV</country_code>
    <zipcode>LV-4352</zipcode>
    <place>Pededze</place>
    <state>Alūksnes nov.</state>
    <state_code>02</state_code>
    <province>Pededzes pag.</province>
    <province_code>0360280</province_code>
    <community></community>
    <community_code></community_code>
    <latitude>57.4762</latitude>
    <longitude>27.4402</longitude>
  </object>
  <object>
    <country_code>LV</country_code>
    <zipcode>LV-4335</zipcode>
    <place>Korneti</place>
    <state>Alūksnes nov.</state>
    <state_code>02</state_code>
    <province>Veclaicenes pag.</province>
    <province_code>0360288</province_code>
    <community></community>
    <community_code></community_code>
    <latitude>57.5933</latitude>
    <longitude>26.9445</longitude>
  </object>
  <object>
    <country_code>LV</country_code>
    <zipcode>LV-4345</zipcode>
    <place>Zeltiņi</place>
    <state>Alūksnes nov.</state>
    <state_code>02</state_code>
    <province>Zeltiņu pag.</province>
    <province_code>0360294</province_code>
    <community></community>
    <community_code></community_code>
    <latitude>57.359</latitude>
    <longitude>26.7771</longitude>
  </object>
  <object>
    <country_code>LV</country_code>
    <zipcode>LV-4332</zipcode>
    <place>Māriņkalns</place>
    <state>Alūksnes nov.</state>
    <state_code>02</state_code>
    <province>Ziemera pag.</province>
    <province_code>0360296</province_code>
    <community></community>
    <community_code></community_code>
    <latitude>57.4875</latitude>
    <longitude>26.9768</longitude>
  </object>
  <object>
    <country_code>LV</country_code>
    <zipcode>LV-4332</zipcode>
    <place>Ziemeri</place>
    <state>Alūksnes nov.</state>
    <state_code>02</state_code>
    <province>Ziemera pag.</province>
    <province_code>0360296</province_code>
    <community></community>
    <community_code></community_code>
    <latitude>57.5334</latitude>
    <longitude>27.0614</longitude>
  </object>
  <object>
    <country_code>LV</country_code>
    <zipcode>LV-4501</zipcode>
    <place>Vaņki</place>
    <state>Balvu nov.</state>
    <state_code>03</state_code>
    <province>Balvu pag.</province>
    <province_code>0380246</province_code>
    <community></community>
    <community_code></community_code>
    <latitude>57.1466</latitude>
    <longitude>27.3787</longitude>
  </object>
  <object>
    <country_code>LV</country_code>
    <zipcode>LV-4501</zipcode>
    <place>Verpuļeva</place>
    <state>Balvu nov.</state>
    <state_code>03</state_code>
    <province>Balvu pag.</province>
    <province_code>0380246</province_code>
    <community></community>
    <community_code></community_code>
    <latitude>57.1466</latitude>
    <longitude>27.3787</longitude>
  </object>
  <object>
    <country_code>LV</country_code>
    <zipcode>LV-4501</zipcode>
    <place>Lemešava</place>
    <state>Balvu nov.</state>
    <state_code>03</state_code>
    <province>Balvu pag.</province>
    <province_code>0380246</province_code>
    <community></community>
    <community_code></community_code>
    <latitude>57.1466</latitude>
    <longitude>27.3787</longitude>
  </object>
  <object>
    <country_code>LV</country_code>
    <zipcode>LV-4501</zipcode>
    <place>Salmaņi</place>
    <state>Balvu nov.</state>
    <state_code>03</state_code>
    <province>Balvu pag.</province>
    <province_code>0380246</province_code>
    <community></community>
    <community_code></community_code>
    <latitude>57.1466</latitude>
    <longitude>27.3787</longitude>
  </object>
  <object>
    <country_code>LV</country_code>
    <zipcode>LV-4501</zipcode>
    <place>Žaugupe</place>
    <state>Balvu nov.</state>
    <state_code>03</state_code>
    <province>Balvu pag.</province>
    <province_code>0380246</province_code>
    <community></community>
    <community_code></community_code>
    <latitude>57.1466</latitude>
    <longitude>27.3787</longitude>
  </object>
  <object>
    <country_code>LV</country_code>
    <zipcode>LV-4501</zipcode>
    <place>Centramuiža</place>
    <state>Balvu nov.</state>
    <state_code>03</state_code>
    <province>Balvu pag.</province>
    <province_code>0380246</province_code>
    <community></community>
    <community_code></community_code>
    <latitude>57.1163</latitude>
    <longitude>27.2589</longitude>
  </object>
  <object>
    <country_code>LV</country_code>
    <zipcode>LV-4501</zipcode>
    <place>Stepjugabali</place>
    <state>Balvu nov.</state>
    <state_code>03</state_code>
    <province>Balvu pag.</province>
    <province_code>0380246</province_code>
    <community></community>
    <community_code></community_code>
    <latitude>57.1466</latitude>
    <longitude>27.3787</longitude>
  </object>
  <object>
    <country_code>LV</country_code>
    <zipcode>LV-4561</zipcode>
    <place>Lāčugabali</place>
    <state>Balvu nov.</state>
    <state_code>03</state_code>
    <province>Balvu pag.</province>
    <province_code>0380246</province_code>
    <community></community>
    <community_code></community_code>
    <latitude>57.0862</latitude>
    <longitude>27.2173</longitude>
  </object>
  <object>
    <country_code>LV</country_code>
    <zipcode>LV-4561</zipcode>
    <place>Mēķi</place>
    <state>Balvu nov.</state>
    <state_code>03</state_code>
    <province>Balvu pag.</province>
    <province_code>0380246</province_code>
    <community></community>
    <community_code></community_code>
    <latitude>57.11</latitude>
    <longitude>27.2067</longitude>
  </object>
  <object>
    <country_code>LV</country_code>
    <zipcode>LV-4561</zipcode>
    <place>Dobenieki</place>
    <state>Balvu nov.</state>
    <state_code>03</state_code>
    <province>Balvu pag.</province>
    <province_code>0380246</province_code>
    <community></community>
    <community_code></community_code>
    <latitude>57.0862</latitude>
    <longitude>27.2173</longitude>
  </object>
  <object>
    <country_code>LV</country_code>
    <zipcode>LV-4561</zipcode>
    <place>Lācupe</place>
    <state>Balvu nov.</state>
    <state_code>03</state_code>
    <province>Balvu pag.</province>
    <province_code>0380246</province_code>
    <community></community>
    <community_code></community_code>
    <latitude>57.0862</latitude>
    <longitude>27.2173</longitude>
  </object>
  <object>
    <country_code>LV</country_code>
    <zipcode>LV-4561</zipcode>
    <place>Dzeņulauza</place>
    <state>Balvu nov.</state>
    <state_code>03</state_code>
    <province>Balvu pag.</province>
    <province_code>0380246</province_code>
    <community></community>
    <community_code></community_code>
    <latitude>57.0862</latitude>
    <longitude>27.2173</longitude>
  </object>
  <object>
    <country_code>LV</country_code>
    <zipcode>LV-4561</zipcode>
    <place>Keņi</place>
    <state>Balvu nov.</state>
    <state_code>03</state_code>
    <province>Balvu pag.</province>
    <province_code>0380246</province_code>
    <community></community>
    <community_code></community_code>
    <latitude>57.0862</latitude>
    <longitude>27.2173</longitude>
  </object>
  <object>
    <country_code>LV</country_code>
    <zipcode>LV-4561</zipcode>
    <place>Reči</place>
    <state>Balvu nov.</state>
    <state_code>03</state_code>
    <province>Balvu pag.</province>
    <province_code>0380246</province_code>
    <community></community>
    <community_code></community_code>
    <latitude>57.1016</latitude>
    <longitude>27.1878</longitude>
  </object>
  <object>
    <country_code>LV</country_code>
    <zipcode>LV-4561</zipcode>
    <place>Naudaskalns</place>
    <state>Balvu nov.</state>
    <state_code>03</state_code>
    <province>Balvu pag.</province>
    <province_code>0380246</province_code>
    <community></community>
    <community_code></community_code>
    <latitude>57.0856</latitude>
    <longitude>27.2355</longitude>
  </object>
  <object>
    <country_code>LV</country_code>
    <zipcode>LV-4561</zipcode>
    <place>Dūrupe</place>
    <state>Balvu nov.</state>
    <state_code>03</state_code>
    <province>Balvu pag.</province>
    <province_code>0380246</province_code>
    <community></community>
    <community_code></community_code>
    <latitude>57.0809</latitude>
    <longitude>27.127</longitude>
  </object>
  <object>
    <country_code>LV</country_code>
    <zipcode>LV-4561</zipcode>
    <place>Kārklinieki</place>
    <state>Balvu nov.</state>
    <state_code>03</state_code>
    <province>Balvu pag.</province>
    <province_code>0380246</province_code>
    <community></community>
    <community_code></community_code>
    <latitude>57.0791</latitude>
    <longitude>27.2258</longitude>
  </object>
  <object>
    <country_code>LV</country_code>
    <zipcode>LV-4561</zipcode>
    <place>Āžudambis</place>
    <state>Balvu nov.</state>
    <state_code>03</state_code>
    <province>Balvu pag.</province>
    <province_code>0380246</province_code>
    <community></community>
    <community_code></community_code>
    <latitude>57.0862</latitude>
    <longitude>27.2173</longitude>
  </object>
  <object>
    <country_code>LV</country_code>
    <zipcode>LV-4561</zipcode>
    <place>Plītinava</place>
    <state>Balvu nov.</state>
    <state_code>03</state_code>
    <province>Balvu pag.</province>
    <province_code>0380246</province_code>
    <community></community>
    <community_code></community_code>
    <latitude>57.0766</latitude>
    <longitude>27.2821</longitude>
  </object>
  <object>
    <country_code>LV</country_code>
    <zipcode>LV-4561</zipcode>
    <place>Silamala</place>
    <state>Balvu nov.</state>
    <state_code>03</state_code>
    <province>Balvu pag.</province>
    <province_code>0380246</province_code>
    <community></community>
    <community_code></community_code>
    <latitude>57.0939</latitude>
    <longitude>27.17</longitude>
  </object>
  <object>
    <country_code>LV</country_code>
    <zipcode>LV-4561</zipcode>
    <place>Ozolsala</place>
    <state>Balvu nov.</state>
    <state_code>03</state_code>
    <province>Balvu pag.</province>
    <province_code>0380246</province_code>
    <community></community>
    <community_code></community_code>
    <latitude>57.062</latitude>
    <longitude>27.3037</longitude>
  </object>
  <object>
    <country_code>LV</country_code>
    <zipcode>LV-4561</zipcode>
    <place>Rāvusala</place>
    <state>Balvu nov.</state>
    <state_code>03</state_code>
    <province>Balvu pag.</province>
    <province_code>0380246</province_code>
    <community></community>
    <community_code></community_code>
    <latitude>57.0862</latitude>
    <longitude>27.2173</longitude>
  </object>
  <object>
    <country_code>LV</country_code>
    <zipcode>LV-4561</zipcode>
    <place>Pilskalns</place>
    <state>Balvu nov.</state>
    <state_code>03</state_code>
    <province>Balvu pag.</province>
    <province_code>0380246</province_code>
    <community></community>
    <community_code></community_code>
    <latitude>57.0862</latitude>
    <longitude>27.2173</longitude>
  </object>
  <object>
    <country_code>LV</country_code>
    <zipcode>LV-4501</zipcode>
    <place>Lemešava</place>
    <state>Balvu nov.</state>
    <state_code>03</state_code>
    <province>Bērzkalnes pag.</province>
    <province_code>0380248</province_code>
    <community></community>
    <community_code></community_code>
    <latitude>57.1466</latitude>
    <longitude>27.3787</longitude>
  </object>
  <object>
    <country_code>LV</country_code>
    <zipcode>LV-4501</zipcode>
    <place>Šūcene</place>
    <state>Balvu nov.</state>
    <state_code>03</state_code>
    <province>Bērzkalnes pag.</province>
    <province_code>0380248</province_code>
    <community></community>
    <community_code></community_code>
    <latitude>57.1466</latitude>
    <longitude>27.3787</longitude>
  </object>
  <object>
    <country_code>LV</country_code>
    <zipcode>LV-4501</zipcode>
    <place>Dubļava</place>
    <state>Balvu nov.</state>
    <state_code>03</state_code>
    <province>Bērzkalnes pag.</province>
    <province_code>0380248</province_code>
    <community></community>
    <community_code></community_code>
    <latitude>57.1222</latitude>
    <longitude>27.3379</longitude>
  </object>
  <object>
    <country_code>LV</country_code>
    <zipcode>LV-4501</zipcode>
    <place>Lazdukalns</place>
    <state>Balvu nov.</state>
    <state_code>03</state_code>
    <province>Bērzkalnes pag.</province>
    <province_code>0380248</province_code>
    <community></community>
    <community_code></community_code>
    <latitude>57.1466</latitude>
    <longitude>27.3787</longitude>
  </object>
  <object>
    <country_code>LV</country_code>
    <zipcode>LV-4501</zipcode>
    <place>Režgaļi</place>
    <state>Balvu nov.</state>
    <state_code>03</state_code>
    <province>Bērzkalnes pag.</province>
    <province_code>0380248</province_code>
    <community></community>
    <community_code></community_code>
    <latitude>57.1466</latitude>
    <longitude>27.3787</longitude>
  </object>
  <object>
    <country_code>LV</country_code>
    <zipcode>LV-4501</zipcode>
    <place>Silakrogs</place>
    <state>Balvu nov.</state>
    <state_code>03</state_code>
    <province>Bērzkalnes pag.</province>
    <province_code>0380248</province_code>
    <community></community>
    <community_code></community_code>
    <latitude>57.1291</latitude>
    <longitude>27.4071</longitude>
  </object>
  <object>
    <country_code>LV</country_code>
    <zipcode>LV-4501</zipcode>
    <place>Vējava</place>
    <state>Balvu nov.</state>
    <state_code>03</state_code>
    <province>Bērzkalnes pag.</province>
    <province_code>0380248</province_code>
    <community></community>
    <community_code></community_code>
    <latitude>57.1466</latitude>
    <longitude>27.3787</longitude>
  </object>
  <object>
    <country_code>LV</country_code>
    <zipcode>LV-4590</zipcode>
    <place>Bērzkalne</place>
    <state>Balvu nov.</state>
    <state_code>03</state_code>
    <province>Bērzkalnes pag.</province>
    <province_code>0380248</province_code>
    <community></community>
    <community_code></community_code>
    <latitude>57.1037</latitude>
    <longitude>27.3495</longitude>
  </object>
  <object>
    <country_code>LV</country_code>
    <zipcode>LV-4590</zipcode>
    <place>Taureskalns</place>
    <state>Balvu nov.</state>
    <state_code>03</state_code>
    <province>Bērzkalnes pag.</province>
    <province_code>0380248</province_code>
    <community></community>
    <community_code></community_code>
    <latitude>57.1077</latitude>
    <longitude>27.367</longitude>
  </object>
  <object>
    <country_code>LV</country_code>
    <zipcode>LV-4590</zipcode>
    <place>Kārnīte</place>
    <state>Balvu nov.</state>
    <state_code>03</state_code>
    <province>Bērzkalnes pag.</province>
    <province_code>0380248</province_code>
    <community></community>
    <community_code></community_code>
    <latitude>57.0929</latitude>
    <longitude>27.3523</longitude>
  </object>
  <object>
    <country_code>LV</country_code>
    <zipcode>LV-4590</zipcode>
    <place>Krievkalns</place>
    <state>Balvu nov.</state>
    <state_code>03</state_code>
    <province>Bērzkalnes pag.</province>
    <province_code>0380248</province_code>
    <community></community>
    <community_code></community_code>
    <latitude>57.0929</latitude>
    <longitude>27.3523</longitude>
  </object>
  <object>
    <country_code>LV</country_code>
    <zipcode>LV-4590</zipcode>
    <place>Babāni</place>
    <state>Balvu nov.</state>
    <state_code>03</state_code>
    <province>Bērzkalnes pag.</province>
    <province_code>0380248</province_code>
    <community></community>
    <community_code></community_code>
    <latitude>57.0929</latitude>
    <longitude>27.3523</longitude>
  </object>
  <object>
    <country_code>LV</country_code>
    <zipcode>LV-4590</zipcode>
    <place>Brūklāji</place>
    <state>Balvu nov.</state>
    <state_code>03</state_code>
    <province>Bērzkalnes pag.</province>
    <province_code>0380248</province_code>
    <community></community>
    <community_code></community_code>
    <latitude>57.0929</latitude>
    <longitude>27.3523</longitude>
  </object>
  <object>
    <country_code>LV</country_code>
    <zipcode>LV-4590</zipcode>
    <place>Užgova</place>
    <state>Balvu nov.</state>
    <state_code>03</state_code>
    <province>Bērzkalnes pag.</province>
    <province_code>0380248</province_code>
    <community></community>
    <community_code></community_code>
    <latitude>57.0929</latitude>
    <longitude>27.3523</longitude>
  </object>
  <object>
    <country_code>LV</country_code>
    <zipcode>LV-4590</zipcode>
    <place>Ploskena</place>
    <state>Balvu nov.</state>
    <state_code>03</state_code>
    <province>Bērzkalnes pag.</province>
    <province_code>0380248</province_code>
    <community></community>
    <community_code></community_code>
    <latitude>57.0631</latitude>
    <longitude>27.3491</longitude>
  </object>
  <object>
    <country_code>LV</country_code>
    <zipcode>LV-4590</zipcode>
    <place>Lielmežnieki</place>
    <state>Balvu nov.</state>
    <state_code>03</state_code>
    <province>Bērzkalnes pag.</province>
    <province_code>0380248</province_code>
    <community></community>
    <community_code></community_code>
    <latitude>57.0972</latitude>
    <longitude>27.3436</longitude>
  </object>
  <object>
    <country_code>LV</country_code>
    <zipcode>LV-4591</zipcode>
    <place>Elkšņeva</place>
    <state>Balvu nov.</state>
    <state_code>03</state_code>
    <province>Bērzkalnes pag.</province>
    <province_code>0380248</province_code>
    <community></community>
    <community_code></community_code>
    <latitude>57.1712</latitude>
    <longitude>27.4106</longitude>
  </object>
  <object>
    <country_code>LV</country_code>
    <zipcode>LV-4591</zipcode>
    <place>Mežarija</place>
    <state>Balvu nov.</state>
    <state_code>03</state_code>
    <province>Bērzkalnes pag.</province>
    <province_code>0380248</province_code>
    <community></community>
    <community_code></community_code>
    <latitude>57.1122</latitude>
    <longitude>27.3857</longitude>
  </object>
  <object>
    <country_code>LV</country_code>
    <zipcode>LV-4591</zipcode>
    <place>Aizpurve</place>
    <state>Balvu nov.</state>
    <state_code>03</state_code>
    <province>Bērzkalnes pag.</province>
    <province_code>0380248</province_code>
    <community></community>
    <community_code></community_code>
    <latitude>57.1712</latitude>
    <longitude>27.4106</longitude>
  </object>
  <object>
    <country_code>LV</country_code>
    <zipcode>LV-4591</zipcode>
    <place>Burčeva</place>
    <state>Balvu nov.</state>
    <state_code>03</state_code>
    <province>Bērzkalnes pag.</province>
    <province_code>0380248</province_code>
    <community></community>
    <community_code></community_code>
    <latitude>57.1712</latitude>
    <longitude>27.4106</longitude>
  </object>
  <object>
    <country_code>LV</country_code>
    <zipcode>LV-4591</zipcode>
    <place>Brieževa</place>
    <state>Balvu nov.</state>
    <state_code>03</state_code>
    <province>Bērzkalnes pag.</province>
    <province_code>0380248</province_code>
    <community></community>
    <community_code></community_code>
    <latitude>57.1389</latitude>
    <longitude>27.3835</longitude>
  </object>
  <object>
    <country_code>LV</country_code>
    <zipcode>LV-4591</zipcode>
    <place>Rubeņi</place>
    <state>Balvu nov.</state>
    <state_code>03</state_code>
    <province>Bērzkalnes pag.</province>
    <province_code>0380248</province_code>
    <community></community>
    <community_code></community_code>
    <latitude>57.1594</latitude>
    <longitude>27.3987</longitude>
  </object>
  <object>
    <country_code>LV</country_code>
    <zipcode>LV-4591</zipcode>
    <place>Moziņki</place>
    <state>Balvu nov.</state>
    <state_code>03</state_code>
    <province>Bērzkalnes pag.</province>
    <province_code>0380248</province_code>
    <community></community>
    <community_code></community_code>
    <latitude>57.1833</latitude>
    <longitude>27.4177</longitude>
  </object>
  <object>
    <country_code>LV</country_code>
    <zipcode>LV-4591</zipcode>
    <place>Auzāji</place>
    <state>Balvu nov.</state>
    <state_code>03</state_code>
    <province>Bērzkalnes pag.</province>
    <province_code>0380248</province_code>
    <community></community>
    <community_code></community_code>
    <latitude>57.1712</latitude>
    <longitude>27.4106</longitude>
  </object>
  <object>
    <country_code>LV</country_code>
    <zipcode>LV-4591</zipcode>
    <place>Mūrava</place>
    <state>Balvu nov.</state>
    <state_code>03</state_code>
    <province>Bērzkalnes pag.</province>
    <province_code>0380248</province_code>
    <community></community>
    <community_code></community_code>
    <latitude>57.1712</latitude>
    <longitude>27.4106</longitude>
  </object>
  <object>
    <country_code>LV</country_code>
    <zipcode>LV-4591</zipcode>
    <place>Vistusala</place>
    <state>Balvu nov.</state>
    <state_code>03</state_code>
    <province>Bērzkalnes pag.</province>
    <province_code>0380248</province_code>
    <community></community>
    <community_code></community_code>
    <latitude>57.157</latitude>
    <longitude>27.4075</longitude>
  </object>
  <object>
    <country_code>LV</country_code>
    <zipcode>LV-4576</zipcode>
    <place>Saksmale</place>
    <state>Balvu nov.</state>
    <state_code>03</state_code>
    <province>Bērzpils pag.</province>
    <province_code>0380250</province_code>
    <community></community>
    <community_code></community_code>
    <latitude>56.8158</latitude>
    <longitude>27.0923</longitude>
  </object>
  <object>
    <country_code>LV</country_code>
    <zipcode>LV-4576</zipcode>
    <place>Pugači</place>
    <state>Balvu nov.</state>
    <state_code>03</state_code>
    <province>Bērzpils pag.</province>
    <province_code>0380250</province_code>
    <community></community>
    <community_code></community_code>
    <latitude>56.8398</latitude>
    <longitude>27.1239</longitude>
  </object>
  <object>
    <country_code>LV</country_code>
    <zipcode>LV-4576</zipcode>
    <place>Domopole</place>
    <state>Balvu nov.</state>
    <state_code>03</state_code>
    <province>Bērzpils pag.</province>
    <province_code>0380250</province_code>
    <community></community>
    <community_code></community_code>
    <latitude>56.8594</latitude>
    <longitude>27.0801</longitude>
  </object>
  <object>
    <country_code>LV</country_code>
    <zipcode>LV-4576</zipcode>
    <place>Gabrāni</place>
    <state>Balvu nov.</state>
    <state_code>03</state_code>
    <province>Bērzpils pag.</province>
    <province_code>0380250</province_code>
    <community></community>
    <community_code></community_code>
    <latitude>56.8141</latitude>
    <longitude>27.1962</longitude>
  </object>
  <object>
    <country_code>LV</country_code>
    <zipcode>LV-4576</zipcode>
    <place>Silamuiža</place>
    <state>Balvu nov.</state>
    <state_code>03</state_code>
    <province>Bērzpils pag.</province>
    <province_code>0380250</province_code>
    <community></community>
    <community_code></community_code>
    <latitude>56.8264</latitude>
    <longitude>27.0943</longitude>
  </object>
  <object>
    <country_code>LV</country_code>
    <zipcode>LV-4576</zipcode>
    <place>Viškuļi</place>
    <state>Balvu nov.</state>
    <state_code>03</state_code>
    <province>Bērzpils pag.</province>
    <province_code>0380250</province_code>
    <community></community>
    <community_code></community_code>
    <latitude>56.818</latitude>
    <longitude>27.1326</longitude>
  </object>
  <object>
    <country_code>LV</country_code>
    <zipcode>LV-4576</zipcode>
    <place>Augstari</place>
    <state>Balvu nov.</state>
    <state_code>03</state_code>
    <province>Bērzpils pag.</province>
    <province_code>0380250</province_code>
    <community></community>
    <community_code></community_code>
    <latitude>56.8631</latitude>
    <longitude>27.069</longitude>
  </object>
  <object>
    <country_code>LV</country_code>
    <zipcode>LV-4576</zipcode>
    <place>Kļaviņi</place>
    <state>Balvu nov.</state>
    <state_code>03</state_code>
    <province>Bērzpils pag.</province>
    <province_code>0380250</province_code>
    <community></community>
    <community_code></community_code>
    <latitude>56.8398</latitude>
    <longitude>27.1239</longitude>
  </object>
  <object>
    <country_code>LV</country_code>
    <zipcode>LV-4576</zipcode>
    <place>Javenieki</place>
    <state>Balvu nov.</state>
    <state_code>03</state_code>
    <province>Bērzpils pag.</province>
    <province_code>0380250</province_code>
    <community></community>
    <community_code></community_code>
    <latitude>56.8413</latitude>
    <longitude>27.1748</longitude>
  </object>
  <object>
    <country_code>LV</country_code>
    <zipcode>LV-4576</zipcode>
    <place>Līdumnieki</place>
    <state>Balvu nov.</state>
    <state_code>03</state_code>
    <province>Bērzpils pag.</province>
    <province_code>0380250</province_code>
    <community></community>
    <community_code></community_code>
    <latitude>56.8398</latitude>
    <longitude>27.1239</longitude>
  </object>
  <object>
    <country_code>LV</country_code>
    <zipcode>LV-4576</zipcode>
    <place>Lauskinieki</place>
    <state>Balvu nov.</state>
    <state_code>03</state_code>
    <province>Bērzpils pag.</province>
    <province_code>0380250</province_code>
    <community></community>
    <community_code></community_code>
    <latitude>56.8398</latitude>
    <longitude>27.1239</longitude>
  </object>
  <object>
    <country_code>LV</country_code>
    <zipcode>LV-4576</zipcode>
    <place>Bonifacova</place>
    <state>Balvu nov.</state>
    <state_code>03</state_code>
    <province>Bērzpils pag.</province>
    <province_code>0380250</province_code>
    <community></community>
    <community_code></community_code>
    <latitude>56.8221</latitude>
    <longitude>27.0597</longitude>
  </object>
  <object>
    <country_code>LV</country_code>
    <zipcode>LV-4576</zipcode>
    <place>Zosuli</place>
    <state>Balvu nov.</state>
    <state_code>03</state_code>
    <province>Bērzpils pag.</province>
    <province_code>0380250</province_code>
    <community></community>
    <community_code></community_code>
    <latitude>56.8249</latitude>
    <longitude>27.1954</longitude>
  </object>
  <object>
    <country_code>LV</country_code>
    <zipcode>LV-4576</zipcode>
    <place>Sprodzenieki</place>
    <state>Balvu nov.</state>
    <state_code>03</state_code>
    <province>Bērzpils pag.</province>
    <province_code>0380250</province_code>
    <community></community>
    <community_code></community_code>
    <latitude>56.8398</latitude>
    <longitude>27.1239</longitude>
  </object>
  <object>
    <country_code>LV</country_code>
    <zipcode>LV-4576</zipcode>
    <place>Tabakova</place>
    <state>Balvu nov.</state>
    <state_code>03</state_code>
    <province>Bērzpils pag.</province>
    <province_code>0380250</province_code>
    <community></community>
    <community_code></community_code>
    <latitude>56.8398</latitude>
    <longitude>27.1239</longitude>
  </object>
  <object>
    <country_code>LV</country_code>
    <zipcode>LV-4576</zipcode>
    <place>Sola</place>
    <state>Balvu nov.</state>
    <state_code>03</state_code>
    <province>Bērzpils pag.</province>
    <province_code>0380250</province_code>
    <community></community>
    <community_code></community_code>
    <latitude>56.8093</latitude>
    <longitude>27.0423</longitude>
  </object>
  <object>
    <country_code>LV</country_code>
    <zipcode>LV-4576</zipcode>
    <place>Apšenieki</place>
    <state>Balvu nov.</state>
    <state_code>03</state_code>
    <province>Bērzpils pag.</province>
    <province_code>0380250</province_code>
    <community></community>
    <community_code></community_code>
    <latitude>56.8398</latitude>
    <longitude>27.1239</longitude>
  </object>
  <object>
    <country_code>LV</country_code>
    <zipcode>LV-4576</zipcode>
    <place>Bērži</place>
    <state>Balvu nov.</state>
    <state_code>03</state_code>
    <province>Bērzpils pag.</province>
    <province_code>0380250</province_code>
    <community></community>
    <community_code></community_code>
    <latitude>56.8398</latitude>
    <longitude>27.1239</longitude>
  </object>
  <object>
    <country_code>LV</country_code>
    <zipcode>LV-4576</zipcode>
    <place>Kononi</place>
    <state>Balvu nov.</state>
    <state_code>03</state_code>
    <province>Bērzpils pag.</province>
    <province_code>0380250</province_code>
    <community></community>
    <community_code></community_code>
    <latitude>56.8966</latitude>
    <longitude>27.2369</longitude>
  </object>
  <object>
    <country_code>LV</country_code>
    <zipcode>LV-4576</zipcode>
    <place>Mūramuiža</place>
    <state>Balvu nov.</state>
    <state_code>03</state_code>
    <province>Bērzpils pag.</province>
    <province_code>0380250</province_code>
    <community></community>
    <community_code></community_code>
    <latitude>56.8398</latitude>
    <longitude>27.1239</longitude>
  </object>
  <object>
    <country_code>LV</country_code>
    <zipcode>LV-4576</zipcode>
    <place>Osudari</place>
    <state>Balvu nov.</state>
    <state_code>03</state_code>
    <province>Bērzpils pag.</province>
    <province_code>0380250</province_code>
    <community></community>
    <community_code></community_code>
    <latitude>56.8398</latitude>
    <longitude>27.1239</longitude>
  </object>
  <object>
    <country_code>LV</country_code>
    <zipcode>LV-4576</zipcode>
    <place>Zvonovka</place>
    <state>Balvu nov.</state>
    <state_code>03</state_code>
    <province>Bērzpils pag.</province>
    <province_code>0380250</province_code>
    <community></community>
    <community_code></community_code>
    <latitude>56.8398</latitude>
    <longitude>27.1239</longitude>
  </object>
  <object>
    <country_code>LV</country_code>
    <zipcode>LV-4576</zipcode>
    <place>Lāčaunieki</place>
    <state>Balvu nov.</state>
    <state_code>03</state_code>
    <province>Bērzpils pag.</province>
    <province_code>0380250</province_code>
    <community></community>
    <community_code></community_code>
    <latitude>56.8398</latitude>
    <longitude>27.1239</longitude>
  </object>
  <object>
    <country_code>LV</country_code>
    <zipcode>LV-4576</zipcode>
    <place>Gribkova</place>
    <state>Balvu nov.</state>
    <state_code>03</state_code>
    <province>Bērzpils pag.</province>
    <province_code>0380250</province_code>
    <community></community>
    <community_code></community_code>
    <latitude>56.8398</latitude>
    <longitude>27.1239</longitude>
  </object>
  <object>
    <country_code>LV</country_code>
    <zipcode>LV-4576</zipcode>
    <place>Golvari</place>
    <state>Balvu nov.</state>
    <state_code>03</state_code>
    <province>Bērzpils pag.</province>
    <province_code>0380250</province_code>
    <community></community>
    <community_code></community_code>
    <latitude>56.862</latitude>
    <longitude>27.2256</longitude>
  </object>
  <object>
    <country_code>LV</country_code>
    <zipcode>LV-4576</zipcode>
    <place>Pāliņi</place>
    <state>Balvu nov.</state>
    <state_code>03</state_code>
    <province>Bērzpils pag.</province>
    <province_code>0380250</province_code>
    <community></community>
    <community_code></community_code>
    <latitude>56.8668</latitude>
    <longitude>27.0941</longitude>
  </object>
  <object>
    <country_code>LV</country_code>
    <zipcode>LV-4576</zipcode>
    <place>Beļauski</place>
    <state>Balvu nov.</state>
    <state_code>03</state_code>
    <province>Bērzpils pag.</province>
    <province_code>0380250</province_code>
    <community></community>
    <community_code></community_code>
    <latitude>56.8453</latitude>
    <longitude>27.115</longitude>
  </object>
  <object>
    <country_code>LV</country_code>
    <zipcode>LV-4576</zipcode>
    <place>Jabalova</place>
    <state>Balvu nov.</state>
    <state_code>03</state_code>
    <province>Bērzpils pag.</province>
    <province_code>0380250</province_code>
    <community></community>
    <community_code></community_code>
    <latitude>56.8398</latitude>
    <longitude>27.1239</longitude>
  </object>
  <object>
    <country_code>LV</country_code>
    <zipcode>LV-4576</zipcode>
    <place>Somi</place>
    <state>Balvu nov.</state>
    <state_code>03</state_code>
    <province>Bērzpils pag.</province>
    <province_code>0380250</province_code>
    <community></community>
    <community_code></community_code>
    <latitude>56.8398</latitude>
    <longitude>27.1239</longitude>
  </object>
  <object>
    <country_code>LV</country_code>
    <zipcode>LV-4576</zipcode>
    <place>Kažoki</place>
    <state>Balvu nov.</state>
    <state_code>03</state_code>
    <province>Bērzpils pag.</province>
    <province_code>0380250</province_code>
    <community></community>
    <community_code></community_code>
    <latitude>56.8398</latitude>
    <longitude>27.1239</longitude>
  </object>
  <object>
    <country_code>LV</country_code>
    <zipcode>LV-4576</zipcode>
    <place>Kiļauka</place>
    <state>Balvu nov.</state>
    <state_code>03</state_code>
    <province>Bērzpils pag.</province>
    <province_code>0380250</province_code>
    <community></community>
    <community_code></community_code>
    <latitude>56.8398</latitude>
    <longitude>27.1239</longitude>
  </object>
  <object>
    <country_code>LV</country_code>
    <zipcode>LV-4576</zipcode>
    <place>Masalnieki</place>
    <state>Balvu nov.</state>
    <state_code>03</state_code>
    <province>Bērzpils pag.</province>
    <province_code>0380250</province_code>
    <community></community>
    <community_code></community_code>
    <latitude>56.823</latitude>
    <longitude>27.135</longitude>
  </object>
  <object>
    <country_code>LV</country_code>
    <zipcode>LV-4576</zipcode>
    <place>Bērzieši</place>
    <state>Balvu nov.</state>
    <state_code>03</state_code>
    <province>Bērzpils pag.</province>
    <province_code>0380250</province_code>
    <community></community>
    <community_code></community_code>
    <latitude>56.8398</latitude>
    <longitude>27.1239</longitude>
  </object>
  <object>
    <country_code>LV</country_code>
    <zipcode>LV-4576</zipcode>
    <place>Bērzpils</place>
    <state>Balvu nov.</state>
    <state_code>03</state_code>
    <province>Bērzpils pag.</province>
    <province_code>0380250</province_code>
    <community></community>
    <community_code></community_code>
    <latitude>56.8496</latitude>
    <longitude>27.084</longitude>
  </object>
  <object>
    <country_code>LV</country_code>
    <zipcode>LV-4576</zipcode>
    <place>Pelerijas</place>
    <state>Balvu nov.</state>
    <state_code>03</state_code>
    <province>Bērzpils pag.</province>
    <province_code>0380250</province_code>
    <community></community>
    <community_code></community_code>
    <latitude>56.8398</latitude>
    <longitude>27.1239</longitude>
  </object>
  <object>
    <country_code>LV</country_code>
    <zipcode>LV-4576</zipcode>
    <place>Vecpils</place>
    <state>Balvu nov.</state>
    <state_code>03</state_code>
    <province>Bērzpils pag.</province>
    <province_code>0380250</province_code>
    <community></community>
    <community_code></community_code>
    <latitude>56.8398</latitude>
    <longitude>27.079</longitude>
  </object>
  <object>
    <country_code>LV</country_code>
    <zipcode>LV-4567</zipcode>
    <place>Jaunzemes</place>
    <state>Balvu nov.</state>
    <state_code>03</state_code>
    <province>Briežuciema pag.</province>
    <province_code>0380252</province_code>
    <community></community>
    <community_code></community_code>
    <latitude>57.034</latitude>
    <longitude>27.5346</longitude>
  </object>
  <object>
    <country_code>LV</country_code>
    <zipcode>LV-4567</zipcode>
    <place>Dubļeva</place>
    <state>Balvu nov.</state>
    <state_code>03</state_code>
    <province>Briežuciema pag.</province>
    <province_code>0380252</province_code>
    <community></community>
    <community_code></community_code>
    <latitude>56.9723</latitude>
    <longitude>27.5523</longitude>
  </object>
  <object>
    <country_code>LV</country_code>
    <zipcode>LV-4567</zipcode>
    <place>Sepovka</place>
    <state>Balvu nov.</state>
    <state_code>03</state_code>
    <province>Briežuciema pag.</province>
    <province_code>0380252</province_code>
    <community></community>
    <community_code></community_code>
    <latitude>57.034</latitude>
    <longitude>27.5346</longitude>
  </object>
  <object>
    <country_code>LV</country_code>
    <zipcode>LV-4567</zipcode>
    <place>Vāzovka</place>
    <state>Balvu nov.</state>
    <state_code>03</state_code>
    <province>Briežuciema pag.</province>
    <province_code>0380252</province_code>
    <community></community>
    <community_code></community_code>
    <latitude>57.034</latitude>
    <longitude>27.5346</longitude>
  </object>
  <object>
    <country_code>LV</country_code>
    <zipcode>LV-4567</zipcode>
    <place>Cērpene</place>
    <state>Balvu nov.</state>
    <state_code>03</state_code>
    <province>Briežuciema pag.</province>
    <province_code>0380252</province_code>
    <community></community>
    <community_code></community_code>
    <latitude>57.0087</latitude>
    <longitude>27.6131</longitude>
  </object>
  <object>
    <country_code>LV</country_code>
    <zipcode>LV-4567</zipcode>
    <place>Pūšļeva</place>
    <state>Balvu nov.</state>
    <state_code>03</state_code>
    <province>Briežuciema pag.</province>
    <province_code>0380252</province_code>
    <community></community>
    <community_code></community_code>
    <latitude>56.9927</latitude>
    <longitude>27.6099</longitude>
  </object>
  <object>
    <country_code>LV</country_code>
    <zipcode>LV-4567</zipcode>
    <place>Bilga</place>
    <state>Balvu nov.</state>
    <state_code>03</state_code>
    <province>Briežuciema pag.</province>
    <province_code>0380252</province_code>
    <community></community>
    <community_code></community_code>
    <latitude>57.034</latitude>
    <longitude>27.5346</longitude>
  </object>
  <object>
    <country_code>LV</country_code>
    <zipcode>LV-4567</zipcode>
    <place>Augstasils</place>
    <state>Balvu nov.</state>
    <state_code>03</state_code>
    <province>Briežuciema pag.</province>
    <province_code>0380252</province_code>
    <community></community>
    <community_code></community_code>
    <latitude>57.0126</latitude>
    <longitude>27.5775</longitude>
  </object>
  <object>
    <country_code>LV</country_code>
    <zipcode>LV-4567</zipcode>
    <place>Briežusala</place>
    <state>Balvu nov.</state>
    <state_code>03</state_code>
    <province>Briežuciema pag.</province>
    <province_code>0380252</province_code>
    <community></community>
    <community_code></community_code>
    <latitude>57.034</latitude>
    <longitude>27.5346</longitude>
  </object>
  <object>
    <country_code>LV</country_code>
    <zipcode>LV-4567</zipcode>
    <place>Čilipīne</place>
    <state>Balvu nov.</state>
    <state_code>03</state_code>
    <province>Briežuciema pag.</province>
    <province_code>0380252</province_code>
    <community></community>
    <community_code></community_code>
    <latitude>57.034</latitude>
    <longitude>27.5346</longitude>
  </object>
  <object>
    <country_code>LV</country_code>
    <zipcode>LV-4567</zipcode>
    <place>Kroni</place>
    <state>Balvu nov.</state>
    <state_code>03</state_code>
    <province>Briežuciema pag.</province>
    <province_code>0380252</province_code>
    <community></community>
    <community_code></community_code>
    <latitude>57.034</latitude>
    <longitude>27.5346</longitude>
  </object>
  <object>
    <country_code>LV</country_code>
    <zipcode>LV-4567</zipcode>
    <place>Kručinova</place>
    <state>Balvu nov.</state>
    <state_code>03</state_code>
    <province>Briežuciema pag.</province>
    <province_code>0380252</province_code>
    <community></community>
    <community_code></community_code>
    <latitude>57.034</latitude>
    <longitude>27.5346</longitude>
  </object>
  <object>
    <country_code>LV</country_code>
    <zipcode>LV-4567</zipcode>
    <place>Lazduleja</place>
    <state>Balvu nov.</state>
    <state_code>03</state_code>
    <province>Briežuciema pag.</province>
    <province_code>0380252</province_code>
    <community></community>
    <community_code></community_code>
    <latitude>57.034</latitude>
    <longitude>27.5346</longitude>
  </object>
  <object>
    <country_code>LV</country_code>
    <zipcode>LV-4567</zipcode>
    <place>Ploskene</place>
    <state>Balvu nov.</state>
    <state_code>03</state_code>
    <province>Briežuciema pag.</province>
    <province_code>0380252</province_code>
    <community></community>
    <community_code></community_code>
    <latitude>57.034</latitude>
    <longitude>27.5346</longitude>
  </object>
  <object>
    <country_code>LV</country_code>
    <zipcode>LV-4567</zipcode>
    <place>Brieksīne</place>
    <state>Balvu nov.</state>
    <state_code>03</state_code>
    <province>Briežuciema pag.</province>
    <province_code>0380252</province_code>
    <community></community>
    <community_code></community_code>
    <latitude>57.034</latitude>
    <longitude>27.5346</longitude>
  </object>
  <object>
    <country_code>LV</country_code>
    <zipcode>LV-4567</zipcode>
    <place>Pužulova</place>
    <state>Balvu nov.</state>
    <state_code>03</state_code>
    <province>Briežuciema pag.</province>
    <province_code>0380252</province_code>
    <community></community>
    <community_code></community_code>
    <latitude>57.034</latitude>
    <longitude>27.5346</longitude>
  </object>
  <object>
    <country_code>LV</country_code>
    <zipcode>LV-4595</zipcode>
    <place>Bēliņi</place>
    <state>Balvu nov.</state>
    <state_code>03</state_code>
    <province>Briežuciema pag.</province>
    <province_code>0380252</province_code>
    <community></community>
    <community_code></community_code>
    <latitude>56.988</latitude>
    <longitude>27.5856</longitude>
  </object>
  <object>
    <country_code>LV</country_code>
    <zipcode>LV-4595</zipcode>
    <place>Dambergi</place>
    <state>Balvu nov.</state>
    <state_code>03</state_code>
    <province>Briežuciema pag.</province>
    <province_code>0380252</province_code>
    <community></community>
    <community_code></community_code>
    <latitude>56.9565</latitude>
    <longitude>27.5334</longitude>
  </object>
  <object>
    <country_code>LV</country_code>
    <zipcode>LV-4595</zipcode>
    <place>Stouberova</place>
    <state>Balvu nov.</state>
    <state_code>03</state_code>
    <province>Briežuciema pag.</province>
    <province_code>0380252</province_code>
    <community></community>
    <community_code></community_code>
    <latitude>56.9786</latitude>
    <longitude>27.5607</longitude>
  </object>
  <object>
    <country_code>LV</country_code>
    <zipcode>LV-4595</zipcode>
    <place>Ausala</place>
    <state>Balvu nov.</state>
    <state_code>03</state_code>
    <province>Briežuciema pag.</province>
    <province_code>0380252</province_code>
    <community></community>
    <community_code></community_code>
    <latitude>56.949</latitude>
    <longitude>27.5126</longitude>
  </object>
  <object>
    <country_code>LV</country_code>
    <zipcode>LV-4595</zipcode>
    <place>Ostrolīdumi</place>
    <state>Balvu nov.</state>
    <state_code>03</state_code>
    <province>Briežuciema pag.</province>
    <province_code>0380252</province_code>
    <community></community>
    <community_code></community_code>
    <latitude>56.9786</latitude>
    <longitude>27.5607</longitude>
  </object>
  <object>
    <country_code>LV</country_code>
    <zipcode>LV-4595</zipcode>
    <place>Torkova</place>
    <state>Balvu nov.</state>
    <state_code>03</state_code>
    <province>Briežuciema pag.</province>
    <province_code>0380252</province_code>
    <community></community>
    <community_code></community_code>
    <latitude>56.9805</latitude>
    <longitude>27.586</longitude>
  </object>
  <object>
    <country_code>LV</country_code>
    <zipcode>LV-4595</zipcode>
    <place>Abriņas</place>
    <state>Balvu nov.</state>
    <state_code>03</state_code>
    <province>Briežuciema pag.</province>
    <province_code>0380252</province_code>
    <community></community>
    <community_code></community_code>
    <latitude>56.9736</latitude>
    <longitude>27.6177</longitude>
  </object>
  <object>
    <country_code>LV</country_code>
    <zipcode>LV-4595</zipcode>
    <place>Denicova</place>
    <state>Balvu nov.</state>
    <state_code>03</state_code>
    <province>Briežuciema pag.</province>
    <province_code>0380252</province_code>
    <community></community>
    <community_code></community_code>
    <latitude>56.9786</latitude>
    <longitude>27.5607</longitude>
  </object>
  <object>
    <country_code>LV</country_code>
    <zipcode>LV-4595</zipcode>
    <place>Dukuļeva</place>
    <state>Balvu nov.</state>
    <state_code>03</state_code>
    <province>Briežuciema pag.</province>
    <province_code>0380252</province_code>
    <community></community>
    <community_code></community_code>
    <latitude>56.9723</latitude>
    <longitude>27.5523</longitude>
  </object>
  <object>
    <country_code>LV</country_code>
    <zipcode>LV-4595</zipcode>
    <place>Kvašņeva</place>
    <state>Balvu nov.</state>
    <state_code>03</state_code>
    <province>Briežuciema pag.</province>
    <province_code>0380252</province_code>
    <community></community>
    <community_code></community_code>
    <latitude>56.9786</latitude>
    <longitude>27.5607</longitude>
  </object>
  <object>
    <country_code>LV</country_code>
    <zipcode>LV-4595</zipcode>
    <place>Grūšļeva</place>
    <state>Balvu nov.</state>
    <state_code>03</state_code>
    <province>Briežuciema pag.</province>
    <province_code>0380252</province_code>
    <community></community>
    <community_code></community_code>
    <latitude>56.9786</latitude>
    <longitude>27.5607</longitude>
  </object>
  <object>
    <country_code>LV</country_code>
    <zipcode>LV-4595</zipcode>
    <place>Bokova</place>
    <state>Balvu nov.</state>
    <state_code>03</state_code>
    <province>Briežuciema pag.</province>
    <province_code>0380252</province_code>
    <community></community>
    <community_code></community_code>
    <latitude>56.9786</latitude>
    <longitude>27.5607</longitude>
  </object>
  <object>
    <country_code>LV</country_code>
    <zipcode>LV-4595</zipcode>
    <place>Štikunova</place>
    <state>Balvu nov.</state>
    <state_code>03</state_code>
    <province>Briežuciema pag.</province>
    <province_code>0380252</province_code>
    <community></community>
    <community_code></community_code>
    <latitude>56.9786</latitude>
    <longitude>27.5607</longitude>
  </object>
  <object>
    <country_code>LV</country_code>
    <zipcode>LV-4595</zipcode>
    <place>Begunova</place>
    <state>Balvu nov.</state>
    <state_code>03</state_code>
    <province>Briežuciema pag.</province>
    <province_code>0380252</province_code>
    <community></community>
    <community_code></community_code>
    <latitude>56.9786</latitude>
    <longitude>27.5607</longitude>
  </object>
  <object>
    <country_code>LV</country_code>
    <zipcode>LV-4595</zipcode>
    <place>Briežuciems</place>
    <state>Balvu nov.</state>
    <state_code>03</state_code>
    <province>Briežuciema pag.</province>
    <province_code>0380252</province_code>
    <community></community>
    <community_code></community_code>
    <latitude>56.9623</latitude>
    <longitude>27.5949</longitude>
  </object>
  <object>
    <country_code>LV</country_code>
    <zipcode>LV-4573</zipcode>
    <place>Purviņas</place>
    <state>Balvu nov.</state>
    <state_code>03</state_code>
    <province>Krišjāņu pag.</province>
    <province_code>0380256</province_code>
    <community></community>
    <community_code></community_code>
    <latitude>56.828</latitude>
    <longitude>27.3949</longitude>
  </object>
  <object>
    <country_code>LV</country_code>
    <zipcode>LV-4573</zipcode>
    <place>Zeltupe</place>
    <state>Balvu nov.</state>
    <state_code>03</state_code>
    <province>Krišjāņu pag.</province>
    <province_code>0380256</province_code>
    <community></community>
    <community_code></community_code>
    <latitude>56.8335</latitude>
    <longitude>27.382</longitude>
  </object>
  <object>
    <country_code>LV</country_code>
    <zipcode>LV-4573</zipcode>
    <place>Mežupe</place>
    <state>Balvu nov.</state>
    <state_code>03</state_code>
    <province>Krišjāņu pag.</province>
    <province_code>0380256</province_code>
    <community></community>
    <community_code></community_code>
    <latitude>56.8391</latitude>
    <longitude>27.3691</longitude>
  </object>
  <object>
    <country_code>LV</country_code>
    <zipcode>LV-4573</zipcode>
    <place>Vītoli</place>
    <state>Balvu nov.</state>
    <state_code>03</state_code>
    <province>Krišjāņu pag.</province>
    <province_code>0380256</province_code>
    <community></community>
    <community_code></community_code>
    <latitude>56.8335</latitude>
    <longitude>27.382</longitude>
  </object>
  <object>
    <country_code>LV</country_code>
    <zipcode>LV-4574</zipcode>
    <place>Putrāni</place>
    <state>Balvu nov.</state>
    <state_code>03</state_code>
    <province>Krišjāņu pag.</province>
    <province_code>0380256</province_code>
    <community></community>
    <community_code></community_code>
    <latitude>56.8158</latitude>
    <longitude>27.276</longitude>
  </object>
  <object>
    <country_code>LV</country_code>
    <zipcode>LV-4574</zipcode>
    <place>Runcene</place>
    <state>Balvu nov.</state>
    <state_code>03</state_code>
    <province>Krišjāņu pag.</province>
    <province_code>0380256</province_code>
    <community></community>
    <community_code></community_code>
    <latitude>56.8158</latitude>
    <longitude>27.276</longitude>
  </object>
  <object>
    <country_code>LV</country_code>
    <zipcode>LV-4574</zipcode>
    <place>Krampiņas</place>
    <state>Balvu nov.</state>
    <state_code>03</state_code>
    <province>Krišjāņu pag.</province>
    <province_code>0380256</province_code>
    <community></community>
    <community_code></community_code>
    <latitude>56.8429</latitude>
    <longitude>27.273</longitude>
  </object>
  <object>
    <country_code>LV</country_code>
    <zipcode>LV-4574</zipcode>
    <place>Žogi</place>
    <state>Balvu nov.</state>
    <state_code>03</state_code>
    <province>Krišjāņu pag.</province>
    <province_code>0380256</province_code>
    <community></community>
    <community_code></community_code>
    <latitude>56.818</latitude>
    <longitude>27.3056</longitude>
  </object>
  <object>
    <country_code>LV</country_code>
    <zipcode>LV-4574</zipcode>
    <place>Vakšenieki</place>
    <state>Balvu nov.</state>
    <state_code>03</state_code>
    <province>Krišjāņu pag.</province>
    <province_code>0380256</province_code>
    <community></community>
    <community_code></community_code>
    <latitude>56.8158</latitude>
    <longitude>27.276</longitude>
  </object>
  <object>
    <country_code>LV</country_code>
    <zipcode>LV-4574</zipcode>
    <place>Naglīši</place>
    <state>Balvu nov.</state>
    <state_code>03</state_code>
    <province>Krišjāņu pag.</province>
    <province_code>0380256</province_code>
    <community></community>
    <community_code></community_code>
    <latitude>56.7952</latitude>
    <longitude>27.2382</longitude>
  </object>
  <object>
    <country_code>LV</country_code>
    <zipcode>LV-4574</zipcode>
    <place>Krišjāņi</place>
    <state>Balvu nov.</state>
    <state_code>03</state_code>
    <province>Krišjāņu pag.</province>
    <province_code>0380256</province_code>
    <community></community>
    <community_code></community_code>
    <latitude>56.8071</latitude>
    <longitude>27.2873</longitude>
  </object>
  <object>
    <country_code>LV</country_code>
    <zipcode>LV-4501</zipcode>
    <place>Guznava</place>
    <state>Balvu nov.</state>
    <state_code>03</state_code>
    <province>Kubulu pag.</province>
    <province_code>0380258</province_code>
    <community></community>
    <community_code></community_code>
    <latitude>57.1466</latitude>
    <longitude>27.3787</longitude>
  </object>
  <object>
    <country_code>LV</country_code>
    <zipcode>LV-4501</zipcode>
    <place>Dekšņi</place>
    <state>Balvu nov.</state>
    <state_code>03</state_code>
    <province>Kubulu pag.</province>
    <province_code>0380258</province_code>
    <community></community>
    <community_code></community_code>
    <latitude>57.1466</latitude>
    <longitude>27.3787</longitude>
  </object>
  <object>
    <country_code>LV</country_code>
    <zipcode>LV-4501</zipcode>
    <place>Pelnupe</place>
    <state>Balvu nov.</state>
    <state_code>03</state_code>
    <province>Kubulu pag.</province>
    <province_code>0380258</province_code>
    <community></community>
    <community_code></community_code>
    <latitude>57.1466</latitude>
    <longitude>27.3787</longitude>
  </object>
  <object>
    <country_code>LV</country_code>
    <zipcode>LV-4501</zipcode>
    <place>Pērkoni</place>
    <state>Balvu nov.</state>
    <state_code>03</state_code>
    <province>Kubulu pag.</province>
    <province_code>0380258</province_code>
    <community></community>
    <community_code></community_code>
    <latitude>57.1583</latitude>
    <longitude>27.3192</longitude>
  </object>
  <object>
    <country_code>LV</country_code>
    <zipcode>LV-4501</zipcode>
    <place>Zači</place>
    <state>Balvu nov.</state>
    <state_code>03</state_code>
    <province>Kubulu pag.</province>
    <province_code>0380258</province_code>
    <community></community>
    <community_code></community_code>
    <latitude>57.1466</latitude>
    <longitude>27.3787</longitude>
  </object>
  <object>
    <country_code>LV</country_code>
    <zipcode>LV-4501</zipcode>
    <place>Tutinava</place>
    <state>Balvu nov.</state>
    <state_code>03</state_code>
    <province>Kubulu pag.</province>
    <province_code>0380258</province_code>
    <community></community>
    <community_code></community_code>
    <latitude>57.1659</latitude>
    <longitude>27.183</longitude>
  </object>
  <object>
    <country_code>LV</country_code>
    <zipcode>LV-4501</zipcode>
    <place>Steķintava</place>
    <state>Balvu nov.</state>
    <state_code>03</state_code>
    <province>Kubulu pag.</province>
    <province_code>0380258</province_code>
    <community></community>
    <community_code></community_code>
    <latitude>57.1421</latitude>
    <longitude>27.257</longitude>
  </object>
  <object>
    <country_code>LV</country_code>
    <zipcode>LV-4501</zipcode>
    <place>Krasnogorka</place>
    <state>Balvu nov.</state>
    <state_code>03</state_code>
    <province>Kubulu pag.</province>
    <province_code>0380258</province_code>
    <community></community>
    <community_code></community_code>
    <latitude>57.1466</latitude>
    <longitude>27.3787</longitude>
  </object>
  <object>
    <country_code>LV</country_code>
    <zipcode>LV-4566</zipcode>
    <place>Paulāni</place>
    <state>Balvu nov.</state>
    <state_code>03</state_code>
    <province>Kubulu pag.</province>
    <province_code>0380258</province_code>
    <community></community>
    <community_code></community_code>
    <latitude>57.2176</latitude>
    <longitude>27.1904</longitude>
  </object>
  <object>
    <country_code>LV</country_code>
    <zipcode>LV-4566</zipcode>
    <place>Silaciems</place>
    <state>Balvu nov.</state>
    <state_code>03</state_code>
    <province>Kubulu pag.</province>
    <province_code>0380258</province_code>
    <community></community>
    <community_code></community_code>
    <latitude>57.1427</latitude>
    <longitude>27.1542</longitude>
  </object>
  <object>
    <country_code>LV</country_code>
    <zipcode>LV-4566</zipcode>
    <place>Pordari</place>
    <state>Balvu nov.</state>
    <state_code>03</state_code>
    <province>Kubulu pag.</province>
    <province_code>0380258</province_code>
    <community></community>
    <community_code></community_code>
    <latitude>57.1317</latitude>
    <longitude>27.1547</longitude>
  </object>
  <object>
    <country_code>LV</country_code>
    <zipcode>LV-4566</zipcode>
    <place>Tīreļi</place>
    <state>Balvu nov.</state>
    <state_code>03</state_code>
    <province>Kubulu pag.</province>
    <province_code>0380258</province_code>
    <community></community>
    <community_code></community_code>
    <latitude>57.1915</latitude>
    <longitude>27.2016</longitude>
  </object>
  <object>
    <country_code>LV</country_code>
    <zipcode>LV-4566</zipcode>
    <place>Kurna</place>
    <state>Balvu nov.</state>
    <state_code>03</state_code>
    <province>Kubulu pag.</province>
    <province_code>0380258</province_code>
    <community></community>
    <community_code></community_code>
    <latitude>57.1445</latitude>
    <longitude>27.2106</longitude>
  </object>
  <object>
    <country_code>LV</country_code>
    <zipcode>LV-4566</zipcode>
    <place>Nikolajeva</place>
    <state>Balvu nov.</state>
    <state_code>03</state_code>
    <province>Kubulu pag.</province>
    <province_code>0380258</province_code>
    <community></community>
    <community_code></community_code>
    <latitude>57.1984</latitude>
    <longitude>27.2556</longitude>
  </object>
  <object>
    <country_code>LV</country_code>
    <zipcode>LV-4566</zipcode>
    <place>Celmene</place>
    <state>Balvu nov.</state>
    <state_code>03</state_code>
    <province>Kubulu pag.</province>
    <province_code>0380258</province_code>
    <community></community>
    <community_code></community_code>
    <latitude>57.1379</latitude>
    <longitude>27.1968</longitude>
  </object>
  <object>
    <country_code>LV</country_code>
    <zipcode>LV-4566</zipcode>
    <place>Oļģina</place>
    <state>Balvu nov.</state>
    <state_code>03</state_code>
    <province>Kubulu pag.</province>
    <province_code>0380258</province_code>
    <community></community>
    <community_code></community_code>
    <latitude>57.214</latitude>
    <longitude>27.247</longitude>
  </object>
  <object>
    <country_code>LV</country_code>
    <zipcode>LV-4566</zipcode>
    <place>Sita</place>
    <state>Balvu nov.</state>
    <state_code>03</state_code>
    <province>Kubulu pag.</province>
    <province_code>0380258</province_code>
    <community></community>
    <community_code></community_code>
    <latitude>57.178</latitude>
    <longitude>27.1023</longitude>
  </object>
  <object>
    <country_code>LV</country_code>
    <zipcode>LV-4566</zipcode>
    <place>Briedīši</place>
    <state>Balvu nov.</state>
    <state_code>03</state_code>
    <province>Kubulu pag.</province>
    <province_code>0380258</province_code>
    <community></community>
    <community_code></community_code>
    <latitude>57.1983</latitude>
    <longitude>27.1907</longitude>
  </object>
  <object>
    <country_code>LV</country_code>
    <zipcode>LV-4566</zipcode>
    <place>Vladimirova</place>
    <state>Balvu nov.</state>
    <state_code>03</state_code>
    <province>Kubulu pag.</province>
    <province_code>0380258</province_code>
    <community></community>
    <community_code></community_code>
    <latitude>57.1755</latitude>
    <longitude>27.1904</longitude>
  </object>
  <object>
    <country_code>LV</country_code>
    <zipcode>LV-4566</zipcode>
    <place>Tropiņi</place>
    <state>Balvu nov.</state>
    <state_code>03</state_code>
    <province>Kubulu pag.</province>
    <province_code>0380258</province_code>
    <community></community>
    <community_code></community_code>
    <latitude>57.1755</latitude>
    <longitude>27.1904</longitude>
  </object>
  <object>
    <country_code>LV</country_code>
    <zipcode>LV-4566</zipcode>
    <place>Druvenieki</place>
    <state>Balvu nov.</state>
    <state_code>03</state_code>
    <province>Kubulu pag.</province>
    <province_code>0380258</province_code>
    <community></community>
    <community_code></community_code>
    <latitude>57.1755</latitude>
    <longitude>27.1904</longitude>
  </object>
  <object>
    <country_code>LV</country_code>
    <zipcode>LV-4566</zipcode>
    <place>Dvorupe</place>
    <state>Balvu nov.</state>
    <state_code>03</state_code>
    <province>Kubulu pag.</province>
    <province_code>0380258</province_code>
    <community></community>
    <community_code></community_code>
    <latitude>57.1755</latitude>
    <longitude>27.1904</longitude>
  </object>
  <object>
    <country_code>LV</country_code>
    <zipcode>LV-4566</zipcode>
    <place>Esmeraldova</place>
    <state>Balvu nov.</state>
    <state_code>03</state_code>
    <province>Kubulu pag.</province>
    <province_code>0380258</province_code>
    <community></community>
    <community_code></community_code>
    <latitude>57.1755</latitude>
    <longitude>27.1904</longitude>
  </object>
  <object>
    <country_code>LV</country_code>
    <zipcode>LV-4566</zipcode>
    <place>Ežusala</place>
    <state>Balvu nov.</state>
    <state_code>03</state_code>
    <province>Kubulu pag.</province>
    <province_code>0380258</province_code>
    <community></community>
    <community_code></community_code>
    <latitude>57.1755</latitude>
    <longitude>27.1904</longitude>
  </object>
  <object>
    <country_code>LV</country_code>
    <zipcode>LV-4566</zipcode>
    <place>Fabrika</place>
    <state>Balvu nov.</state>
    <state_code>03</state_code>
    <province>Kubulu pag.</province>
    <province_code>0380258</province_code>
    <community></community>
    <community_code></community_code>
    <latitude>57.1755</latitude>
    <longitude>27.1904</longitude>
  </object>
  <object>
    <country_code>LV</country_code>
    <zipcode>LV-4566</zipcode>
    <place>Gobusala</place>
    <state>Balvu nov.</state>
    <state_code>03</state_code>
    <province>Kubulu pag.</province>
    <province_code>0380258</province_code>
    <community></community>
    <community_code></community_code>
    <latitude>57.1755</latitude>
    <longitude>27.1904</longitude>
  </object>
  <object>
    <country_code>LV</country_code>
    <zipcode>LV-4566</zipcode>
    <place>Grīvgals</place>
    <state>Balvu nov.</state>
    <state_code>03</state_code>
    <province>Kubulu pag.</province>
    <province_code>0380258</province_code>
    <community></community>
    <community_code></community_code>
    <latitude>57.1755</latitude>
    <longitude>27.1904</longitude>
  </object>
  <object>
    <country_code>LV</country_code>
    <zipcode>LV-4566</zipcode>
    <place>Jāņusala</place>
    <state>Balvu nov.</state>
    <state_code>03</state_code>
    <province>Kubulu pag.</province>
    <province_code>0380258</province_code>
    <community></community>
    <community_code></community_code>
    <latitude>57.1755</latitude>
    <longitude>27.1904</longitude>
  </object>
  <object>
    <country_code>LV</country_code>
    <zipcode>LV-4566</zipcode>
    <place>Kozlova</place>
    <state>Balvu nov.</state>
    <state_code>03</state_code>
    <province>Kubulu pag.</province>
    <province_code>0380258</province_code>
    <community></community>
    <community_code></community_code>
    <latitude>57.1755</latitude>
    <longitude>27.1904</longitude>
  </object>
  <object>
    <country_code>LV</country_code>
    <zipcode>LV-4566</zipcode>
    <place>Lasinnaja</place>
    <state>Balvu nov.</state>
    <state_code>03</state_code>
    <province>Kubulu pag.</province>
    <province_code>0380258</province_code>
    <community></community>
    <community_code></community_code>
    <latitude>57.1755</latitude>
    <longitude>27.1904</longitude>
  </object>
  <object>
    <country_code>LV</country_code>
    <zipcode>LV-4566</zipcode>
    <place>Vasiļjeva</place>
    <state>Balvu nov.</state>
    <state_code>03</state_code>
    <province>Kubulu pag.</province>
    <province_code>0380258</province_code>
    <community></community>
    <community_code></community_code>
    <latitude>57.1755</latitude>
    <longitude>27.1904</longitude>
  </object>
  <object>
    <country_code>LV</country_code>
    <zipcode>LV-4566</zipcode>
    <place>Līdumnieki</place>
    <state>Balvu nov.</state>
    <state_code>03</state_code>
    <province>Kubulu pag.</province>
    <province_code>0380258</province_code>
    <community></community>
    <community_code></community_code>
    <latitude>57.1755</latitude>
    <longitude>27.1904</longitude>
  </object>
  <object>
    <country_code>LV</country_code>
    <zipcode>LV-4566</zipcode>
    <place>Liepava</place>
    <state>Balvu nov.</state>
    <state_code>03</state_code>
    <province>Kubulu pag.</province>
    <province_code>0380258</province_code>
    <community></community>
    <community_code></community_code>
    <latitude>57.1755</latitude>
    <longitude>27.1904</longitude>
  </object>
  <object>
    <country_code>LV</country_code>
    <zipcode>LV-4566</zipcode>
    <place>Meirāni</place>
    <state>Balvu nov.</state>
    <state_code>03</state_code>
    <province>Kubulu pag.</province>
    <province_code>0380258</province_code>
    <community></community>
    <community_code></community_code>
    <latitude>57.1755</latitude>
    <longitude>27.1904</longitude>
  </object>
  <object>
    <country_code>LV</country_code>
    <zipcode>LV-4566</zipcode>
    <place>Robežnieki</place>
    <state>Balvu nov.</state>
    <state_code>03</state_code>
    <province>Kubulu pag.</province>
    <province_code>0380258</province_code>
    <community></community>
    <community_code></community_code>
    <latitude>57.1755</latitude>
    <longitude>27.1904</longitude>
  </object>
  <object>
    <country_code>LV</country_code>
    <zipcode>LV-4566</zipcode>
    <place>Stirnusala</place>
    <state>Balvu nov.</state>
    <state_code>03</state_code>
    <province>Kubulu pag.</province>
    <province_code>0380258</province_code>
    <community></community>
    <community_code></community_code>
    <latitude>57.1755</latitude>
    <longitude>27.1904</longitude>
  </object>
  <object>
    <country_code>LV</country_code>
    <zipcode>LV-4566</zipcode>
    <place>Celmenieki</place>
    <state>Balvu nov.</state>
    <state_code>03</state_code>
    <province>Kubulu pag.</province>
    <province_code>0380258</province_code>
    <community></community>
    <community_code></community_code>
    <latitude>57.1755</latitude>
    <longitude>27.1904</longitude>
  </object>
  <object>
    <country_code>LV</country_code>
    <zipcode>LV-4566</zipcode>
    <place>Balvu stacija</place>
    <state>Balvu nov.</state>
    <state_code>03</state_code>
    <province>Kubulu pag.</province>
    <province_code>0380258</province_code>
    <community></community>
    <community_code></community_code>
    <latitude>57.1755</latitude>
    <longitude>27.1904</longitude>
  </object>
  <object>
    <country_code>LV</country_code>
    <zipcode>LV-4592</zipcode>
    <place>Šumkova</place>
    <state>Balvu nov.</state>
    <state_code>03</state_code>
    <province>Lazdulejas pag.</province>
    <province_code>0380266</province_code>
    <community></community>
    <community_code></community_code>
    <latitude>57.0525</latitude>
    <longitude>27.4822</longitude>
  </object>
  <object>
    <country_code>LV</country_code>
    <zipcode>LV-4592</zipcode>
    <place>Purlova</place>
    <state>Balvu nov.</state>
    <state_code>03</state_code>
    <province>Lazdulejas pag.</province>
    <province_code>0380266</province_code>
    <community></community>
    <community_code></community_code>
    <latitude>57.0485</latitude>
    <longitude>27.4982</longitude>
  </object>
  <object>
    <country_code>LV</country_code>
    <zipcode>LV-4592</zipcode>
    <place>Osinovka</place>
    <state>Balvu nov.</state>
    <state_code>03</state_code>
    <province>Lazdulejas pag.</province>
    <province_code>0380266</province_code>
    <community></community>
    <community_code></community_code>
    <latitude>57.0525</latitude>
    <longitude>27.4822</longitude>
  </object>
  <object>
    <country_code>LV</country_code>
    <zipcode>LV-4592</zipcode>
    <place>Ozolova</place>
    <state>Balvu nov.</state>
    <state_code>03</state_code>
    <province>Lazdulejas pag.</province>
    <province_code>0380266</province_code>
    <community></community>
    <community_code></community_code>
    <latitude>57.0525</latitude>
    <longitude>27.4822</longitude>
  </object>
  <object>
    <country_code>LV</country_code>
    <zipcode>LV-4592</zipcode>
    <place>Ozolzīles</place>
    <state>Balvu nov.</state>
    <state_code>03</state_code>
    <province>Lazdulejas pag.</province>
    <province_code>0380266</province_code>
    <community></community>
    <community_code></community_code>
    <latitude>57.0525</latitude>
    <longitude>27.4822</longitude>
  </object>
  <object>
    <country_code>LV</country_code>
    <zipcode>LV-4592</zipcode>
    <place>Zobukalns</place>
    <state>Balvu nov.</state>
    <state_code>03</state_code>
    <province>Lazdulejas pag.</province>
    <province_code>0380266</province_code>
    <community></community>
    <community_code></community_code>
    <latitude>57.0525</latitude>
    <longitude>27.4822</longitude>
  </object>
  <object>
    <country_code>LV</country_code>
    <zipcode>LV-4592</zipcode>
    <place>Plešova</place>
    <state>Balvu nov.</state>
    <state_code>03</state_code>
    <province>Lazdulejas pag.</province>
    <province_code>0380266</province_code>
    <community></community>
    <community_code></community_code>
    <latitude>57.0304</latitude>
    <longitude>27.4752</longitude>
  </object>
  <object>
    <country_code>LV</country_code>
    <zipcode>LV-4592</zipcode>
    <place>Aizupe</place>
    <state>Balvu nov.</state>
    <state_code>03</state_code>
    <province>Lazdulejas pag.</province>
    <province_code>0380266</province_code>
    <community></community>
    <community_code></community_code>
    <latitude>57.0525</latitude>
    <longitude>27.4822</longitude>
  </object>
  <object>
    <country_code>LV</country_code>
    <zipcode>LV-4592</zipcode>
    <place>Akmeņsala</place>
    <state>Balvu nov.</state>
    <state_code>03</state_code>
    <province>Lazdulejas pag.</province>
    <province_code>0380266</province_code>
    <community></community>
    <community_code></community_code>
    <latitude>57.0525</latitude>
    <longitude>27.4822</longitude>
  </object>
  <object>
    <country_code>LV</country_code>
    <zipcode>LV-4592</zipcode>
    <place>Zaikova</place>
    <state>Balvu nov.</state>
    <state_code>03</state_code>
    <province>Lazdulejas pag.</province>
    <province_code>0380266</province_code>
    <community></community>
    <community_code></community_code>
    <latitude>57.0525</latitude>
    <longitude>27.4822</longitude>
  </object>
  <object>
    <country_code>LV</country_code>
    <zipcode>LV-4592</zipcode>
    <place>Kīļi</place>
    <state>Balvu nov.</state>
    <state_code>03</state_code>
    <province>Lazdulejas pag.</province>
    <province_code>0380266</province_code>
    <community></community>
    <community_code></community_code>
    <latitude>57.0605</latitude>
    <longitude>27.4111</longitude>
  </object>
  <object>
    <country_code>LV</country_code>
    <zipcode>LV-4592</zipcode>
    <place>Priedes</place>
    <state>Balvu nov.</state>
    <state_code>03</state_code>
    <province>Lazdulejas pag.</province>
    <province_code>0380266</province_code>
    <community></community>
    <community_code></community_code>
    <latitude>57.0525</latitude>
    <longitude>27.4822</longitude>
  </object>
  <object>
    <country_code>LV</country_code>
    <zipcode>LV-4592</zipcode>
    <place>Avikši</place>
    <state>Balvu nov.</state>
    <state_code>03</state_code>
    <province>Lazdulejas pag.</province>
    <province_code>0380266</province_code>
    <community></community>
    <community_code></community_code>
    <latitude>57.0525</latitude>
    <longitude>27.4822</longitude>
  </object>
  <object>
    <country_code>LV</country_code>
    <zipcode>LV-4592</zipcode>
    <place>Brinķene</place>
    <state>Balvu nov.</state>
    <state_code>03</state_code>
    <province>Lazdulejas pag.</province>
    <province_code>0380266</province_code>
    <community></community>
    <community_code></community_code>
    <latitude>57.0525</latitude>
    <longitude>27.4822</longitude>
  </object>
  <object>
    <country_code>LV</country_code>
    <zipcode>LV-4592</zipcode>
    <place>Zirgadobe</place>
    <state>Balvu nov.</state>
    <state_code>03</state_code>
    <province>Lazdulejas pag.</province>
    <province_code>0380266</province_code>
    <community></community>
    <community_code></community_code>
    <latitude>57.0525</latitude>
    <longitude>27.4822</longitude>
  </object>
  <object>
    <country_code>LV</country_code>
    <zipcode>LV-4592</zipcode>
    <place>Dukuļeva</place>
    <state>Balvu nov.</state>
    <state_code>03</state_code>
    <province>Lazdulejas pag.</province>
    <province_code>0380266</province_code>
    <community></community>
    <community_code></community_code>
    <latitude>57.0401</latitude>
    <longitude>27.4949</longitude>
  </object>
  <object>
    <country_code>LV</country_code>
    <zipcode>LV-4592</zipcode>
    <place>Grīva</place>
    <state>Balvu nov.</state>
    <state_code>03</state_code>
    <province>Lazdulejas pag.</province>
    <province_code>0380266</province_code>
    <community></community>
    <community_code></community_code>
    <latitude>57.065</latitude>
    <longitude>27.5135</longitude>
  </object>
  <object>
    <country_code>LV</country_code>
    <zipcode>LV-4592</zipcode>
    <place>Egļeva</place>
    <state>Balvu nov.</state>
    <state_code>03</state_code>
    <province>Lazdulejas pag.</province>
    <province_code>0380266</province_code>
    <community></community>
    <community_code></community_code>
    <latitude>57.0414</latitude>
    <longitude>27.5099</longitude>
  </object>
  <object>
    <country_code>LV</country_code>
    <zipcode>LV-4592</zipcode>
    <place>Orlova</place>
    <state>Balvu nov.</state>
    <state_code>03</state_code>
    <province>Lazdulejas pag.</province>
    <province_code>0380266</province_code>
    <community></community>
    <community_code></community_code>
    <latitude>57.0277</latitude>
    <longitude>27.4663</longitude>
  </object>
  <object>
    <country_code>LV</country_code>
    <zipcode>LV-4592</zipcode>
    <place>Burtnieki</place>
    <state>Balvu nov.</state>
    <state_code>03</state_code>
    <province>Lazdulejas pag.</province>
    <province_code>0380266</province_code>
    <community></community>
    <community_code></community_code>
    <latitude>57.0525</latitude>
    <longitude>27.4822</longitude>
  </object>
  <object>
    <country_code>LV</country_code>
    <zipcode>LV-4592</zipcode>
    <place>Egļuciems</place>
    <state>Balvu nov.</state>
    <state_code>03</state_code>
    <province>Lazdulejas pag.</province>
    <province_code>0380266</province_code>
    <community></community>
    <community_code></community_code>
    <latitude>57.0525</latitude>
    <longitude>27.4822</longitude>
  </object>
  <object>
    <country_code>LV</country_code>
    <zipcode>LV-4592</zipcode>
    <place>Petrovka</place>
    <state>Balvu nov.</state>
    <state_code>03</state_code>
    <province>Lazdulejas pag.</province>
    <province_code>0380266</province_code>
    <community></community>
    <community_code></community_code>
    <latitude>57.0304</latitude>
    <longitude>27.4752</longitude>
  </object>
  <object>
    <country_code>LV</country_code>
    <zipcode>LV-4592</zipcode>
    <place>Dmitrijevka</place>
    <state>Balvu nov.</state>
    <state_code>03</state_code>
    <province>Lazdulejas pag.</province>
    <province_code>0380266</province_code>
    <community></community>
    <community_code></community_code>
    <latitude>57.0525</latitude>
    <longitude>27.4822</longitude>
  </object>
  <object>
    <country_code>LV</country_code>
    <zipcode>LV-4592</zipcode>
    <place>Ciganova</place>
    <state>Balvu nov.</state>
    <state_code>03</state_code>
    <province>Lazdulejas pag.</province>
    <province_code>0380266</province_code>
    <community></community>
    <community_code></community_code>
    <latitude>57.0525</latitude>
    <longitude>27.4822</longitude>
  </object>
  <object>
    <country_code>LV</country_code>
    <zipcode>LV-4592</zipcode>
    <place>Stīgas</place>
    <state>Balvu nov.</state>
    <state_code>03</state_code>
    <province>Lazdulejas pag.</province>
    <province_code>0380266</province_code>
    <community></community>
    <community_code></community_code>
    <latitude>57.0525</latitude>
    <longitude>27.4822</longitude>
  </object>
  <object>
    <country_code>LV</country_code>
    <zipcode>LV-4592</zipcode>
    <place>Spičkova</place>
    <state>Balvu nov.</state>
    <state_code>03</state_code>
    <province>Lazdulejas pag.</province>
    <province_code>0380266</province_code>
    <community></community>
    <community_code></community_code>
    <latitude>57.0525</latitude>
    <longitude>27.4822</longitude>
