country_code,zipcode,place,state,state_code,province,province_code,community,community_code,latitude,longitude
BE,1000,Bruxelles,Bruxelles-Capitale,BRU,Bruxelles (19 communes),BRU,Arrondissement Brussel-Hoofdstad,21,50.8504,4.3488
BE,1020,Laeken,Bruxelles-Capitale,BRU,Bruxelles (19 communes),BRU,Arrondissement Brussel-Hoofdstad,21,50.8759,4.3484
BE,1030,Schaerbeek,Bruxelles-Capitale,BRU,Bruxelles (19 communes),BRU,Arrondissement Brussel-Hoofdstad,21,50.8694,4.3774
BE,1040,Etterbeek,Bruxelles-Capitale,BRU,Bruxelles (19 communes),BRU,Arrondissement Brussel-Hoofdstad,21,50.8327,4.3884
BE,1050,Ixelles,Bruxelles-Capitale,BRU,Bruxelles (19 communes),BRU,Arrondissement Brussel-Hoofdstad,21,50.8333,4.3667
BE,1060,Saint-Gilles,Bruxelles-Capitale,BRU,Bruxelles (19 communes),BRU,Arrondissement Brussel-Hoofdstad,21,50.8276,4.3439
BE,1070,Anderlecht,Bruxelles-Capitale,BRU,Bruxelles (19 communes),BRU,Arrondissement Brussel-Hoofdstad,21,50.8362,4.3145
BE,1080,Molenbeek-Saint-Jean,Bruxelles-Capitale,BRU,Bruxelles (19 communes),BRU,Arrondissement Brussel-Hoofdstad,21,50.8499,4.3125
BE,1081,Koekelberg,Bruxelles-Capitale,BRU,Bruxelles (19 communes),BRU,Arrondissement Brussel-Hoofdstad,21,50.8612,4.3314
BE,1082,Berchem-Sainte-Agathe,Bruxelles-Capitale,BRU,Bruxelles (19 communes),BRU,Arrondissement Brussel-Hoofdstad,21,50.8657,4.2956
BE,1083,Ganshoren,Bruxelles-Capitale,BRU,Bruxelles (19 communes),BRU,Arrondissement Brussel-Hoofdstad,21,50.8707,4.3153
BE,1090,Jette,Bruxelles-Capitale,BRU,Bruxelles (19 communes),BRU,Arrondissement Brussel-Hoofdstad,21,50.8731,4.3342
BE,1120,Neder-Over-Heembeek,Bruxelles-Capitale,BRU,Bruxelles (19 communes),BRU,Arrondissement Brussel-Hoofdstad,21,50.9057,4.3922
BE,1130,Haren,Bruxelles-Capitale,BRU,Bruxelles (19 communes),BRU,Arrondissement Brussel-Hoofdstad,21,50.8956,4.417
BE,1140,Evere,Bruxelles-Capitale,BRU,Bruxelles (19 communes),BRU,Arrondissement Brussel-Hoofdstad,21,50.8744,4.399
BE,1150,Woluwe-Saint-Pierre,Bruxelles-Capitale,BRU,Bruxelles (19 communes),BRU,Arrondissement Brussel-Hoofdstad,21,50.8551,4.3707
BE,1160,Auderghem,Bruxelles-Capitale,BRU,Bruxelles (19 communes),BRU,Arrondissement Brussel-Hoofdstad,21,50.8167,4.4333
BE,1170,Watermael-Boitsfort,Bruxelles-Capitale,BRU,Bruxelles (19 communes),BRU,Arrondissement Brussel-Hoofdstad,21,50.8015,4.4144
BE,1180,Uccle,Bruxelles-Capitale,BRU,Bruxelles (19 communes),BRU,Arrondissement Brussel-Hoofdstad,21,50.8022,4.3394
BE,1190,Forest,Bruxelles-Capitale,BRU,Bruxelles (19 communes),BRU,Arrondissement Brussel-Hoofdstad,21,50.8168,4.3278
BE,1200,Woluwe-Saint-Lambert,Bruxelles-Capitale,BRU,Bruxelles (19 communes),BRU,Arrondissement Brussel-Hoofdstad,21,50.8439,4.4291
BE,1210,Saint-Josse-Ten-Noode,Bruxelles-Capitale,BRU,Bruxelles (19 communes),BRU,Arrondissement Brussel-Hoofdstad,21,50.8538,4.3728
BE,2000,Antwerpen,Vlaanderen,VLG,Anvers,VAN,Antwerpen,11,51.2199,4.4035
BE,2018,Antwerpen,Vlaanderen,VLG,Anvers,VAN,Antwerpen,11,51.2199,4.4035
BE,2020,Antwerpen,Vlaanderen,VLG,Anvers,VAN,Antwerpen,11,51.2199,4.4035
BE,2030,Antwerpen,Vlaanderen,VLG,Anvers,VAN,Antwerpen,11,51.2199,4.4035
BE,2040,Zandvliet,Vlaanderen,VLG,Anvers,VAN,Antwerpen,11,51.3593,4.31
BE,2040,Antwerpen,Vlaanderen,VLG,Anvers,VAN,Antwerpen,11,51.2199,4.4035
BE,2040,Lillo,Vlaanderen,VLG,Anvers,VAN,Antwerpen,11,51.2807,4.506
BE,2040,Berendrecht,Vlaanderen,VLG,Anvers,VAN,Antwerpen,11,51.3425,4.3142
BE,2050,Antwerpen,Vlaanderen,VLG,Anvers,VAN,Antwerpen,11,51.2199,4.4035
BE,2060,Antwerpen,Vlaanderen,VLG,Anvers,VAN,Antwerpen,11,51.2199,4.4035
BE,2070,Burcht,Vlaanderen,VLG,Anvers,VAN,Antwerpen,11,51.2039,4.3429
BE,2070,Zwijndrecht,Vlaanderen,VLG,Anvers,VAN,Antwerpen,11,51.2198,4.3266
BE,2100,Deurne,Vlaanderen,VLG,Anvers,VAN,Antwerpen,11,51.2213,4.4659
BE,2110,Wijnegem,Vlaanderen,VLG,Anvers,VAN,Antwerpen,11,51.2279,4.5189
BE,2140,Borgerhout,Vlaanderen,VLG,Anvers,VAN,Antwerpen,11,51.2096,4.4354
BE,2150,Borsbeek,Vlaanderen,VLG,Anvers,VAN,Antwerpen,11,51.1966,4.4854
BE,2160,Wommelgem,Vlaanderen,VLG,Anvers,VAN,Antwerpen,11,51.2045,4.5225
BE,2170,Merksem,Vlaanderen,VLG,Anvers,VAN,Antwerpen,11,51.2462,4.449
BE,2180,Ekeren,Vlaanderen,VLG,Anvers,VAN,Antwerpen,11,51.2809,4.4181
BE,2200,Herentals,Vlaanderen,VLG,Anvers,VAN,Turnhout,13,51.1766,4.8325
BE,2200,Noorderwijk,Vlaanderen,VLG,Anvers,VAN,Turnhout,13,51.1412,4.8406
BE,2200,Morkhoven,Vlaanderen,VLG,Anvers,VAN,Turnhout,13,51.1189,4.8188
BE,2220,Hallaar,Vlaanderen,VLG,Anvers,VAN,Mechelen,12,51.0842,4.7292
BE,2220,Heist-Op-Den-Berg,Vlaanderen,VLG,Anvers,VAN,Mechelen,12,51.0754,4.7283
BE,2221,Booischot,Vlaanderen,VLG,Anvers,VAN,Mechelen,12,51.0522,4.7751
BE,2222,Itegem,Vlaanderen,VLG,Anvers,VAN,Mechelen,12,51.1033,4.7286
BE,2222,Wiekevorst,Vlaanderen,VLG,Anvers,VAN,Mechelen,12,51.108,4.7924
BE,2223,Schriek,Vlaanderen,VLG,Anvers,VAN,Mechelen,12,51.0284,4.6936
BE,2230,Herselt,Vlaanderen,VLG,Anvers,VAN,Turnhout,13,51.0516,4.8823
BE,2230,Ramsel,Vlaanderen,VLG,Anvers,VAN,Turnhout,13,51.0324,4.8324
BE,2235,Westmeerbeek,Vlaanderen,VLG,Anvers,VAN,Turnhout,13,51.0613,4.8383
BE,2235,Hulshout,Vlaanderen,VLG,Anvers,VAN,Turnhout,13,51.0745,4.7908
BE,2235,Houtvenne,Vlaanderen,VLG,Anvers,VAN,Turnhout,13,51.0418,4.8086
BE,2240,Massenhoven,Vlaanderen,VLG,Anvers,VAN,Antwerpen,11,51.2002,4.6357
BE,2240,Zandhoven,Vlaanderen,VLG,Anvers,VAN,Antwerpen,11,51.2149,4.6616
BE,2240,Viersel,Vlaanderen,VLG,Anvers,VAN,Antwerpen,11,51.1877,4.6492
BE,2242,Pulderbos,Vlaanderen,VLG,Anvers,VAN,Antwerpen,11,51.2171,4.6936
BE,2243,Pulle,Vlaanderen,VLG,Anvers,VAN,Antwerpen,11,51.2032,4.7143
BE,2250,Olen,Vlaanderen,VLG,Anvers,VAN,Turnhout,13,51.1439,4.8598
BE,2260,Westerlo,Vlaanderen,VLG,Anvers,VAN,Turnhout,13,51.0905,4.9154
BE,2260,Zoerle-Parwijs,Vlaanderen,VLG,Anvers,VAN,Turnhout,13,51.0897,4.8711
BE,2260,Tongerlo,Vlaanderen,VLG,Anvers,VAN,Turnhout,13,51.1062,4.9164
BE,2260,Oevel,Vlaanderen,VLG,Anvers,VAN,Turnhout,13,51.1379,4.9047
BE,2270,Herenthout,Vlaanderen,VLG,Anvers,VAN,Turnhout,13,51.1401,4.7557
BE,2275,Wechelderzande,Vlaanderen,VLG,Anvers,VAN,Turnhout,13,51.263,4.7865
BE,2275,Lille,Vlaanderen,VLG,Anvers,VAN,Turnhout,13,51.242,4.8231
BE,2275,Gierle,Vlaanderen,VLG,Anvers,VAN,Turnhout,13,51.2685,4.8673
BE,2275,Poederlee,Vlaanderen,VLG,Anvers,VAN,Turnhout,13,51.2277,4.8403
BE,2280,Grobbendonk,Vlaanderen,VLG,Anvers,VAN,Turnhout,13,51.1904,4.7356
BE,2288,Bouwel,Vlaanderen,VLG,Anvers,VAN,Turnhout,13,51.1729,4.7418
BE,2290,Vorselaar,Vlaanderen,VLG,Anvers,VAN,Turnhout,13,51.2024,4.7726
BE,2300,Turnhout,Vlaanderen,VLG,Anvers,VAN,Turnhout,13,51.3225,4.9447
BE,2310,Rijkevorsel,Vlaanderen,VLG,Anvers,VAN,Turnhout,13,51.348,4.7605
BE,2320,Hoogstraten,Vlaanderen,VLG,Anvers,VAN,Turnhout,13,51.4003,4.7603
BE,2321,Meer,Vlaanderen,VLG,Anvers,VAN,Turnhout,13,51.422,4.7803
BE,2322,Minderhout,Vlaanderen,VLG,Anvers,VAN,Turnhout,13,51.4171,4.7629
BE,2323,Wortel,Vlaanderen,VLG,Anvers,VAN,Turnhout,13,51.3983,4.7946
BE,2328,Meerle,Vlaanderen,VLG,Anvers,VAN,Turnhout,13,51.4723,4.8032
BE,2330,Merksplas,Vlaanderen,VLG,Anvers,VAN,Turnhout,13,51.3585,4.8651
BE,2340,Vlimmeren,Vlaanderen,VLG,Anvers,VAN,Turnhout,13,51.2952,4.7813
BE,2340,Beerse,Vlaanderen,VLG,Anvers,VAN,Turnhout,13,51.3193,4.853
BE,2350,Vosselaar,Vlaanderen,VLG,Anvers,VAN,Turnhout,13,51.3086,4.8896
BE,2360,Oud-Turnhout,Vlaanderen,VLG,Anvers,VAN,Turnhout,13,51.3198,4.9841
BE,2370,Arendonk,Vlaanderen,VLG,Anvers,VAN,Turnhout,13,51.3227,5.0829
BE,2380,Ravels,Vlaanderen,VLG,Anvers,VAN,Turnhout,13,51.3727,4.9921
BE,2381,Weelde,Vlaanderen,VLG,Anvers,VAN,Turnhout,13,51.4078,4.9925
BE,2382,Poppel,Vlaanderen,VLG,Anvers,VAN,Turnhout,13,51.4457,5.0433
BE,2387,Baarle-Hertog,Vlaanderen,VLG,Anvers,VAN,Turnhout,13,51.405,4.8923
BE,2390,Westmalle,Vlaanderen,VLG,Anvers,VAN,Antwerpen,11,51.2977,4.6901
BE,2390,Oostmalle,Vlaanderen,VLG,Anvers,VAN,Antwerpen,11,51.3,4.7333
BE,2390,Malle,Vlaanderen,VLG,Anvers,VAN,Antwerpen,11,51.2992,4.7109
BE,2400,Mol,Vlaanderen,VLG,Anvers,VAN,Turnhout,13,51.1919,5.1166
BE,2430,Vorst,Vlaanderen,VLG,Anvers,VAN,Turnhout,13,51.0803,5.02
BE,2430,Laakdal,Vlaanderen,VLG,Anvers,VAN,Turnhout,13,51.0807,5.0056
BE,2430,Eindhout,Vlaanderen,VLG,Anvers,VAN,Turnhout,13,51.1038,4.9999
BE,2431,Varendonk,Vlaanderen,VLG,Anvers,VAN,Turnhout,13,51.0841,4.9514
BE,2431,Veerle,Vlaanderen,VLG,Anvers,VAN,Turnhout,13,51.0699,4.9876
BE,2440,Geel,Vlaanderen,VLG,Anvers,VAN,Turnhout,13,51.1656,4.9892
BE,2450,Meerhout,Vlaanderen,VLG,Anvers,VAN,Turnhout,13,51.1321,5.0784
BE,2460,Tielen,Vlaanderen,VLG,Anvers,VAN,Turnhout,13,51.243,4.8996
BE,2460,Lichtaart,Vlaanderen,VLG,Anvers,VAN,Turnhout,13,51.2249,4.9168
BE,2460,Kasterlee,Vlaanderen,VLG,Anvers,VAN,Turnhout,13,51.2412,4.9665
BE,2470,Retie,Vlaanderen,VLG,Anvers,VAN,Turnhout,13,51.2665,5.0824
BE,2480,Dessel,Vlaanderen,VLG,Anvers,VAN,Turnhout,13,51.2385,5.1145
BE,2490,Balen,Vlaanderen,VLG,Anvers,VAN,Turnhout,13,51.1684,5.1703
BE,2491,Olmen,Vlaanderen,VLG,Anvers,VAN,Turnhout,13,51.1423,5.15
BE,2500,Koningshooikt,Vlaanderen,VLG,Anvers,VAN,Mechelen,12,51.0961,4.6099
BE,2500,Lier,Vlaanderen,VLG,Anvers,VAN,Mechelen,12,51.1313,4.5704
BE,2520,Broechem,Vlaanderen,VLG,Anvers,VAN,Antwerpen,11,51.1813,4.6018
BE,2520,Emblem,Vlaanderen,VLG,Anvers,VAN,Antwerpen,11,51.1624,4.6049
BE,2520,Oelegem,Vlaanderen,VLG,Anvers,VAN,Antwerpen,11,51.2131,4.5983
BE,2520,Ranst,Vlaanderen,VLG,Anvers,VAN,Antwerpen,11,51.1898,4.5653
BE,2530,Boechout,Vlaanderen,VLG,Anvers,VAN,Antwerpen,11,51.1596,4.4919
BE,2531,Vremde,Vlaanderen,VLG,Anvers,VAN,Antwerpen,11,51.1753,4.5232
BE,2540,Hove,Vlaanderen,VLG,Anvers,VAN,Antwerpen,11,51.1545,4.4707
BE,2547,Lint,Vlaanderen,VLG,Anvers,VAN,Antwerpen,11,51.1271,4.4967
BE,2550,Waarloos,Vlaanderen,VLG,Anvers,VAN,Antwerpen,11,51.106,4.4548
BE,2550,Kontich,Vlaanderen,VLG,Anvers,VAN,Antwerpen,11,51.1321,4.4471
BE,2560,Kessel,Vlaanderen,VLG,Anvers,VAN,Mechelen,12,51.1389,4.6296
BE,2560,Bevel,Vlaanderen,VLG,Anvers,VAN,Mechelen,12,51.1378,4.6803
BE,2560,Nijlen,Vlaanderen,VLG,Anvers,VAN,Mechelen,12,51.161,4.6701
BE,2570,Duffel,Vlaanderen,VLG,Anvers,VAN,Mechelen,12,51.0955,4.509
BE,2580,Putte,Vlaanderen,VLG,Anvers,VAN,Mechelen,12,51.0534,4.6326
BE,2580,Beerzel,Vlaanderen,VLG,Anvers,VAN,Mechelen,12,51.0575,4.6713
BE,2590,Gestel,Vlaanderen,VLG,Anvers,VAN,Mechelen,12,51.1287,4.673
BE,2590,Berlaar,Vlaanderen,VLG,Anvers,VAN,Mechelen,12,51.1176,4.6584
BE,2600,Berchem,Vlaanderen,VLG,Anvers,VAN,Antwerpen,11,51.1902,4.4326
BE,2610,Wilrijk,Vlaanderen,VLG,Anvers,VAN,Antwerpen,11,51.1673,4.3951
BE,2620,Hemiksem,Vlaanderen,VLG,Anvers,VAN,Antwerpen,11,51.1448,4.3387
BE,2627,Schelle,Vlaanderen,VLG,Anvers,VAN,Antwerpen,11,51.1262,4.3411
BE,2630,Aartselaar,Vlaanderen,VLG,Anvers,VAN,Antwerpen,11,51.1341,4.3868
BE,2640,Mortsel,Vlaanderen,VLG,Anvers,VAN,Antwerpen,11,51.167,4.4513
BE,2650,Edegem,Vlaanderen,VLG,Anvers,VAN,Antwerpen,11,51.1566,4.445
BE,2660,Hoboken,Vlaanderen,VLG,Anvers,VAN,Antwerpen,11,51.1761,4.3484
BE,2800,Mechelen,Vlaanderen,VLG,Anvers,VAN,Mechelen,12,51.0257,4.4776
BE,2800,Walem,Vlaanderen,VLG,Anvers,VAN,Mechelen,12,51.0671,4.4584
BE,2801,Heffen,Vlaanderen,VLG,Anvers,VAN,Mechelen,12,51.0472,4.416
BE,2811,Leest,Vlaanderen,VLG,Anvers,VAN,Mechelen,12,51.0332,4.4153
BE,2811,Hombeek,Vlaanderen,VLG,Anvers,VAN,Mechelen,12,51.0175,4.4389
BE,2812,Muizen,Vlaanderen,VLG,Anvers,VAN,Mechelen,12,51.0111,4.5143
BE,2820,Bonheiden,Vlaanderen,VLG,Anvers,VAN,Mechelen,12,51.0226,4.5471
BE,2820,Rijmenam,Vlaanderen,VLG,Anvers,VAN,Mechelen,12,51.0016,4.584
BE,2830,Willebroek,Vlaanderen,VLG,Anvers,VAN,Mechelen,12,51.0604,4.3602
BE,2830,Heindonk,Vlaanderen,VLG,Anvers,VAN,Mechelen,12,51.067,4.4081
BE,2830,Tisselt,Vlaanderen,VLG,Anvers,VAN,Mechelen,12,51.034,4.3595
BE,2830,Blaasveld,Vlaanderen,VLG,Anvers,VAN,Mechelen,12,51.0559,4.3767
BE,2840,Rumst,Vlaanderen,VLG,Anvers,VAN,Antwerpen,11,51.0815,4.4222
BE,2840,Reet,Vlaanderen,VLG,Anvers,VAN,Antwerpen,11,51.102,4.4126
BE,2840,Terhagen,Vlaanderen,VLG,Anvers,VAN,Antwerpen,11,51.0797,4.3991
BE,2845,Niel,Vlaanderen,VLG,Anvers,VAN,Antwerpen,11,51.111,4.3343
BE,2850,Boom,Vlaanderen,VLG,Anvers,VAN,Antwerpen,11,51.0924,4.3717
BE,2860,Sint-Katelijne-Waver,Vlaanderen,VLG,Anvers,VAN,Mechelen,12,51.0669,4.5347
BE,2861,Onze-Lieve-Vrouw-Waver,Vlaanderen,VLG,Anvers,VAN,Mechelen,12,51.0627,4.5794
BE,2870,Liezele,Vlaanderen,VLG,Anvers,VAN,Mechelen,12,51.06,4.2804
BE,2870,Puurs-Sint-Amands,Vlaanderen,VLG,Anvers,VAN,Mechelen,12,51.0663,4.3059
BE,2870,Puurs,Vlaanderen,VLG,Anvers,VAN,Mechelen,12,51.0741,4.2884
BE,2870,Ruisbroek,Vlaanderen,VLG,Anvers,VAN,Mechelen,12,51.0883,4.3313
BE,2870,Breendonk,Vlaanderen,VLG,Anvers,VAN,Mechelen,12,51.043,4.3236
BE,2880,Mariekerke,Vlaanderen,VLG,Anvers,VAN,Mechelen,12,51.065,4.1925
BE,2880,Weert,Vlaanderen,VLG,Anvers,VAN,Mechelen,12,51.1032,4.1908
BE,2880,Bornem,Vlaanderen,VLG,Anvers,VAN,Mechelen,12,51.0972,4.2436
BE,2880,Hingene,Vlaanderen,VLG,Anvers,VAN,Mechelen,12,51.1035,4.269
BE,2890,Lippelo,Vlaanderen,VLG,Anvers,VAN,Mechelen,12,51.0426,4.259
BE,2890,Sint-Amands,Vlaanderen,VLG,Anvers,VAN,Mechelen,12,51.0564,4.2096
BE,2890,Oppuurs,Vlaanderen,VLG,Anvers,VAN,Mechelen,12,51.0663,4.2422
BE,2900,Schoten,Vlaanderen,VLG,Anvers,VAN,Antwerpen,11,51.2525,4.5027
BE,2910,Essen,Vlaanderen,VLG,Anvers,VAN,Antwerpen,11,51.4679,4.469
BE,2920,Kalmthout,Vlaanderen,VLG,Anvers,VAN,Antwerpen,11,51.3844,4.4756
BE,2930,Brasschaat,Vlaanderen,VLG,Anvers,VAN,Antwerpen,11,51.2912,4.4918
BE,2940,Stabroek,Vlaanderen,VLG,Anvers,VAN,Antwerpen,11,51.3319,4.3713
BE,2940,Hoevenen,Vlaanderen,VLG,Anvers,VAN,Antwerpen,11,51.306,4.402
BE,2950,Kapellen,Vlaanderen,VLG,Anvers,VAN,Antwerpen,11,51.3138,4.4354
BE,2960,Brecht,Vlaanderen,VLG,Anvers,VAN,Antwerpen,11,51.3502,4.6383
BE,2960,Sint-Lenaarts,Vlaanderen,VLG,Anvers,VAN,Antwerpen,11,51.3487,4.6801
BE,2960,Sint-Job-In-'T-Goor,Vlaanderen,VLG,Anvers,VAN,Antwerpen,11,51.2991,4.5729
BE,2970,'S Gravenwezel,Vlaanderen,VLG,Anvers,VAN,Antwerpen,11,51.2627,4.5611
BE,2970,Schilde,Vlaanderen,VLG,Anvers,VAN,Antwerpen,11,51.2411,4.5834
BE,2980,Halle,Vlaanderen,VLG,Anvers,VAN,Antwerpen,11,51.2407,4.6433
BE,2980,Zoersel,Vlaanderen,VLG,Anvers,VAN,Antwerpen,11,51.2683,4.713
BE,2990,Wuustwezel,Vlaanderen,VLG,Anvers,VAN,Antwerpen,11,51.3921,4.5955
BE,2990,Loenhout,Vlaanderen,VLG,Anvers,VAN,Antwerpen,11,51.3995,4.644
BE,1500,Halle,Vlaanderen,VLG,Brabant Flamand,VBR,Halle-Vilvoorde,23,50.7338,4.2345
BE,1501,Buizingen,Vlaanderen,VLG,Brabant Flamand,VBR,Halle-Vilvoorde,23,50.7354,4.2477
BE,1502,Lembeek,Vlaanderen,VLG,Brabant Flamand,VBR,Halle-Vilvoorde,23,50.7157,4.2183
BE,1540,Herfelingen,Vlaanderen,VLG,Brabant Flamand,VBR,Halle-Vilvoorde,23,50.7482,4.0975
BE,1540,Herne,Vlaanderen,VLG,Brabant Flamand,VBR,Halle-Vilvoorde,23,50.7242,4.0348
BE,1541,Sint-Pieters-Kapelle,Vlaanderen,VLG,Brabant Flamand,VBR,Halle-Vilvoorde,23,50.7076,3.99
BE,1547,Biévène,Vlaanderen,VLG,Brabant Flamand,VBR,Halle-Vilvoorde,23,50.7164,3.9412
BE,1560,Hoeilaart,Vlaanderen,VLG,Brabant Flamand,VBR,Halle-Vilvoorde,23,50.7673,4.4683
BE,1570,Vollezele,Vlaanderen,VLG,Brabant Flamand,VBR,Halle-Vilvoorde,23,50.7612,4.0243
BE,1570,Galmaarden,Vlaanderen,VLG,Brabant Flamand,VBR,Halle-Vilvoorde,23,50.7539,3.9712
BE,1570,Tollembeek,Vlaanderen,VLG,Brabant Flamand,VBR,Halle-Vilvoorde,23,50.741,4.0067
BE,1600,Oudenaken,Vlaanderen,VLG,Brabant Flamand,VBR,Halle-Vilvoorde,23,50.7798,4.1978
BE,1600,Sint-Pieters-Leeuw,Vlaanderen,VLG,Brabant Flamand,VBR,Halle-Vilvoorde,23,50.7793,4.2435
BE,1600,Sint-Laureins-Berchem,Vlaanderen,VLG,Brabant Flamand,VBR,Halle-Vilvoorde,23,50.7872,4.2001
BE,1601,Ruisbroek,Vlaanderen,VLG,Brabant Flamand,VBR,Halle-Vilvoorde,23,50.7901,4.2977
BE,1602,Vlezenbeek,Vlaanderen,VLG,Brabant Flamand,VBR,Halle-Vilvoorde,23,50.8078,4.232
BE,1620,Drogenbos,Vlaanderen,VLG,Brabant Flamand,VBR,Halle-Vilvoorde,23,50.7873,4.3147
BE,1630,Linkebeek,Vlaanderen,VLG,Brabant Flamand,VBR,Halle-Vilvoorde,23,50.7678,4.3369
BE,1640,Rhode-Saint-Genèse,Vlaanderen,VLG,Brabant Flamand,VBR,Halle-Vilvoorde,23,50.7464,4.3575
BE,1650,Beersel,Vlaanderen,VLG,Brabant Flamand,VBR,Halle-Vilvoorde,23,50.7659,4.3002
BE,1651,Lot,Vlaanderen,VLG,Brabant Flamand,VBR,Halle-Vilvoorde,23,50.7679,4.2771
BE,1652,Alsemberg,Vlaanderen,VLG,Brabant Flamand,VBR,Halle-Vilvoorde,23,50.7413,4.3375
BE,1653,Dworp,Vlaanderen,VLG,Brabant Flamand,VBR,Halle-Vilvoorde,23,50.7298,4.3011
BE,1654,Huizingen,Vlaanderen,VLG,Brabant Flamand,VBR,Halle-Vilvoorde,23,50.7465,4.2738
BE,1670,Pepingen,Vlaanderen,VLG,Brabant Flamand,VBR,Halle-Vilvoorde,23,50.7592,4.1598
BE,1670,Bogaarden,Vlaanderen,VLG,Brabant Flamand,VBR,Halle-Vilvoorde,23,50.7399,4.1359
BE,1670,Heikruis,Vlaanderen,VLG,Brabant Flamand,VBR,Halle-Vilvoorde,23,50.7351,4.1116
BE,1671,Elingen,Vlaanderen,VLG,Brabant Flamand,VBR,Halle-Vilvoorde,23,50.7789,4.1709
BE,1673,Beert,Vlaanderen,VLG,Brabant Flamand,VBR,Halle-Vilvoorde,23,50.741,4.181
BE,1674,Bellingen,Vlaanderen,VLG,Brabant Flamand,VBR,Halle-Vilvoorde,23,50.7409,4.1537
BE,1700,Sint-Martens-Bodegem,Vlaanderen,VLG,Brabant Flamand,VBR,Halle-Vilvoorde,23,50.8618,4.2132
BE,1700,Sint-Ulriks-Kapelle,Vlaanderen,VLG,Brabant Flamand,VBR,Halle-Vilvoorde,23,50.879,4.2188
BE,1700,Dilbeek,Vlaanderen,VLG,Brabant Flamand,VBR,Halle-Vilvoorde,23,50.848,4.2597
BE,1701,Itterbeek,Vlaanderen,VLG,Brabant Flamand,VBR,Halle-Vilvoorde,23,50.838,4.2495
BE,1702,Groot-Bijgaarden,Vlaanderen,VLG,Brabant Flamand,VBR,Halle-Vilvoorde,23,50.8717,4.2497
BE,1703,Schepdaal,Vlaanderen,VLG,Brabant Flamand,VBR,Halle-Vilvoorde,23,50.8384,4.1961
BE,1730,Asse,Vlaanderen,VLG,Brabant Flamand,VBR,Halle-Vilvoorde,23,50.9101,4.1984
BE,1730,Kobbegem,Vlaanderen,VLG,Brabant Flamand,VBR,Halle-Vilvoorde,23,50.9082,4.2525
BE,1730,Bekkerzeel,Vlaanderen,VLG,Brabant Flamand,VBR,Halle-Vilvoorde,23,50.8854,4.2378
BE,1730,Mollem,Vlaanderen,VLG,Brabant Flamand,VBR,Halle-Vilvoorde,23,50.9312,4.2263
BE,1731,Relegem,Vlaanderen,VLG,Brabant Flamand,VBR,Halle-Vilvoorde,23,50.8991,4.2769
BE,1731,Zellik,Vlaanderen,VLG,Brabant Flamand,VBR,Halle-Vilvoorde,23,50.8841,4.2733
BE,1740,Ternat,Vlaanderen,VLG,Brabant Flamand,VBR,Halle-Vilvoorde,23,50.8665,4.1668
BE,1741,Wambeek,Vlaanderen,VLG,Brabant Flamand,VBR,Halle-Vilvoorde,23,50.8528,4.1617
BE,1742,Sint-Katherina-Lombeek,Vlaanderen,VLG,Brabant Flamand,VBR,Halle-Vilvoorde,23,50.8731,4.1536
BE,1745,Mazenzele,Vlaanderen,VLG,Brabant Flamand,VBR,Halle-Vilvoorde,23,50.9425,4.1722
BE,1745,Opwijk,Vlaanderen,VLG,Brabant Flamand,VBR,Halle-Vilvoorde,23,50.9672,4.1844
BE,1750,Lennik,Vlaanderen,VLG,Brabant Flamand,VBR,Halle-Vilvoorde,23,50.809,4.1622
BE,1750,Sint-Kwintens-Lennik,Vlaanderen,VLG,Brabant Flamand,VBR,Halle-Vilvoorde,23,50.8038,4.1549
BE,1750,Gaasbeek,Vlaanderen,VLG,Brabant Flamand,VBR,Halle-Vilvoorde,23,50.7995,4.1893
BE,1750,Sint-Martens-Lennik,Vlaanderen,VLG,Brabant Flamand,VBR,Halle-Vilvoorde,23,50.8116,4.1697
BE,1755,Gooik,Vlaanderen,VLG,Brabant Flamand,VBR,Halle-Vilvoorde,23,50.7944,4.1138
BE,1755,Kester,Vlaanderen,VLG,Brabant Flamand,VBR,Halle-Vilvoorde,23,50.764,4.1206
BE,1755,Oetingen,Vlaanderen,VLG,Brabant Flamand,VBR,Halle-Vilvoorde,23,50.7732,4.0635
BE,1755,Leerbeek,Vlaanderen,VLG,Brabant Flamand,VBR,Halle-Vilvoorde,23,50.7779,4.1194
BE,1760,Roosdaal,Vlaanderen,VLG,Brabant Flamand,VBR,Halle-Vilvoorde,23,50.8333,4.0833
BE,1760,Onze-Lieve-Vrouw-Lombeek,Vlaanderen,VLG,Brabant Flamand,VBR,Halle-Vilvoorde,23,50.82,4.1103
BE,1760,Strijtem,Vlaanderen,VLG,Brabant Flamand,VBR,Halle-Vilvoorde,23,50.8416,4.117
BE,1760,Pamel,Vlaanderen,VLG,Brabant Flamand,VBR,Halle-Vilvoorde,23,50.8453,4.0713
BE,1761,Borchtlombeek,Vlaanderen,VLG,Brabant Flamand,VBR,Halle-Vilvoorde,23,50.8479,4.1388
BE,1770,Liedekerke,Vlaanderen,VLG,Brabant Flamand,VBR,Halle-Vilvoorde,23,50.8689,4.0874
BE,1780,Wemmel,Vlaanderen,VLG,Brabant Flamand,VBR,Halle-Vilvoorde,23,50.9081,4.3061
BE,1785,Merchtem,Vlaanderen,VLG,Brabant Flamand,VBR,Halle-Vilvoorde,23,50.9513,4.232
BE,1785,Brussegem,Vlaanderen,VLG,Brabant Flamand,VBR,Halle-Vilvoorde,23,50.9256,4.2668
BE,1785,Hamme,Vlaanderen,VLG,Brabant Flamand,VBR,Halle-Vilvoorde,23,50.9209,4.283
BE,1790,Essene,Vlaanderen,VLG,Brabant Flamand,VBR,Halle-Vilvoorde,23,50.9016,4.1374
BE,1790,Teralfene,Vlaanderen,VLG,Brabant Flamand,VBR,Halle-Vilvoorde,23,50.8919,4.099
BE,1790,Affligem,Vlaanderen,VLG,Brabant Flamand,VBR,Halle-Vilvoorde,23,50.9094,4.1116
BE,1790,Hekelgem,Vlaanderen,VLG,Brabant Flamand,VBR,Halle-Vilvoorde,23,50.9057,4.1077
BE,1800,Vilvoorde,Vlaanderen,VLG,Brabant Flamand,VBR,Halle-Vilvoorde,23,50.9281,4.4294
BE,1800,Peutie,Vlaanderen,VLG,Brabant Flamand,VBR,Halle-Vilvoorde,23,50.93,4.4519
BE,1820,Steenokkerzeel,Vlaanderen,VLG,Brabant Flamand,VBR,Halle-Vilvoorde,23,50.9185,4.5099
BE,1820,Melsbroek,Vlaanderen,VLG,Brabant Flamand,VBR,Halle-Vilvoorde,23,50.9156,4.4798
BE,1820,Perk,Vlaanderen,VLG,Brabant Flamand,VBR,Halle-Vilvoorde,23,50.9357,4.4962
BE,1830,Machelen,Vlaanderen,VLG,Brabant Flamand,VBR,Halle-Vilvoorde,23,50.9106,4.4417
BE,1831,Diegem,Vlaanderen,VLG,Brabant Flamand,VBR,Halle-Vilvoorde,23,50.8973,4.4335
BE,1840,Londerzeel,Vlaanderen,VLG,Brabant Flamand,VBR,Halle-Vilvoorde,23,51.0047,4.303
BE,1840,Malderen,Vlaanderen,VLG,Brabant Flamand,VBR,Halle-Vilvoorde,23,51.0208,4.2464
BE,1840,Steenhuffel,Vlaanderen,VLG,Brabant Flamand,VBR,Halle-Vilvoorde,23,50.9954,4.2679
BE,1850,Grimbergen,Vlaanderen,VLG,Brabant Flamand,VBR,Halle-Vilvoorde,23,50.9341,4.3721
BE,1851,Humbeek,Vlaanderen,VLG,Brabant Flamand,VBR,Halle-Vilvoorde,23,50.968,4.3796
BE,1852,Beigem,Vlaanderen,VLG,Brabant Flamand,VBR,Halle-Vilvoorde,23,50.9491,4.3691
BE,1853,Strombeek-Bever,Vlaanderen,VLG,Brabant Flamand,VBR,Halle-Vilvoorde,23,50.9104,4.3558
BE,1860,Meise,Vlaanderen,VLG,Brabant Flamand,VBR,Halle-Vilvoorde,23,50.9393,4.3266
BE,1861,Wolvertem,Vlaanderen,VLG,Brabant Flamand,VBR,Halle-Vilvoorde,23,50.9517,4.3096
BE,1880,Ramsdonk,Vlaanderen,VLG,Brabant Flamand,VBR,Halle-Vilvoorde,23,51.015,4.3352
BE,1880,Nieuwenrode,Vlaanderen,VLG,Brabant Flamand,VBR,Halle-Vilvoorde,23,50.9796,4.3528
BE,1880,Kapelle-Op-Den-Bos,Vlaanderen,VLG,Brabant Flamand,VBR,Halle-Vilvoorde,23,51.0097,4.363
BE,1910,Berg,Vlaanderen,VLG,Brabant Flamand,VBR,Halle-Vilvoorde,23,51.0079,4.3198
BE,1910,Nederokkerzeel,Vlaanderen,VLG,Brabant Flamand,VBR,Halle-Vilvoorde,23,50.9194,4.5639
BE,1910,Buken,Vlaanderen,VLG,Brabant Flamand,VBR,Halle-Vilvoorde,23,50.9397,4.6169
BE,1910,Kampenhout,Vlaanderen,VLG,Brabant Flamand,VBR,Halle-Vilvoorde,23,50.9421,4.551
BE,1930,Nossegem,Vlaanderen,VLG,Brabant Flamand,VBR,Halle-Vilvoorde,23,50.8818,4.5082
BE,1930,Zaventem,Vlaanderen,VLG,Brabant Flamand,VBR,Halle-Vilvoorde,23,50.8837,4.473
BE,1932,Sint-Stevens-Woluwe,Vlaanderen,VLG,Brabant Flamand,VBR,Halle-Vilvoorde,23,50.8684,4.452
BE,1933,Sterrebeek,Vlaanderen,VLG,Brabant Flamand,VBR,Halle-Vilvoorde,23,50.8617,4.4938
BE,1950,Kraainem,Vlaanderen,VLG,Brabant Flamand,VBR,Halle-Vilvoorde,23,50.8616,4.4695
BE,1970,Wezembeek-Oppem,Vlaanderen,VLG,Brabant Flamand,VBR,Halle-Vilvoorde,23,50.8395,4.4943
BE,1980,Eppegem,Vlaanderen,VLG,Brabant Flamand,VBR,Halle-Vilvoorde,23,50.9624,4.4551
BE,1980,Zemst,Vlaanderen,VLG,Brabant Flamand,VBR,Halle-Vilvoorde,23,50.9832,4.4608
BE,1981,Hofstade,Vlaanderen,VLG,Brabant Flamand,VBR,Halle-Vilvoorde,23,50.9913,4.4923
BE,1982,Weerde,Vlaanderen,VLG,Brabant Flamand,VBR,Halle-Vilvoorde,23,50.9735,4.4749
BE,1982,Elewijt,Vlaanderen,VLG,Brabant Flamand,VBR,Halle-Vilvoorde,23,50.9604,4.4968
BE,3000,Leuven,Vlaanderen,VLG,Brabant Flamand,VBR,Leuven,24,50.8796,4.7009
BE,3001,Heverlee,Vlaanderen,VLG,Brabant Flamand,VBR,Leuven,24,50.8643,4.696
BE,3010,Kessel Lo,Vlaanderen,VLG,Brabant Flamand,VBR,Leuven,24,50.8855,4.7372
BE,3012,Wilsele,Vlaanderen,VLG,Brabant Flamand,VBR,Leuven,24,50.8919,4.6977
BE,3018,Wijgmaal,Vlaanderen,VLG,Brabant Flamand,VBR,Leuven,24,50.9267,4.7021
BE,3020,Veltem-Beisem,Vlaanderen,VLG,Brabant Flamand,VBR,Leuven,24,50.9081,4.6191
BE,3020,Herent,Vlaanderen,VLG,Brabant Flamand,VBR,Leuven,24,50.9086,4.6706
BE,3020,Winksele,Vlaanderen,VLG,Brabant Flamand,VBR,Leuven,24,50.8986,4.6461
BE,3040,Huldenberg,Vlaanderen,VLG,Brabant Flamand,VBR,Leuven,24,50.7894,4.5831
BE,3040,Ottenburg,Vlaanderen,VLG,Brabant Flamand,VBR,Leuven,24,50.7516,4.6164
BE,3040,Sint-Agatha-Rode,Vlaanderen,VLG,Brabant Flamand,VBR,Leuven,24,50.786,4.631
BE,3040,Loonbeek,Vlaanderen,VLG,Brabant Flamand,VBR,Leuven,24,50.8094,4.6097
BE,3040,Neerijse,Vlaanderen,VLG,Brabant Flamand,VBR,Leuven,24,50.8172,4.6236
BE,3050,Oud-Heverlee,Vlaanderen,VLG,Brabant Flamand,VBR,Leuven,24,50.8352,4.6642
BE,3051,Sint-Joris-Weert,Vlaanderen,VLG,Brabant Flamand,VBR,Leuven,24,50.8023,4.6526
BE,3052,Blanden,Vlaanderen,VLG,Brabant Flamand,VBR,Leuven,24,50.8262,4.7102
BE,3053,Haasrode,Vlaanderen,VLG,Brabant Flamand,VBR,Leuven,24,50.8317,4.7295
BE,3054,Vaalbeek,Vlaanderen,VLG,Brabant Flamand,VBR,Leuven,24,50.8262,4.6898
BE,3060,Korbeek-Dijle,Vlaanderen,VLG,Brabant Flamand,VBR,Leuven,24,50.8381,4.6379
BE,3060,Bertem,Vlaanderen,VLG,Brabant Flamand,VBR,Leuven,24,50.864,4.6292
BE,3061,Leefdaal,Vlaanderen,VLG,Brabant Flamand,VBR,Leuven,24,50.8476,4.5894
BE,3070,Kortenberg,Vlaanderen,VLG,Brabant Flamand,VBR,Leuven,24,50.8898,4.5435
BE,3071,Erps-Kwerps,Vlaanderen,VLG,Brabant Flamand,VBR,Leuven,24,50.9012,4.5598
BE,3078,Meerbeek,Vlaanderen,VLG,Brabant Flamand,VBR,Leuven,24,50.8821,4.5897
BE,3078,Everberg,Vlaanderen,VLG,Brabant Flamand,VBR,Leuven,24,50.8768,4.5698
BE,3080,Tervuren,Vlaanderen,VLG,Brabant Flamand,VBR,Leuven,24,50.8237,4.5142
BE,3080,Duisburg,Vlaanderen,VLG,Brabant Flamand,VBR,Leuven,24,50.8158,4.5553
BE,3080,Vossem,Vlaanderen,VLG,Brabant Flamand,VBR,Leuven,24,50.8363,4.5604
BE,3090,Overijse,Vlaanderen,VLG,Brabant Flamand,VBR,Halle-Vilvoorde,23,50.7744,4.5346
BE,3110,Rotselaar,Vlaanderen,VLG,Brabant Flamand,VBR,Leuven,24,50.953,4.7167
BE,3111,Wezemaal,Vlaanderen,VLG,Brabant Flamand,VBR,Leuven,24,50.9485,4.7554
BE,3118,Werchter,Vlaanderen,VLG,Brabant Flamand,VBR,Leuven,24,50.9731,4.7012
BE,3120,Tremelo,Vlaanderen,VLG,Brabant Flamand,VBR,Leuven,24,50.9923,4.7081
BE,3128,Baal,Vlaanderen,VLG,Brabant Flamand,VBR,Leuven,24,50.9955,4.7532
BE,3130,Begijnendijk,Vlaanderen,VLG,Brabant Flamand,VBR,Leuven,24,51.0194,4.7838
BE,3130,Betekom,Vlaanderen,VLG,Brabant Flamand,VBR,Leuven,24,50.9868,4.7819
BE,3140,Keerbergen,Vlaanderen,VLG,Brabant Flamand,VBR,Leuven,24,51.003,4.6343
BE,3150,Tildonk,Vlaanderen,VLG,Brabant Flamand,VBR,Leuven,24,50.9438,4.6448
BE,3150,Haacht,Vlaanderen,VLG,Brabant Flamand,VBR,Leuven,24,50.9774,4.6378
BE,3150,Wespelaar,Vlaanderen,VLG,Brabant Flamand,VBR,Leuven,24,50.9608,4.6398
BE,3190,Boortmeerbeek,Vlaanderen,VLG,Brabant Flamand,VBR,Leuven,24,50.9793,4.5744
BE,3191,Hever,Vlaanderen,VLG,Brabant Flamand,VBR,Leuven,24,50.9954,4.5513
BE,3200,Gelrode,Vlaanderen,VLG,Brabant Flamand,VBR,Leuven,24,50.9663,4.8041
BE,3200,Aarschot,Vlaanderen,VLG,Brabant Flamand,VBR,Leuven,24,50.9871,4.8369
BE,3201,Langdorp,Vlaanderen,VLG,Brabant Flamand,VBR,Leuven,24,50.9956,4.8717
BE,3202,Rillaar,Vlaanderen,VLG,Brabant Flamand,VBR,Leuven,24,50.9738,4.8918
BE,3210,Lubbeek,Vlaanderen,VLG,Brabant Flamand,VBR,Leuven,24,50.8828,4.839
BE,3210,Linden,Vlaanderen,VLG,Brabant Flamand,VBR,Leuven,24,50.8949,4.7703
BE,3211,Binkom,Vlaanderen,VLG,Brabant Flamand,VBR,Leuven,24,50.8716,4.8841
BE,3212,Pellenberg,Vlaanderen,VLG,Brabant Flamand,VBR,Leuven,24,50.8724,4.7939
BE,3220,Kortrijk-Dutsel,Vlaanderen,VLG,Brabant Flamand,VBR,Leuven,24,50.9268,4.808
BE,3220,Holsbeek,Vlaanderen,VLG,Brabant Flamand,VBR,Leuven,24,50.921,4.7575
BE,3220,Sint-Pieters-Rode,Vlaanderen,VLG,Brabant Flamand,VBR,Leuven,24,50.9325,4.8225
BE,3221,Nieuwrode,Vlaanderen,VLG,Brabant Flamand,VBR,Leuven,24,50.95,4.8333
BE,3270,Scherpenheuvel,Vlaanderen,VLG,Brabant Flamand,VBR,Leuven,24,50.9807,4.9755
BE,3270,Scherpenheuvel-Zichem,Vlaanderen,VLG,Brabant Flamand,VBR,Leuven,24,51.0104,4.9749
BE,3271,Zichem,Vlaanderen,VLG,Brabant Flamand,VBR,Leuven,24,51.0019,4.9832
BE,3271,Averbode,Vlaanderen,VLG,Brabant Flamand,VBR,Leuven,24,51.0289,4.9807
BE,3272,Messelbroek,Vlaanderen,VLG,Brabant Flamand,VBR,Leuven,24,50.9955,4.9366
BE,3272,Testelt,Vlaanderen,VLG,Brabant Flamand,VBR,Leuven,24,51.0108,4.9531
BE,3290,Diest,Vlaanderen,VLG,Brabant Flamand,VBR,Leuven,24,50.9892,5.0506
BE,3290,Webbekom,Vlaanderen,VLG,Brabant Flamand,VBR,Leuven,24,50.9741,5.0403
BE,3290,Deurne,Vlaanderen,VLG,Brabant Flamand,VBR,Leuven,24,51.0391,5.0965
BE,3290,Schaffen,Vlaanderen,VLG,Brabant Flamand,VBR,Leuven,24,50.9999,5.0867
BE,3293,Kaggevinne,Vlaanderen,VLG,Brabant Flamand,VBR,Leuven,24,50.9804,5.0189
BE,3294,Molenstede,Vlaanderen,VLG,Brabant Flamand,VBR,Leuven,24,51.004,5.013
BE,3300,Tienen,Vlaanderen,VLG,Brabant Flamand,VBR,Leuven,24,50.8074,4.9378
BE,3300,Hakendover,Vlaanderen,VLG,Brabant Flamand,VBR,Leuven,24,50.7959,4.9823
BE,3300,Oplinter,Vlaanderen,VLG,Brabant Flamand,VBR,Leuven,24,50.8302,4.99
BE,3300,Oorbeek,Vlaanderen,VLG,Brabant Flamand,VBR,Leuven,24,50.7991,4.8923
BE,3300,Kumtich,Vlaanderen,VLG,Brabant Flamand,VBR,Leuven,24,50.821,4.8872
BE,3300,Bost,Vlaanderen,VLG,Brabant Flamand,VBR,Leuven,24,50.8449,4.8131
BE,3300,Goetsenhoven,Vlaanderen,VLG,Brabant Flamand,VBR,Leuven,24,50.7688,4.9516
BE,3300,Sint-Margriete-Houtem,Vlaanderen,VLG,Brabant Flamand,VBR,Leuven,24,50.8288,4.958
BE,3300,Vissenaken,Vlaanderen,VLG,Brabant Flamand,VBR,Leuven,24,50.8385,4.9049
BE,3320,Meldert,Vlaanderen,VLG,Brabant Flamand,VBR,Leuven,24,50.7881,4.8378
BE,3320,Hoegaarden,Vlaanderen,VLG,Brabant Flamand,VBR,Leuven,24,50.7756,4.8895
BE,3321,Outgaarden,Vlaanderen,VLG,Brabant Flamand,VBR,Leuven,24,50.7667,4.9193
BE,3350,Neerlinter,Vlaanderen,VLG,Brabant Flamand,VBR,Leuven,24,50.8397,5.0229
BE,3350,Drieslinter,Vlaanderen,VLG,Brabant Flamand,VBR,Leuven,24,50.8457,5.0504
BE,3350,Neerhespen,Vlaanderen,VLG,Brabant Flamand,VBR,Leuven,24,50.7922,5.0489
BE,3350,Linter,Vlaanderen,VLG,Brabant Flamand,VBR,Leuven,24,50.8416,5.0366
BE,3350,Orsmaal-Gussenhoven,Vlaanderen,VLG,Brabant Flamand,VBR,Leuven,24,50.8053,5.0618
BE,3350,Melkwezer,Vlaanderen,VLG,Brabant Flamand,VBR,Leuven,24,50.8257,5.0614
BE,3350,Wommersom,Vlaanderen,VLG,Brabant Flamand,VBR,Leuven,24,50.8127,5.0177
BE,3350,Overhespen,Vlaanderen,VLG,Brabant Flamand,VBR,Leuven,24,50.796,5.0356
BE,3360,Lovenjoel,Vlaanderen,VLG,Brabant Flamand,VBR,Leuven,24,50.8585,4.7809
BE,3360,Bierbeek,Vlaanderen,VLG,Brabant Flamand,VBR,Leuven,24,50.8288,4.7595
BE,3360,Opvelp,Vlaanderen,VLG,Brabant Flamand,VBR,Leuven,24,50.8102,4.7935
BE,3360,Korbeek-Lo,Vlaanderen,VLG,Brabant Flamand,VBR,Leuven,24,50.8603,4.7627
BE,3370,Neervelp,Vlaanderen,VLG,Brabant Flamand,VBR,Leuven,24,50.8216,4.8094
BE,3370,Vertrijk,Vlaanderen,VLG,Brabant Flamand,VBR,Leuven,24,50.8293,4.8345
BE,3370,Boutersem,Vlaanderen,VLG,Brabant Flamand,VBR,Leuven,24,50.8351,4.8345
BE,3370,Willebringen,Vlaanderen,VLG,Brabant Flamand,VBR,Leuven,24,50.8124,4.8439
BE,3370,Roosbeek,Vlaanderen,VLG,Brabant Flamand,VBR,Leuven,24,50.8361,4.8628
BE,3370,Kerkom,Vlaanderen,VLG,Brabant Flamand,VBR,Leuven,24,50.8557,4.8742
BE,3380,Glabbeek,Vlaanderen,VLG,Brabant Flamand,VBR,Leuven,24,50.8727,4.9562
BE,3380,Bunsbeek,Vlaanderen,VLG,Brabant Flamand,VBR,Leuven,24,50.8417,4.9452
BE,3381,Kapellen,Vlaanderen,VLG,Brabant Flamand,VBR,Leuven,24,50.8859,4.9517
BE,3384,Attenrode,Vlaanderen,VLG,Brabant Flamand,VBR,Leuven,24,50.8778,4.9244
BE,3390,Tielt,Vlaanderen,VLG,Brabant Flamand,VBR,Leuven,24,50.9421,4.9051
BE,3390,Houwaart,Vlaanderen,VLG,Brabant Flamand,VBR,Leuven,24,50.9337,4.8599
BE,3390,Tielt-Winge,Vlaanderen,VLG,Brabant Flamand,VBR,Leuven,24,50.9174,4.8837
BE,3390,Sint-Joris-Winge,Vlaanderen,VLG,Brabant Flamand,VBR,Leuven,24,50.9045,4.8749
BE,3391,Meensel-Kiezegem,Vlaanderen,VLG,Brabant Flamand,VBR,Leuven,24,50.8962,4.925
BE,3400,Ezemaal,Vlaanderen,VLG,Brabant Flamand,VBR,Leuven,24,50.777,5.001
BE,3400,Rumsdorp,Vlaanderen,VLG,Brabant Flamand,VBR,Leuven,24,50.7672,5.0744
BE,3400,Neerwinden,Vlaanderen,VLG,Brabant Flamand,VBR,Leuven,24,50.7676,5.0402
BE,3400,Wange,Vlaanderen,VLG,Brabant Flamand,VBR,Leuven,24,50.7864,5.0314
BE,3400,Laar,Vlaanderen,VLG,Brabant Flamand,VBR,Leuven,24,50.7707,5.0264
BE,3400,Landen,Vlaanderen,VLG,Brabant Flamand,VBR,Leuven,24,50.7527,5.082
BE,3400,Overwinden,Vlaanderen,VLG,Brabant Flamand,VBR,Leuven,24,50.755,5.048
BE,3400,Eliksem,Vlaanderen,VLG,Brabant Flamand,VBR,Leuven,24,50.7841,5.0104
BE,3401,Waasmont,Vlaanderen,VLG,Brabant Flamand,VBR,Leuven,24,50.7283,5.0633
BE,3401,Wezeren,Vlaanderen,VLG,Brabant Flamand,VBR,Leuven,24,50.7307,5.1047
BE,3401,Walshoutem,Vlaanderen,VLG,Brabant Flamand,VBR,Leuven,24,50.7322,5.084
BE,3401,Walsbets,Vlaanderen,VLG,Brabant Flamand,VBR,Leuven,24,50.7376,5.0841
BE,3404,Attenhoven,Vlaanderen,VLG,Brabant Flamand,VBR,Leuven,24,50.9132,4.7294
BE,3404,Neerlanden,Vlaanderen,VLG,Brabant Flamand,VBR,Leuven,24,50.778,5.0782
BE,3440,Dormaal,Vlaanderen,VLG,Brabant Flamand,VBR,Leuven,24,50.8078,5.099
BE,3440,Zoutleeuw,Vlaanderen,VLG,Brabant Flamand,VBR,Leuven,24,50.8332,5.1038
BE,3440,Budingen,Vlaanderen,VLG,Brabant Flamand,VBR,Leuven,24,50.8651,5.0985
BE,3440,Halle-Booienhoven,Vlaanderen,VLG,Brabant Flamand,VBR,Leuven,24,50.8053,5.1117
BE,3440,Helen-Bos,Vlaanderen,VLG,Brabant Flamand,VBR,Leuven,24,50.8185,5.0829
BE,3450,Grazen,Vlaanderen,VLG,Brabant Flamand,VBR,Leuven,24,50.8745,5.1314
BE,3450,Geetbets,Vlaanderen,VLG,Brabant Flamand,VBR,Leuven,24,50.8943,5.112
BE,3454,Rummen,Vlaanderen,VLG,Brabant Flamand,VBR,Leuven,24,50.8891,5.1652
BE,3460,Assent,Vlaanderen,VLG,Brabant Flamand,VBR,Leuven,24,50.9519,5.0147
BE,3460,Bekkevoort,Vlaanderen,VLG,Brabant Flamand,VBR,Leuven,24,50.9407,4.969
BE,3461,Molenbeek-Wersbeek,Vlaanderen,VLG,Brabant Flamand,VBR,Leuven,24,50.9195,4.9476
BE,3470,Sint-Margriete-Houtem,Vlaanderen,VLG,Brabant Flamand,VBR,Leuven,24,50.8288,4.958
BE,3470,Ransberg,Vlaanderen,VLG,Brabant Flamand,VBR,Leuven,24,50.8749,5.0395
BE,3470,Kortenaken,Vlaanderen,VLG,Brabant Flamand,VBR,Leuven,24,50.9086,5.0597
BE,3471,Hoeleden,Vlaanderen,VLG,Brabant Flamand,VBR,Leuven,24,50.8666,4.9854
BE,3472,Kersbeek-Miskom,Vlaanderen,VLG,Brabant Flamand,VBR,Leuven,24,50.8854,4.9958
BE,3473,Waanrode,Vlaanderen,VLG,Brabant Flamand,VBR,Leuven,24,50.9162,5.0048
BE,3500,Hasselt,Vlaanderen,VLG,Limbourg,VLI,Hasselt,71,50.9311,5.3378
BE,3500,Sint-Lambrechts-Herk,Vlaanderen,VLG,Limbourg,VLI,Hasselt,71,50.8991,5.3079
BE,3501,Wimmertingen,Vlaanderen,VLG,Limbourg,VLI,Hasselt,71,50.8833,5.35
BE,3510,Spalbeek,Vlaanderen,VLG,Limbourg,VLI,Hasselt,71,50.9492,5.2239
BE,3510,Kermt,Vlaanderen,VLG,Limbourg,VLI,Hasselt,71,50.9476,5.2483
BE,3511,Stokrooie,Vlaanderen,VLG,Limbourg,VLI,Hasselt,71,50.9664,5.2814
BE,3511,Kuringen,Vlaanderen,VLG,Limbourg,VLI,Hasselt,71,50.9443,5.299
BE,3512,Stevoort,Vlaanderen,VLG,Limbourg,VLI,Hasselt,71,50.9186,5.2533
BE,3520,Zonhoven,Vlaanderen,VLG,Limbourg,VLI,Hasselt,71,50.9906,5.3682
BE,3530,Houthalen-Helchteren,Vlaanderen,VLG,Limbourg,VLI,Maaseik,72,51.0322,5.3785
BE,3530,Helchteren,Vlaanderen,VLG,Limbourg,VLI,Maaseik,72,51.0559,5.3824
BE,3530,Houthalen,Vlaanderen,VLG,Limbourg,VLI,Maaseik,72,51.0343,5.3743
BE,3540,Donk,Vlaanderen,VLG,Limbourg,VLI,Hasselt,71,50.9388,5.1372
BE,3540,Herk-De-Stad,Vlaanderen,VLG,Limbourg,VLI,Hasselt,71,50.9401,5.1664
BE,3540,Berbroek,Vlaanderen,VLG,Limbourg,VLI,Hasselt,71,50.9503,5.209
BE,3540,Schulen,Vlaanderen,VLG,Limbourg,VLI,Hasselt,71,50.9597,5.1901
BE,3545,Halen,Vlaanderen,VLG,Limbourg,VLI,Hasselt,71,50.9484,5.111
BE,3545,Loksbergen,Vlaanderen,VLG,Limbourg,VLI,Hasselt,71,50.9341,5.0698
BE,3545,Zelem,Vlaanderen,VLG,Limbourg,VLI,Hasselt,71,50.9774,5.1069
BE,3550,Heusden,Vlaanderen,VLG,Limbourg,VLI,Hasselt,71,51.0366,5.2801
BE,3550,Heusden-Zolder,Vlaanderen,VLG,Limbourg,VLI,Hasselt,71,51.0373,5.2965
BE,3550,Zolder,Vlaanderen,VLG,Limbourg,VLI,Hasselt,71,51.0246,5.3098
BE,3560,Linkhout,Vlaanderen,VLG,Limbourg,VLI,Hasselt,71,50.9678,5.1374
BE,3560,Lummen,Vlaanderen,VLG,Limbourg,VLI,Hasselt,71,50.9877,5.1912
BE,3560,Meldert,Vlaanderen,VLG,Limbourg,VLI,Hasselt,71,51.0001,5.1421
BE,3570,Alken,Vlaanderen,VLG,Limbourg,VLI,Tongeren,73,50.8755,5.3056
BE,3580,Beringen,Vlaanderen,VLG,Limbourg,VLI,Hasselt,71,51.0495,5.2261
BE,3581,Beverlo,Vlaanderen,VLG,Limbourg,VLI,Hasselt,71,51.0865,5.2185
BE,3582,Koersel,Vlaanderen,VLG,Limbourg,VLI,Hasselt,71,51.0591,5.2712
BE,3583,Paal,Vlaanderen,VLG,Limbourg,VLI,Hasselt,71,51.0399,5.1723
BE,3590,Diepenbeek,Vlaanderen,VLG,Limbourg,VLI,Hasselt,71,50.9077,5.4187
BE,3600,Genk,Vlaanderen,VLG,Limbourg,VLI,Hasselt,71,50.965,5.5008
BE,3620,Veldwezelt,Vlaanderen,VLG,Limbourg,VLI,Tongeren,73,50.8681,5.631
BE,3620,Neerharen,Vlaanderen,VLG,Limbourg,VLI,Tongeren,73,50.9096,5.6803
BE,3620,Gellik,Vlaanderen,VLG,Limbourg,VLI,Tongeren,73,50.8847,5.6101
BE,3620,Lanaken,Vlaanderen,VLG,Limbourg,VLI,Tongeren,73,50.8932,5.6468
BE,3621,Rekem,Vlaanderen,VLG,Limbourg,VLI,Tongeren,73,50.9224,5.6938
BE,3630,Maasmechelen,Vlaanderen,VLG,Limbourg,VLI,Tongeren,73,50.9655,5.6945
BE,3630,Opgrimbie,Vlaanderen,VLG,Limbourg,VLI,Tongeren,73,50.9419,5.6797
BE,3630,Vucht,Vlaanderen,VLG,Limbourg,VLI,Tongeren,73,50.9783,5.711
BE,3630,Meeswijk,Vlaanderen,VLG,Limbourg,VLI,Tongeren,73,51,5.7481
BE,3630,Eisden,Vlaanderen,VLG,Limbourg,VLI,Tongeren,73,50.9846,5.7143
BE,3630,Leut,Vlaanderen,VLG,Limbourg,VLI,Tongeren,73,50.9911,5.7362
BE,3630,Mechelen-Aan-De-Maas,Vlaanderen,VLG,Limbourg,VLI,Tongeren,73,50.9799,5.6935
BE,3631,Boorsem,Vlaanderen,VLG,Limbourg,VLI,Tongeren,73,50.9421,5.719
BE,3631,Uikhoven,Vlaanderen,VLG,Limbourg,VLI,Tongeren,73,50.9239,5.7192
BE,3640,Kinrooi,Vlaanderen,VLG,Limbourg,VLI,Maaseik,72,51.1454,5.7421
BE,3640,Ophoven,Vlaanderen,VLG,Limbourg,VLI,Maaseik,72,51.0822,5.5697
BE,3640,Molenbeersel,Vlaanderen,VLG,Limbourg,VLI,Maaseik,72,51.1704,5.7376
BE,3640,Kessenich,Vlaanderen,VLG,Limbourg,VLI,Maaseik,72,51.1509,5.8233
BE,3650,Elen,Vlaanderen,VLG,Limbourg,VLI,Maaseik,72,51.0664,5.7513
BE,3650,Stokkem,Vlaanderen,VLG,Limbourg,VLI,Maaseik,72,51.0233,5.745
BE,3650,Rotem,Vlaanderen,VLG,Limbourg,VLI,Maaseik,72,51.0529,5.741
BE,3650,Lanklaar,Vlaanderen,VLG,Limbourg,VLI,Maaseik,72,51.0194,5.7251
BE,3650,Dilsen-Stokkem,Vlaanderen,VLG,Limbourg,VLI,Maaseik,72,51.0305,5.7347
BE,3650,Dilsen,Vlaanderen,VLG,Limbourg,VLI,Maaseik,72,51.0385,5.7394
BE,3660,Opglabbeek,Vlaanderen,VLG,Limbourg,VLI,Maaseik,72,51.1394,5.5154
BE,3665,As,Vlaanderen,VLG,Limbourg,VLI,Hasselt,71,51.0075,5.5845
BE,3668,Niel-Bij-As,Vlaanderen,VLG,Limbourg,VLI,Hasselt,71,51.0185,5.6053
BE,3670,Oudsbergen,Vlaanderen,VLG,Limbourg,VLI,Maaseik,72,51.102,5.5614
BE,3670,Ellikom,Vlaanderen,VLG,Limbourg,VLI,Maaseik,72,51.1277,5.5239
BE,3670,Wijshagen,Vlaanderen,VLG,Limbourg,VLI,Maaseik,72,51.1049,5.5579
BE,3670,Neerglabbeek,Vlaanderen,VLG,Limbourg,VLI,Maaseik,72,51.0891,5.6161
BE,3670,Gruitrode,Vlaanderen,VLG,Limbourg,VLI,Maaseik,72,51.0894,5.5882
BE,3670,Meeuwen,Vlaanderen,VLG,Limbourg,VLI,Maaseik,72,51.0991,5.5211
BE,3680,Maaseik,Vlaanderen,VLG,Limbourg,VLI,Maaseik,72,51.098,5.7838
BE,3680,Neeroeteren,Vlaanderen,VLG,Limbourg,VLI,Maaseik,72,51.0916,5.6993
BE,3680,Opoeteren,Vlaanderen,VLG,Limbourg,VLI,Maaseik,72,51.0692,5.6556
BE,3690,Zutendaal,Vlaanderen,VLG,Limbourg,VLI,Hasselt,71,50.9331,5.5753
BE,3700,Kolmont,Vlaanderen,VLG,Limbourg,VLI,Tongeren,73,50.8042,5.4245
BE,3700,Mal,Vlaanderen,VLG,Limbourg,VLI,Tongeren,73,50.7687,5.5197
BE,3700,Tongeren,Vlaanderen,VLG,Limbourg,VLI,Tongeren,73,50.7805,5.4648
BE,3700,Riksingen,Vlaanderen,VLG,Limbourg,VLI,Tongeren,73,50.8043,5.4626
BE,3700,Haren,Vlaanderen,VLG,Limbourg,VLI,Tongeren,73,50.793,5.3992
BE,3700,'S Herenelderen,Vlaanderen,VLG,Limbourg,VLI,Tongeren,73,50.8088,5.5007
BE,3700,Berg,Vlaanderen,VLG,Limbourg,VLI,Tongeren,73,50.7906,5.4931
BE,3700,Diets-Heur,Vlaanderen,VLG,Limbourg,VLI,Tongeren,73,50.7454,5.4832
BE,3700,Rutten,Vlaanderen,VLG,Limbourg,VLI,Tongeren,73,50.7476,5.4435
BE,3700,Vreren,Vlaanderen,VLG,Limbourg,VLI,Tongeren,73,50.7517,5.4959
BE,3700,Widooie,Vlaanderen,VLG,Limbourg,VLI,Tongeren,73,50.7716,5.4078
BE,3700,Henis,Vlaanderen,VLG,Limbourg,VLI,Tongeren,73,50.7999,5.4703
BE,3700,Overrepen,Vlaanderen,VLG,Limbourg,VLI,Tongeren,73,50.808,5.4311
BE,3700,Piringen,Vlaanderen,VLG,Limbourg,VLI,Tongeren,73,50.7867,5.4182
BE,3700,Lauw,Vlaanderen,VLG,Limbourg,VLI,Tongeren,73,50.7388,5.4133
BE,3700,Neerrepen,Vlaanderen,VLG,Limbourg,VLI,Tongeren,73,50.8109,5.4445
BE,3700,Koninksem,Vlaanderen,VLG,Limbourg,VLI,Tongeren,73,50.7653,5.4389
BE,3700,Sluizen,Vlaanderen,VLG,Limbourg,VLI,Tongeren,73,50.7652,5.5314
BE,3700,Nerem,Vlaanderen,VLG,Limbourg,VLI,Tongeren,73,50.7635,5.5099
BE,3717,Herstappe,Vlaanderen,VLG,Limbourg,VLI,Tongeren,73,50.7261,5.4266
BE,3720,Kortessem,Vlaanderen,VLG,Limbourg,VLI,Tongeren,73,50.8589,5.3897
BE,3721,Vliermaalroot,Vlaanderen,VLG,Limbourg,VLI,Tongeren,73,50.8651,5.4262
BE,3722,Wintershoven,Vlaanderen,VLG,Limbourg,VLI,Tongeren,73,50.8516,5.4196
BE,3723,Guigoven,Vlaanderen,VLG,Limbourg,VLI,Tongeren,73,50.8392,5.4004
BE,3724,Vliermaal,Vlaanderen,VLG,Limbourg,VLI,Tongeren,73,50.8407,5.4286
BE,3730,Sint-Huibrechts-Hern,Vlaanderen,VLG,Limbourg,VLI,Tongeren,73,50.8298,5.4493
BE,3730,Romershoven,Vlaanderen,VLG,Limbourg,VLI,Tongeren,73,50.8564,5.4599
BE,3730,Hoeselt,Vlaanderen,VLG,Limbourg,VLI,Tongeren,73,50.8471,5.4877
BE,3730,Werm,Vlaanderen,VLG,Limbourg,VLI,Tongeren,73,50.8326,5.4796
BE,3732,Schalkhoven,Vlaanderen,VLG,Limbourg,VLI,Tongeren,73,50.8413,5.4495
BE,3740,Rosmeer,Vlaanderen,VLG,Limbourg,VLI,Tongeren,73,50.8459,5.5781
BE,3740,Kleine-Spouwen,Vlaanderen,VLG,Limbourg,VLI,Tongeren,73,50.8384,5.5501
BE,3740,Grote-Spouwen,Vlaanderen,VLG,Limbourg,VLI,Tongeren,73,50.8328,5.5543
BE,3740,Hees,Vlaanderen,VLG,Limbourg,VLI,Tongeren,73,50.8468,5.6077
BE,3740,Mopertingen,Vlaanderen,VLG,Limbourg,VLI,Tongeren,73,50.8612,5.5759
BE,3740,Rijkhoven,Vlaanderen,VLG,Limbourg,VLI,Tongeren,73,50.8329,5.515
BE,3740,Eigenbilzen,Vlaanderen,VLG,Limbourg,VLI,Tongeren,73,50.8749,5.5758
BE,3740,Munsterbilzen,Vlaanderen,VLG,Limbourg,VLI,Tongeren,73,50.8894,5.5265
BE,3740,Waltwilder,Vlaanderen,VLG,Limbourg,VLI,Tongeren,73,50.8664,5.5443
BE,3740,Bilzen,Vlaanderen,VLG,Limbourg,VLI,Tongeren,73,50.8733,5.5184
BE,3740,Beverst,Vlaanderen,VLG,Limbourg,VLI,Tongeren,73,50.8909,5.4755
BE,3742,Martenslinde,Vlaanderen,VLG,Limbourg,VLI,Tongeren,73,50.856,5.5338
BE,3746,Hoelbeek,Vlaanderen,VLG,Limbourg,VLI,Tongeren,73,50.8721,5.5591
BE,3770,Riemst,Vlaanderen,VLG,Limbourg,VLI,Tongeren,73,50.8099,5.6013
BE,3770,Val-Meer,Vlaanderen,VLG,Limbourg,VLI,Tongeren,73,50.7872,5.5956
BE,3770,Zichen-Zussen-Bolder,Vlaanderen,VLG,Limbourg,VLI,Tongeren,73,50.7942,5.6248
BE,3770,Membruggen,Vlaanderen,VLG,Limbourg,VLI,Tongeren,73,50.8153,5.5337
BE,3770,Millen,Vlaanderen,VLG,Limbourg,VLI,Tongeren,73,50.7862,5.5562
BE,3770,Herderen,Vlaanderen,VLG,Limbourg,VLI,Tongeren,73,50.8073,5.5735
BE,3770,Genoelselderen,Vlaanderen,VLG,Limbourg,VLI,Tongeren,73,50.8021,5.5374
BE,3770,Vroenhoven,Vlaanderen,VLG,Limbourg,VLI,Tongeren,73,50.8261,5.6399
BE,3770,Kanne,Vlaanderen,VLG,Limbourg,VLI,Tongeren,73,50.8133,5.6695
BE,3770,Vlijtingen,Vlaanderen,VLG,Limbourg,VLI,Tongeren,73,50.832,5.5843
BE,3790,Mouland,Vlaanderen,VLG,Limbourg,VLI,Tongeren,73,50.7569,5.7137
BE,3790,Fourons,Vlaanderen,VLG,Limbourg,VLI,Tongeren,73,50.7505,5.7832
BE,3790,Fouron-Saint-Martin,Vlaanderen,VLG,Limbourg,VLI,Tongeren,73,50.7485,5.8129
BE,3791,Remersdaal,Vlaanderen,VLG,Limbourg,VLI,Tongeren,73,50.7314,5.8806
BE,3792,Fouron-Saint-Pierre,Vlaanderen,VLG,Limbourg,VLI,Tongeren,73,50.7386,5.8222
BE,3793,Teuven,Vlaanderen,VLG,Limbourg,VLI,Tongeren,73,50.7518,5.8757
BE,3798,Fouron-Le-Comte,Vlaanderen,VLG,Limbourg,VLI,Tongeren,73,50.7587,5.7611
BE,3800,Brustem,Vlaanderen,VLG,Limbourg,VLI,Hasselt,71,50.8048,5.2226
BE,3800,Ordingen,Vlaanderen,VLG,Limbourg,VLI,Hasselt,71,50.8132,5.235
BE,3800,Engelmanshoven,Vlaanderen,VLG,Limbourg,VLI,Hasselt,71,50.7721,5.2527
BE,3800,Halmaal,Vlaanderen,VLG,Limbourg,VLI,Hasselt,71,50.8045,5.1547
BE,3800,Gelinden,Vlaanderen,VLG,Limbourg,VLI,Hasselt,71,50.7656,5.2612
BE,3800,Aalst,Vlaanderen,VLG,Limbourg,VLI,Hasselt,71,50.782,5.2092
BE,3800,Kerkom-Bij-Sint-Truiden,Vlaanderen,VLG,Limbourg,VLI,Hasselt,71,50.7737,5.1784
BE,3800,Sint-Truiden,Vlaanderen,VLG,Limbourg,VLI,Hasselt,71,50.8168,5.1865
BE,3800,Groot-Gelmen,Vlaanderen,VLG,Limbourg,VLI,Hasselt,71,50.7835,5.2638
BE,3800,Zepperen,Vlaanderen,VLG,Limbourg,VLI,Hasselt,71,50.8214,5.2477
BE,3803,Duras,Vlaanderen,VLG,Limbourg,VLI,Hasselt,71,50.8345,5.1457
BE,3803,Gorsem,Vlaanderen,VLG,Limbourg,VLI,Hasselt,71,50.8351,5.1622
BE,3803,Runkelen,Vlaanderen,VLG,Limbourg,VLI,Hasselt,71,50.8464,5.1505
BE,3803,Wilderen,Vlaanderen,VLG,Limbourg,VLI,Hasselt,71,50.8155,5.1423
BE,3806,Velm,Vlaanderen,VLG,Limbourg,VLI,Hasselt,71,50.7787,5.131
BE,3830,Wellen,Vlaanderen,VLG,Limbourg,VLI,Tongeren,73,50.841,5.3387
BE,3830,Berlingen,Vlaanderen,VLG,Limbourg,VLI,Tongeren,73,50.8194,5.3113
BE,3831,Herten,Vlaanderen,VLG,Limbourg,VLI,Tongeren,73,50.8351,5.3221
BE,3832,Ulbeek,Vlaanderen,VLG,Limbourg,VLI,Tongeren,73,50.8437,5.305
BE,3840,Kerniel,Vlaanderen,VLG,Limbourg,VLI,Tongeren,73,50.8167,5.3651
BE,3840,Groot-Loon,Vlaanderen,VLG,Limbourg,VLI,Tongeren,73,50.7927,5.3634
BE,3840,Kuttekoven,Vlaanderen,VLG,Limbourg,VLI,Tongeren,73,50.8092,5.3261
BE,3840,Hoepertingen,Vlaanderen,VLG,Limbourg,VLI,Tongeren,73,50.8122,5.2844
BE,3840,Haren,Vlaanderen,VLG,Limbourg,VLI,Tongeren,73,50.793,5.3992
BE,3840,Broekom,Vlaanderen,VLG,Limbourg,VLI,Tongeren,73,50.7827,5.3323
BE,3840,Jesseren,Vlaanderen,VLG,Limbourg,VLI,Tongeren,73,50.8058,5.3921
BE,3840,Gors-Opleeuw,Vlaanderen,VLG,Limbourg,VLI,Tongeren,73,50.8231,5.3834
BE,3840,Voort,Vlaanderen,VLG,Limbourg,VLI,Tongeren,73,50.7948,5.3198
BE,3840,Borgloon,Vlaanderen,VLG,Limbourg,VLI,Tongeren,73,50.8051,5.3437
BE,3840,Kolmont,Vlaanderen,VLG,Limbourg,VLI,Tongeren,73,50.8042,5.4245
BE,3840,Gotem,Vlaanderen,VLG,Limbourg,VLI,Tongeren,73,50.805,5.313
BE,3840,Hendrieken,Vlaanderen,VLG,Limbourg,VLI,Tongeren,73,50.7985,5.3271
BE,3840,Bommershoven,Vlaanderen,VLG,Limbourg,VLI,Tongeren,73,50.7873,5.379
BE,3840,Rijkel,Vlaanderen,VLG,Limbourg,VLI,Tongeren,73,50.8094,5.2614
BE,3850,Wijer,Vlaanderen,VLG,Limbourg,VLI,Hasselt,71,50.8986,5.2245
BE,3850,Binderveld,Vlaanderen,VLG,Limbourg,VLI,Hasselt,71,50.8608,5.1649
BE,3850,Kozen,Vlaanderen,VLG,Limbourg,VLI,Hasselt,71,50.8752,5.24
BE,3850,Nieuwerkerken,Vlaanderen,VLG,Limbourg,VLI,Hasselt,71,50.8638,5.1947
BE,3870,Mechelen-Bovelingen,Vlaanderen,VLG,Limbourg,VLI,Tongeren,73,50.7408,5.2628
BE,3870,Veulen,Vlaanderen,VLG,Limbourg,VLI,Tongeren,73,50.7638,5.3057
BE,3870,Batsheers,Vlaanderen,VLG,Limbourg,VLI,Tongeren,73,50.7386,5.281
BE,3870,Heks,Vlaanderen,VLG,Limbourg,VLI,Tongeren,73,50.7695,5.3581
BE,3870,Gutshoven,Vlaanderen,VLG,Limbourg,VLI,Tongeren,73,50.7536,5.2993
BE,3870,Rukkelingen-Loon,Vlaanderen,VLG,Limbourg,VLI,Tongeren,73,50.7284,5.2538
BE,3870,Horpmaal,Vlaanderen,VLG,Limbourg,VLI,Tongeren,73,50.7596,5.3352
BE,3870,Vechmaal,Vlaanderen,VLG,Limbourg,VLI,Tongeren,73,50.7617,5.3745
BE,3870,Klein-Gelmen,Vlaanderen,VLG,Limbourg,VLI,Tongeren,73,50.7711,5.2759
BE,3870,Opheers,Vlaanderen,VLG,Limbourg,VLI,Tongeren,73,50.7399,5.2981
BE,3870,Bovelingen,Vlaanderen,VLG,Limbourg,VLI,Tongeren,73,50.7355,5.2536
BE,3870,Mettekoven,Vlaanderen,VLG,Limbourg,VLI,Tongeren,73,50.7807,5.2909
BE,3870,Heers,Vlaanderen,VLG,Limbourg,VLI,Tongeren,73,50.7538,5.3021
BE,3890,Jeuk,Vlaanderen,VLG,Limbourg,VLI,Hasselt,71,50.735,5.2099
BE,3890,Montenaken,Vlaanderen,VLG,Limbourg,VLI,Hasselt,71,50.7209,5.1294
BE,3890,Kortijs,Vlaanderen,VLG,Limbourg,VLI,Hasselt,71,50.7066,5.1489
BE,3890,Niel-Bij-Sint-Truiden,Vlaanderen,VLG,Limbourg,VLI,Hasselt,71,50.7404,5.142
BE,3890,Vorsen,Vlaanderen,VLG,Limbourg,VLI,Hasselt,71,50.7038,5.1708
BE,3890,Boekhout,Vlaanderen,VLG,Limbourg,VLI,Hasselt,71,50.7457,5.2333
BE,3890,Gingelom,Vlaanderen,VLG,Limbourg,VLI,Hasselt,71,50.7479,5.1342
BE,3891,Borlo,Vlaanderen,VLG,Limbourg,VLI,Hasselt,71,50.7423,5.1809
BE,3891,Mielen-Boven-Aalst,Vlaanderen,VLG,Limbourg,VLI,Hasselt,71,50.7564,5.2142
BE,3891,Buvingen,Vlaanderen,VLG,Limbourg,VLI,Hasselt,71,50.7526,5.1769
BE,3891,Muizen,Vlaanderen,VLG,Limbourg,VLI,Hasselt,71,50.7604,5.1793
BE,3900,Pelt,Vlaanderen,VLG,Limbourg,VLI,Maaseik,72,51.2104,5.4156
BE,3900,Overpelt,Vlaanderen,VLG,Limbourg,VLI,Maaseik,72,51.2104,5.4156
BE,3910,Neerpelt,Vlaanderen,VLG,Limbourg,VLI,Maaseik,72,51.2281,5.4427
BE,3910,Sint-Huibrechts-Lille,Vlaanderen,VLG,Limbourg,VLI,Maaseik,72,51.2227,5.4944
BE,3920,Lommel,Vlaanderen,VLG,Limbourg,VLI,Maaseik,72,51.2307,5.3135
BE,3930,Hamont-Achel,Vlaanderen,VLG,Limbourg,VLI,Maaseik,72,51.2497,5.5055
BE,3930,Achel,Vlaanderen,VLG,Limbourg,VLI,Maaseik,72,51.253,5.4798
BE,3930,Hamont,Vlaanderen,VLG,Limbourg,VLI,Maaseik,72,51.2533,5.5473
BE,3940,Hechtel-Eksel,Vlaanderen,VLG,Limbourg,VLI,Maaseik,72,51.1417,5.3761
BE,3940,Hechtel,Vlaanderen,VLG,Limbourg,VLI,Maaseik,72,51.1252,5.3677
BE,3941,Eksel,Vlaanderen,VLG,Limbourg,VLI,Maaseik,72,51.1518,5.3906
BE,3945,Ham,Vlaanderen,VLG,Limbourg,VLI,Hasselt,71,51.1008,5.1592
BE,3945,Kwaadmechelen,Vlaanderen,VLG,Limbourg,VLI,Hasselt,71,51.101,5.1448
BE,3945,Oostham,Vlaanderen,VLG,Limbourg,VLI,Hasselt,71,51.1037,5.1788
BE,3950,Reppel,Vlaanderen,VLG,Limbourg,VLI,Maaseik,72,51.1541,5.5624
BE,3950,Bocholt,Vlaanderen,VLG,Limbourg,VLI,Maaseik,72,51.1734,5.5799
BE,3950,Kaulille,Vlaanderen,VLG,Limbourg,VLI,Maaseik,72,51.1876,5.5237
BE,3960,Bree,Vlaanderen,VLG,Limbourg,VLI,Maaseik,72,51.1415,5.5969
BE,3960,Opitter,Vlaanderen,VLG,Limbourg,VLI,Maaseik,72,51.117,5.6475
BE,3960,Tongerlo,Vlaanderen,VLG,Limbourg,VLI,Maaseik,72,51.1276,5.6609
BE,3960,Gerdingen,Vlaanderen,VLG,Limbourg,VLI,Maaseik,72,51.1482,5.5814
BE,3960,Beek,Vlaanderen,VLG,Limbourg,VLI,Maaseik,72,51.1552,5.603
BE,3970,Leopoldsburg,Vlaanderen,VLG,Limbourg,VLI,Hasselt,71,51.1167,5.25
BE,3971,Heppen,Vlaanderen,VLG,Limbourg,VLI,Hasselt,71,51.1093,5.229
BE,3980,Tessenderlo,Vlaanderen,VLG,Limbourg,VLI,Hasselt,71,51.0651,5.0886
BE,3990,Peer,Vlaanderen,VLG,Limbourg,VLI,Maaseik,72,51.1303,5.4595
BE,3990,Grote-Brogel,Vlaanderen,VLG,Limbourg,VLI,Maaseik,72,51.1528,5.5059
BE,3990,Kleine-Brogel,Vlaanderen,VLG,Limbourg,VLI,Maaseik,72,51.1727,5.4506
BE,3990,Wijchmaal,Vlaanderen,VLG,Limbourg,VLI,Maaseik,72,51.1351,5.4133
BE,9000,Gent,Vlaanderen,VLG,Flandre-Orientale,VOV,Gent,44,51.05,3.7167
BE,9030,Mariakerke,Vlaanderen,VLG,Flandre-Orientale,VOV,Gent,44,51.0748,3.6829
BE,9031,Drongen,Vlaanderen,VLG,Flandre-Orientale,VOV,Gent,44,51.0507,3.6565
BE,9032,Wondelgem,Vlaanderen,VLG,Flandre-Orientale,VOV,Gent,44,51.087,3.7091
BE,9040,Sint-Amandsberg,Vlaanderen,VLG,Flandre-Orientale,VOV,Gent,44,51.0595,3.7494
BE,9041,Oostakker,Vlaanderen,VLG,Flandre-Orientale,VOV,Gent,44,51.1012,3.7695
BE,9042,Sint-Kruis-Winkel,Vlaanderen,VLG,Flandre-Orientale,VOV,Gent,44,51.1558,3.8163
BE,9042,Mendonk,Vlaanderen,VLG,Flandre-Orientale,VOV,Gent,44,51.147,3.8212
BE,9042,Desteldonk,Vlaanderen,VLG,Flandre-Orientale,VOV,Gent,44,51.1219,3.787
BE,9050,Ledeberg,Vlaanderen,VLG,Flandre-Orientale,VOV,Gent,44,51.0386,3.7446
BE,9050,Gentbrugge,Vlaanderen,VLG,Flandre-Orientale,VOV,Gent,44,51.0369,3.7651
BE,9051,Afsnee,Vlaanderen,VLG,Flandre-Orientale,VOV,Gent,44,51.0317,3.6655
BE,9051,Sint-Denijs-Westrem,Vlaanderen,VLG,Flandre-Orientale,VOV,Gent,44,51.0213,3.672
BE,9052,Zwijnaarde,Vlaanderen,VLG,Flandre-Orientale,VOV,Gent,44,51.0008,3.7075
BE,9060,Zelzate,Vlaanderen,VLG,Flandre-Orientale,VOV,Eeklo,43,51.1896,3.8078
BE,9070,Destelbergen,Vlaanderen,VLG,Flandre-Orientale,VOV,Gent,44,51.0595,3.799
BE,9070,Heusden,Vlaanderen,VLG,Flandre-Orientale,VOV,Gent,44,51.0281,3.8043
BE,9080,Lochristi,Vlaanderen,VLG,Flandre-Orientale,VOV,Gent,44,51.0964,3.8319
BE,9080,Zaffelare,Vlaanderen,VLG,Flandre-Orientale,VOV,Gent,44,51.1338,3.8636
BE,9080,Zeveneken,Vlaanderen,VLG,Flandre-Orientale,VOV,Gent,44,51.1078,3.8905
BE,9080,Beervelde,Vlaanderen,VLG,Flandre-Orientale,VOV,Gent,44,51.083,3.8864
BE,9090,Melle,Vlaanderen,VLG,Flandre-Orientale,VOV,Gent,44,51.0023,3.8053
BE,9090,Gontrode,Vlaanderen,VLG,Flandre-Orientale,VOV,Gent,44,50.9838,3.7976
BE,9100,Sint-Niklaas,Vlaanderen,VLG,Flandre-Orientale,VOV,Sint-Niklaas,46,51.1651,4.1437
BE,9100,Nieuwkerken-Waas,Vlaanderen,VLG,Flandre-Orientale,VOV,Sint-Niklaas,46,51.1936,4.1778
BE,9111,Belsele,Vlaanderen,VLG,Flandre-Orientale,VOV,Sint-Niklaas,46,51.146,4.0886
BE,9112,Sinaai-Waas,Vlaanderen,VLG,Flandre-Orientale,VOV,Sint-Niklaas,46,51.1579,4.0409
BE,9120,Haasdonk,Vlaanderen,VLG,Flandre-Orientale,VOV,Sint-Niklaas,46,51.1815,4.2414
BE,9120,Vrasene,Vlaanderen,VLG,Flandre-Orientale,VOV,Sint-Niklaas,46,51.221,4.1909
BE,9120,Melsele,Vlaanderen,VLG,Flandre-Orientale,VOV,Sint-Niklaas,46,51.2229,4.282
BE,9120,Beveren-Waas,Vlaanderen,VLG,Flandre-Orientale,VOV,Sint-Niklaas,46,51.2119,4.2563
BE,9120,Kallo,Vlaanderen,VLG,Flandre-Orientale,VOV,Sint-Niklaas,46,51.2525,4.2755
BE,9130,Kallo,Vlaanderen,VLG,Flandre-Orientale,VOV,Sint-Niklaas,46,51.2525,4.2755
BE,9130,Verrebroek,Vlaanderen,VLG,Flandre-Orientale,VOV,Sint-Niklaas,46,51.2554,4.1888
BE,9130,Doel,Vlaanderen,VLG,Flandre-Orientale,VOV,Sint-Niklaas,46,51.311,4.2642
BE,9130,Kieldrecht,Vlaanderen,VLG,Flandre-Orientale,VOV,Sint-Niklaas,46,51.2891,4.1759
BE,9140,Elversele,Vlaanderen,VLG,Flandre-Orientale,VOV,Sint-Niklaas,46,51.1181,4.149
BE,9140,Steendorp,Vlaanderen,VLG,Flandre-Orientale,VOV,Sint-Niklaas,46,51.1268,4.2703
BE,9140,Tielrode,Vlaanderen,VLG,Flandre-Orientale,VOV,Sint-Niklaas,46,51.113,4.1771
BE,9140,Temse,Vlaanderen,VLG,Flandre-Orientale,VOV,Sint-Niklaas,46,51.1279,4.2137
BE,9150,Kruibeke,Vlaanderen,VLG,Flandre-Orientale,VOV,Sint-Niklaas,46,51.1705,4.3144
BE,9150,Rupelmonde,Vlaanderen,VLG,Flandre-Orientale,VOV,Sint-Niklaas,46,51.1293,4.2943
BE,9150,Bazel,Vlaanderen,VLG,Flandre-Orientale,VOV,Sint-Niklaas,46,51.1474,4.3013
BE,9160,Lokeren,Vlaanderen,VLG,Flandre-Orientale,VOV,Sint-Niklaas,46,51.1036,3.9934
BE,9160,Daknam,Vlaanderen,VLG,Flandre-Orientale,VOV,Sint-Niklaas,46,51.1258,3.9824
BE,9160,Eksaarde,Vlaanderen,VLG,Flandre-Orientale,VOV,Sint-Niklaas,46,51.1488,3.9681
BE,9170,De Klinge,Vlaanderen,VLG,Flandre-Orientale,VOV,Sint-Niklaas,46,51.2563,4.0904
BE,9170,Meerdonk,Vlaanderen,VLG,Flandre-Orientale,VOV,Sint-Niklaas,46,51.2667,4.15
BE,9170,Sint-Pauwels,Vlaanderen,VLG,Flandre-Orientale,VOV,Sint-Niklaas,46,51.1939,4.0965
BE,9170,Sint-Gillis-Waas,Vlaanderen,VLG,Flandre-Orientale,VOV,Sint-Niklaas,46,51.2191,4.1237
BE,9180,Moerbeke-Waas,Vlaanderen,VLG,Flandre-Orientale,VOV,Gent,44,51.1741,3.93
BE,9185,Wachtebeke,Vlaanderen,VLG,Flandre-Orientale,VOV,Gent,44,51.1685,3.8718
BE,9190,Kemzeke,Vlaanderen,VLG,Flandre-Orientale,VOV,Sint-Niklaas,46,51.2098,4.0743
BE,9190,Stekene,Vlaanderen,VLG,Flandre-Orientale,VOV,Sint-Niklaas,46,51.2099,4.0365
BE,9200,Schoonaarde,Vlaanderen,VLG,Flandre-Orientale,VOV,Dendermonde,42,51.0039,4.0152
BE,9200,Sint-Gillis-Dendermonde,Vlaanderen,VLG,Flandre-Orientale,VOV,Dendermonde,42,51.019,4.1115
BE,9200,Appels,Vlaanderen,VLG,Flandre-Orientale,VOV,Dendermonde,42,51.0322,4.0614
BE,9200,Dendermonde,Vlaanderen,VLG,Flandre-Orientale,VOV,Dendermonde,42,51.0287,4.1011
BE,9200,Baasrode,Vlaanderen,VLG,Flandre-Orientale,VOV,Dendermonde,42,51.0381,4.1546
BE,9200,Oudegem,Vlaanderen,VLG,Flandre-Orientale,VOV,Dendermonde,42,51.0102,4.0619
BE,9200,Mespelare,Vlaanderen,VLG,Flandre-Orientale,VOV,Dendermonde,42,50.9961,4.0688
BE,9200,Grembergen,Vlaanderen,VLG,Flandre-Orientale,VOV,Dendermonde,42,51.0541,4.1046
BE,9220,Moerzeke,Vlaanderen,VLG,Flandre-Orientale,VOV,Dendermonde,42,51.0691,4.1614
BE,9220,Hamme,Vlaanderen,VLG,Flandre-Orientale,VOV,Dendermonde,42,51.0982,4.137
BE,9230,Massemen,Vlaanderen,VLG,Flandre-Orientale,VOV,Dendermonde,42,50.9809,3.8739
BE,9230,Wetteren,Vlaanderen,VLG,Flandre-Orientale,VOV,Dendermonde,42,51.0053,3.8834
BE,9230,Westrem,Vlaanderen,VLG,Flandre-Orientale,VOV,Dendermonde,42,50.9691,3.862
BE,9240,Zele,Vlaanderen,VLG,Flandre-Orientale,VOV,Dendermonde,42,51.0657,4.0403
BE,9250,Waasmunster,Vlaanderen,VLG,Flandre-Orientale,VOV,Dendermonde,42,51.1057,4.0857
BE,9255,Buggenhout,Vlaanderen,VLG,Flandre-Orientale,VOV,Dendermonde,42,51.0159,4.2017
BE,9255,Opdorp,Vlaanderen,VLG,Flandre-Orientale,VOV,Dendermonde,42,51.0281,4.218
BE,9260,Schellebelle,Vlaanderen,VLG,Flandre-Orientale,VOV,Dendermonde,42,51.0109,3.9085
BE,9260,Serskamp,Vlaanderen,VLG,Flandre-Orientale,VOV,Dendermonde,42,50.9885,3.9266
BE,9260,Wichelen,Vlaanderen,VLG,Flandre-Orientale,VOV,Dendermonde,42,51.0053,3.9768
BE,9270,Laarne,Vlaanderen,VLG,Flandre-Orientale,VOV,Dendermonde,42,51.0308,3.8508
BE,9270,Kalken,Vlaanderen,VLG,Flandre-Orientale,VOV,Dendermonde,42,51.0384,3.9186
BE,9280,Lebbeke,Vlaanderen,VLG,Flandre-Orientale,VOV,Dendermonde,42,51.0046,4.1346
BE,9280,Denderbelle,Vlaanderen,VLG,Flandre-Orientale,VOV,Dendermonde,42,51.0014,4.0907
BE,9280,Wieze,Vlaanderen,VLG,Flandre-Orientale,VOV,Dendermonde,42,50.9769,4.0788
BE,9290,Overmere,Vlaanderen,VLG,Flandre-Orientale,VOV,Dendermonde,42,51.0469,3.9466
BE,9290,Berlare,Vlaanderen,VLG,Flandre-Orientale,VOV,Dendermonde,42,51.0333,4
BE,9290,Uitbergen,Vlaanderen,VLG,Flandre-Orientale,VOV,Dendermonde,42,51.0215,3.9551
BE,9300,Aalst,Vlaanderen,VLG,Flandre-Orientale,VOV,Aalst,41,50.936,4.0355
BE,9308,Hofstade,Vlaanderen,VLG,Flandre-Orientale,VOV,Aalst,41,50.9613,4.0266
BE,9308,Gijzegem,Vlaanderen,VLG,Flandre-Orientale,VOV,Aalst,41,50.986,4.0494
BE,9310,Herdersem,Vlaanderen,VLG,Flandre-Orientale,VOV,Aalst,41,50.9719,4.0667
BE,9310,Meldert,Vlaanderen,VLG,Flandre-Orientale,VOV,Aalst,41,50.9345,4.135
BE,9310,Baardegem,Vlaanderen,VLG,Flandre-Orientale,VOV,Aalst,41,50.9548,4.142
BE,9310,Moorsel,Vlaanderen,VLG,Flandre-Orientale,VOV,Aalst,41,50.9474,4.0983
BE,9320,Erembodegem,Vlaanderen,VLG,Flandre-Orientale,VOV,Aalst,41,50.919,4.0504
BE,9320,Nieuwerkerken,Vlaanderen,VLG,Flandre-Orientale,VOV,Aalst,41,50.9239,4.0043
BE,9340,Lede,Vlaanderen,VLG,Flandre-Orientale,VOV,Aalst,41,50.9663,3.9859
BE,9340,Oordegem,Vlaanderen,VLG,Flandre-Orientale,VOV,Aalst,41,50.9573,3.902
BE,9340,Impe,Vlaanderen,VLG,Flandre-Orientale,VOV,Aalst,41,50.9605,3.9501
BE,9340,Smetlede,Vlaanderen,VLG,Flandre-Orientale,VOV,Aalst,41,50.9662,3.928
BE,9340,Wanzele,Vlaanderen,VLG,Flandre-Orientale,VOV,Aalst,41,50.9742,3.9564
BE,9400,Appelterre-Eichem,Vlaanderen,VLG,Flandre-Orientale,VOV,Aalst,41,50.816,3.9781
BE,9400,Nederhasselt,Vlaanderen,VLG,Flandre-Orientale,VOV,Aalst,41,50.8465,3.975
BE,9400,Denderwindeke,Vlaanderen,VLG,Flandre-Orientale,VOV,Aalst,41,50.7973,4.0251
BE,9400,Ninove,Vlaanderen,VLG,Flandre-Orientale,VOV,Aalst,41,50.8278,4.0266
BE,9400,Lieferinge,Vlaanderen,VLG,Flandre-Orientale,VOV,Aalst,41,50.7925,4.0519
BE,9400,Okegem,Vlaanderen,VLG,Flandre-Orientale,VOV,Aalst,41,50.8556,4.0552
BE,9400,Voorde,Vlaanderen,VLG,Flandre-Orientale,VOV,Aalst,41,50.8231,3.9493
BE,9401,Pollare,Vlaanderen,VLG,Flandre-Orientale,VOV,Aalst,41,50.8171,4.006
BE,9402,Meerbeke,Vlaanderen,VLG,Flandre-Orientale,VOV,Aalst,41,50.8244,4.0367
BE,9403,Neigem,Vlaanderen,VLG,Flandre-Orientale,VOV,Aalst,41,50.8027,4.0599
BE,9404,Aspelare,Vlaanderen,VLG,Flandre-Orientale,VOV,Aalst,41,50.8419,3.9574
BE,9406,Outer,Vlaanderen,VLG,Flandre-Orientale,VOV,Aalst,41,50.8419,3.9987
BE,9420,Ottergem,Vlaanderen,VLG,Flandre-Orientale,VOV,Aalst,41,50.9342,3.9471
BE,9420,Bambrugge,Vlaanderen,VLG,Flandre-Orientale,VOV,Aalst,41,50.9212,3.9299
BE,9420,Erondegem,Vlaanderen,VLG,Flandre-Orientale,VOV,Aalst,41,50.9412,3.9561
BE,9420,Erpe-Mere,Vlaanderen,VLG,Flandre-Orientale,VOV,Aalst,41,50.9215,3.932
BE,9420,Mere,Vlaanderen,VLG,Flandre-Orientale,VOV,Aalst,41,50.9,3.8667
BE,9420,Burst,Vlaanderen,VLG,Flandre-Orientale,VOV,Aalst,41,50.915,3.9164
BE,9420,Vlekkem,Vlaanderen,VLG,Flandre-Orientale,VOV,Aalst,41,50.9359,3.9306
BE,9420,Aaigem,Vlaanderen,VLG,Flandre-Orientale,VOV,Aalst,41,50.8892,3.9367
BE,9420,Erpe,Vlaanderen,VLG,Flandre-Orientale,VOV,Aalst,41,50.9357,3.9722
BE,9450,Heldergem,Vlaanderen,VLG,Flandre-Orientale,VOV,Aalst,41,50.878,3.9579
BE,9450,Haaltert,Vlaanderen,VLG,Flandre-Orientale,VOV,Aalst,41,50.9063,4.0009
BE,9450,Denderhoutem,Vlaanderen,VLG,Flandre-Orientale,VOV,Aalst,41,50.8723,4.0182
BE,9451,Kerksken,Vlaanderen,VLG,Flandre-Orientale,VOV,Aalst,41,50.8907,3.9948
BE,9470,Denderleeuw,Vlaanderen,VLG,Flandre-Orientale,VOV,Aalst,41,50.8851,4.076
BE,9472,Iddergem,Vlaanderen,VLG,Flandre-Orientale,VOV,Aalst,41,50.8763,4.0443
BE,9473,Welle,Vlaanderen,VLG,Flandre-Orientale,VOV,Aalst,41,50.8988,4.056
BE,9500,Onkerzele,Vlaanderen,VLG,Flandre-Orientale,VOV,Aalst,41,50.7821,3.9114
BE,9500,Ophasselt,Vlaanderen,VLG,Flandre-Orientale,VOV,Aalst,41,50.8173,3.8929
BE,9500,Overboelare,Vlaanderen,VLG,Flandre-Orientale,VOV,Aalst,41,50.7638,3.8637
BE,9500,Geraardsbergen,Vlaanderen,VLG,Flandre-Orientale,VOV,Aalst,41,50.7734,3.8822
BE,9500,Zarlardinge,Vlaanderen,VLG,Flandre-Orientale,VOV,Aalst,41,50.7621,3.8285
BE,9500,Viane,Vlaanderen,VLG,Flandre-Orientale,VOV,Aalst,41,50.7423,3.9248
BE,9500,Goeferdinge,Vlaanderen,VLG,Flandre-Orientale,VOV,Aalst,41,50.7661,3.8398
BE,9500,Moerbeke,Vlaanderen,VLG,Flandre-Orientale,VOV,Aalst,41,50.7525,3.9172
BE,9500,Nederboelare,Vlaanderen,VLG,Flandre-Orientale,VOV,Aalst,41,50.776,3.8715
BE,9506,Grimminge,Vlaanderen,VLG,Flandre-Orientale,VOV,Aalst,41,50.7943,3.952
BE,9506,Waarbeke,Vlaanderen,VLG,Flandre-Orientale,VOV,Aalst,41,50.7776,3.968
BE,9506,Idegem,Vlaanderen,VLG,Flandre-Orientale,VOV,Aalst,41,50.8018,3.926
BE,9506,Nieuwenhove,Vlaanderen,VLG,Flandre-Orientale,VOV,Aalst,41,50.7889,3.993
BE,9506,Schendelbeke,Vlaanderen,VLG,Flandre-Orientale,VOV,Aalst,41,50.7987,3.8988
BE,9506,Zandbergen,Vlaanderen,VLG,Flandre-Orientale,VOV,Aalst,41,50.8028,3.9664
BE,9506,Smeerebbe-Vloerzegem,Vlaanderen,VLG,Flandre-Orientale,VOV,Aalst,41,50.817,3.9277
BE,9520,Vlierzele,Vlaanderen,VLG,Flandre-Orientale,VOV,Aalst,41,50.9317,3.8959
BE,9520,Sint-Lievens-Houtem,Vlaanderen,VLG,Flandre-Orientale,VOV,Aalst,41,50.9197,3.8623
BE,9520,Oombergen,Vlaanderen,VLG,Flandre-Orientale,VOV,Aalst,41,50.8986,3.8334
BE,9520,Bavegem,Vlaanderen,VLG,Flandre-Orientale,VOV,Aalst,41,50.9444,3.865
BE,9520,Zonnegem,Vlaanderen,VLG,Flandre-Orientale,VOV,Aalst,41,50.9268,3.9087
BE,9521,Letterhoutem,Vlaanderen,VLG,Flandre-Orientale,VOV,Aalst,41,50.9277,3.8797
BE,9550,Steenhuize-Wijnhuize,Vlaanderen,VLG,Flandre-Orientale,VOV,Aalst,41,50.8397,3.8881
BE,9550,Sint-Lievens-Esse,Vlaanderen,VLG,Flandre-Orientale,VOV,Aalst,41,50.8566,3.8879
BE,9550,Hillegem,Vlaanderen,VLG,Flandre-Orientale,VOV,Aalst,41,50.8957,3.8531
BE,9550,Sint-Antelinks,Vlaanderen,VLG,Flandre-Orientale,VOV,Aalst,41,50.8498,3.9265
BE,9550,Woubrechtegem,Vlaanderen,VLG,Flandre-Orientale,VOV,Aalst,41,50.8736,3.9158
BE,9550,Herzele,Vlaanderen,VLG,Flandre-Orientale,VOV,Aalst,41,50.8868,3.8901
BE,9551,Ressegem,Vlaanderen,VLG,Flandre-Orientale,VOV,Aalst,41,50.8911,3.9113
BE,9552,Borsbeke,Vlaanderen,VLG,Flandre-Orientale,VOV,Aalst,41,50.9063,3.89
BE,9570,Lierde,Vlaanderen,VLG,Flandre-Orientale,VOV,Oudenaarde,45,50.8041,3.844
BE,9570,Sint-Maria-Lierde,Vlaanderen,VLG,Flandre-Orientale,VOV,Oudenaarde,45,50.8217,3.8481
BE,9570,Deftinge,Vlaanderen,VLG,Flandre-Orientale,VOV,Oudenaarde,45,50.7866,3.8398
BE,9571,Hemelveerdegem,Vlaanderen,VLG,Flandre-Orientale,VOV,Oudenaarde,45,50.8073,3.8576
BE,9572,Sint-Martens-Lierde,Vlaanderen,VLG,Flandre-Orientale,VOV,Oudenaarde,45,50.8037,3.8254
BE,9600,Renaix,Vlaanderen,VLG,Flandre-Orientale,VOV,Oudenaarde,45,50.7457,3.6005
BE,9620,Leeuwergem,Vlaanderen,VLG,Flandre-Orientale,VOV,Aalst,41,50.8872,3.8116
BE,9620,Grotenberge,Vlaanderen,VLG,Flandre-Orientale,VOV,Aalst,41,50.8733,3.8228
BE,9620,Sint-Goriks-Oudenhove,Vlaanderen,VLG,Flandre-Orientale,VOV,Aalst,41,50.8528,3.7861
BE,9620,Elene,Vlaanderen,VLG,Flandre-Orientale,VOV,Aalst,41,50.89,3.81
BE,9620,Strijpen,Vlaanderen,VLG,Flandre-Orientale,VOV,Aalst,41,50.868,3.788
BE,9620,Erwetegem,Vlaanderen,VLG,Flandre-Orientale,VOV,Aalst,41,50.8555,3.8144
BE,9620,Godveerdegem,Vlaanderen,VLG,Flandre-Orientale,VOV,Aalst,41,50.8593,3.8209
BE,9620,Velzeke-Ruddershove,Vlaanderen,VLG,Flandre-Orientale,VOV,Aalst,41,50.8829,3.7829
BE,9620,Sint-Maria-Oudenhove,Vlaanderen,VLG,Flandre-Orientale,VOV,Aalst,41,50.8336,3.7956
BE,9620,Oombergen,Vlaanderen,VLG,Flandre-Orientale,VOV,Aalst,41,50.8986,3.8334
BE,9620,Zottegem,Vlaanderen,VLG,Flandre-Orientale,VOV,Aalst,41,50.8696,3.8105
BE,9630,Sint-Maria-Latem,Vlaanderen,VLG,Flandre-Orientale,VOV,Oudenaarde,45,50.8901,3.7064
BE,9630,Paulatem,Vlaanderen,VLG,Flandre-Orientale,VOV,Oudenaarde,45,50.897,3.7177
BE,9630,Zwalm,Vlaanderen,VLG,Flandre-Orientale,VOV,Oudenaarde,45,50.882,3.7277
BE,9630,Beerlegem,Vlaanderen,VLG,Flandre-Orientale,VOV,Oudenaarde,45,50.906,3.717
BE,9630,Dikkele,Vlaanderen,VLG,Flandre-Orientale,VOV,Oudenaarde,45,50.9047,3.7403
BE,9630,Munkzwalm,Vlaanderen,VLG,Flandre-Orientale,VOV,Oudenaarde,45,50.8768,3.735
BE,9630,Hundelgem,Vlaanderen,VLG,Flandre-Orientale,VOV,Oudenaarde,45,50.8889,3.7512
BE,9630,Meilegem,Vlaanderen,VLG,Flandre-Orientale,VOV,Oudenaarde,45,50.9054,3.6982
BE,9630,Roborst,Vlaanderen,VLG,Flandre-Orientale,VOV,Oudenaarde,45,50.8666,3.753
BE,9630,Sint-Denijs-Boekel,Vlaanderen,VLG,Flandre-Orientale,VOV,Oudenaarde,45,50.8651,3.7116
BE,9630,Rozebeke,Vlaanderen,VLG,Flandre-Orientale,VOV,Oudenaarde,45,50.8495,3.7522
BE,9630,Sint-Blasius-Boekel,Vlaanderen,VLG,Flandre-Orientale,VOV,Oudenaarde,45,50.8523,3.7224
BE,9636,Nederzwalm-Hermelgem,Vlaanderen,VLG,Flandre-Orientale,VOV,Oudenaarde,45,50.8833,3.6833
BE,9660,Nederbrakel,Vlaanderen,VLG,Flandre-Orientale,VOV,Oudenaarde,45,50.801,3.7626
BE,9660,Michelbeke,Vlaanderen,VLG,Flandre-Orientale,VOV,Oudenaarde,45,50.8355,3.7625
BE,9660,Sint-Maria-Oudenhove,Vlaanderen,VLG,Flandre-Orientale,VOV,Oudenaarde,45,50.833,3.638
BE,9660,Everbeek,Vlaanderen,VLG,Flandre-Orientale,VOV,Oudenaarde,45,50.7626,3.8085
BE,9660,Brakel,Vlaanderen,VLG,Flandre-Orientale,VOV,Oudenaarde,45,50.801,3.7626
BE,9660,Elst,Vlaanderen,VLG,Flandre-Orientale,VOV,Oudenaarde,45,50.8302,3.7392
BE,9660,Zegelsem,Vlaanderen,VLG,Flandre-Orientale,VOV,Oudenaarde,45,50.8189,3.7178
BE,9660,Opbrakel,Vlaanderen,VLG,Flandre-Orientale,VOV,Oudenaarde,45,50.792,3.7486
BE,9661,Parike,Vlaanderen,VLG,Flandre-Orientale,VOV,Oudenaarde,45,50.7849,3.7975
BE,9667,Sint-Maria-Horebeke,Vlaanderen,VLG,Flandre-Orientale,VOV,Oudenaarde,45,50.8388,3.6875
BE,9667,Horebeke,Vlaanderen,VLG,Flandre-Orientale,VOV,Oudenaarde,45,50.8367,3.6929
BE,9667,Sint-Kornelis-Horebeke,Vlaanderen,VLG,Flandre-Orientale,VOV,Oudenaarde,45,50.8345,3.6983
BE,9680,Etikhove,Vlaanderen,VLG,Flandre-Orientale,VOV,Oudenaarde,45,50.8116,3.6249
BE,9680,Maarkedal,Vlaanderen,VLG,Flandre-Orientale,VOV,Oudenaarde,45,50.816,3.6451
BE,9680,Maarke-Kerkem,Vlaanderen,VLG,Flandre-Orientale,VOV,Oudenaarde,45,50.8204,3.6653
BE,9681,Nukerke,Vlaanderen,VLG,Flandre-Orientale,VOV,Oudenaarde,45,50.7956,3.5949
BE,9688,Schorisse,Vlaanderen,VLG,Flandre-Orientale,VOV,Oudenaarde,45,50.8031,3.6763
BE,9690,Ruien,Vlaanderen,VLG,Flandre-Orientale,VOV,Oudenaarde,45,50.7686,3.4858
BE,9690,Zulzeke,Vlaanderen,VLG,Flandre-Orientale,VOV,Oudenaarde,45,50.7917,3.5705
BE,9690,Berchem,Vlaanderen,VLG,Flandre-Orientale,VOV,Oudenaarde,45,50.779,3.5267
BE,9690,Kluisbergen,Vlaanderen,VLG,Flandre-Orientale,VOV,Oudenaarde,45,50.779,3.5267
BE,9690,Kwaremont,Vlaanderen,VLG,Flandre-Orientale,VOV,Oudenaarde,45,50.7768,3.5238
BE,9700,Nederename,Vlaanderen,VLG,Flandre-Orientale,VOV,Oudenaarde,45,50.8638,3.6368
BE,9700,Welden,Vlaanderen,VLG,Flandre-Orientale,VOV,Oudenaarde,45,50.8768,3.6545
BE,9700,Oudenaarde,Vlaanderen,VLG,Flandre-Orientale,VOV,Oudenaarde,45,50.8517,3.6089
BE,9700,Mullem,Vlaanderen,VLG,Flandre-Orientale,VOV,Oudenaarde,45,50.8967,3.6053
BE,9700,Bevere,Vlaanderen,VLG,Flandre-Orientale,VOV,Oudenaarde,45,50.8496,3.5873
BE,9700,Eine,Vlaanderen,VLG,Flandre-Orientale,VOV,Oudenaarde,45,50.8673,3.6182
BE,9700,Ooike,Vlaanderen,VLG,Flandre-Orientale,VOV,Oudenaarde,45,50.8711,3.5524
BE,9700,Melden,Vlaanderen,VLG,Flandre-Orientale,VOV,Oudenaarde,45,50.8145,3.5654
BE,9700,Mater,Vlaanderen,VLG,Flandre-Orientale,VOV,Oudenaarde,45,50.8432,3.6626
BE,9700,Leupegem,Vlaanderen,VLG,Flandre-Orientale,VOV,Oudenaarde,45,50.8362,3.6124
BE,9700,Volkegem,Vlaanderen,VLG,Flandre-Orientale,VOV,Oudenaarde,45,50.8411,3.6402
BE,9700,Heurne,Vlaanderen,VLG,Flandre-Orientale,VOV,Oudenaarde,45,50.881,3.626
BE,9700,Ename,Vlaanderen,VLG,Flandre-Orientale,VOV,Oudenaarde,45,50.8585,3.6366
BE,9700,Edelare,Vlaanderen,VLG,Flandre-Orientale,VOV,Oudenaarde,45,50.833,3.6279
BE,9750,Ouwegem,Vlaanderen,VLG,Flandre-Orientale,VOV,Oudenaarde,45,50.9123,3.5998
BE,9750,Huise,Vlaanderen,VLG,Flandre-Orientale,VOV,Oudenaarde,45,50.9006,3.591
BE,9750,Zingem,Vlaanderen,VLG,Flandre-Orientale,VOV,Oudenaarde,45,50.9041,3.653
BE,9770,Kruishoutem,Vlaanderen,VLG,Flandre-Orientale,VOV,Oudenaarde,45,50.9017,3.5259
BE,9770,Kruisem,Vlaanderen,VLG,Flandre-Orientale,VOV,Oudenaarde,45,50.9017,3.5259
BE,9771,Nokere,Vlaanderen,VLG,Flandre-Orientale,VOV,Oudenaarde,45,50.8854,3.5101
BE,9772,Wannegem-Lede,Vlaanderen,VLG,Flandre-Orientale,VOV,Oudenaarde,45,50.8904,3.5514
BE,9790,Elsegem,Vlaanderen,VLG,Flandre-Orientale,VOV,Oudenaarde,45,50.8236,3.536
BE,9790,Wortegem-Petegem,Vlaanderen,VLG,Flandre-Orientale,VOV,Oudenaarde,45,50.8465,3.5432
BE,9790,Moregem,Vlaanderen,VLG,Flandre-Orientale,VOV,Oudenaarde,45,50.8507,3.5615
BE,9790,Wortegem,Vlaanderen,VLG,Flandre-Orientale,VOV,Oudenaarde,45,50.8536,3.51
BE,9790,Petegem-Aan-De-Schelde,Vlaanderen,VLG,Flandre-Orientale,VOV,Oudenaarde,45,50.8334,3.5561
BE,9790,Ooike,Vlaanderen,VLG,Flandre-Orientale,VOV,Oudenaarde,45,50.8711,3.5524
BE,9800,Petegem-Aan-De-Leie,Vlaanderen,VLG,Flandre-Orientale,VOV,Gent,44,50.9667,3.5333
BE,9800,Zeveren,Vlaanderen,VLG,Flandre-Orientale,VOV,Gent,44,50.9964,3.499
BE,9800,Astene,Vlaanderen,VLG,Flandre-Orientale,VOV,Gent,44,50.9851,3.5665
BE,9800,Meigem,Vlaanderen,VLG,Flandre-Orientale,VOV,Gent,44,51.0175,3.5411
BE,9800,Deinze,Vlaanderen,VLG,Flandre-Orientale,VOV,Gent,44,50.9817,3.531
BE,9800,Vinkt,Vlaanderen,VLG,Flandre-Orientale,VOV,Gent,44,51.0086,3.4788
BE,9800,Grammene,Vlaanderen,VLG,Flandre-Orientale,VOV,Gent,44,50.9778,3.4671
BE,9800,Sint-Martens-Leerne,Vlaanderen,VLG,Flandre-Orientale,VOV,Gent,44,51.012,3.606
BE,9800,Gottem,Vlaanderen,VLG,Flandre-Orientale,VOV,Gent,44,50.9642,3.4639
BE,9800,Wontergem,Vlaanderen,VLG,Flandre-Orientale,VOV,Gent,44,50.9791,3.4403
BE,9800,Bachte-Maria-Leerne,Vlaanderen,VLG,Flandre-Orientale,VOV,Gent,44,51.0113,3.5815
BE,9810,Eke,Vlaanderen,VLG,Flandre-Orientale,VOV,Gent,44,50.9593,3.6396
BE,9810,Nazareth,Vlaanderen,VLG,Flandre-Orientale,VOV,Gent,44,51,3.65
BE,9820,Melsen,Vlaanderen,VLG,Flandre-Orientale,VOV,Gent,44,50.9562,3.6957
BE,9820,Munte,Vlaanderen,VLG,Flandre-Orientale,VOV,Gent,44,50.9444,3.7427
BE,9820,Bottelare,Vlaanderen,VLG,Flandre-Orientale,VOV,Gent,44,50.9641,3.7549
BE,9820,Lemberge,Vlaanderen,VLG,Flandre-Orientale,VOV,Gent,44,50.9763,3.7705
BE,9820,Schelderode,Vlaanderen,VLG,Flandre-Orientale,VOV,Gent,44,50.9692,3.7133
BE,9820,Merelbeke,Vlaanderen,VLG,Flandre-Orientale,VOV,Gent,44,50.9945,3.7462
BE,9830,Sint-Martens-Latem,Vlaanderen,VLG,Flandre-Orientale,VOV,Gent,44,51.0146,3.6378
BE,9831,Deurle,Vlaanderen,VLG,Flandre-Orientale,VOV,Gent,44,51.0041,3.6147
BE,9840,De Pinte,Vlaanderen,VLG,Flandre-Orientale,VOV,Gent,44,50.9934,3.6475
BE,9840,Zevergem,Vlaanderen,VLG,Flandre-Orientale,VOV,Gent,44,50.9793,3.6932
BE,9850,Poesele,Vlaanderen,VLG,Flandre-Orientale,VOV,Gent,44,51.0345,3.5169
BE,9850,Landegem,Vlaanderen,VLG,Flandre-Orientale,VOV,Gent,44,51.0552,3.5767
BE,9850,Hansbeke,Vlaanderen,VLG,Flandre-Orientale,VOV,Gent,44,51.0744,3.5357
BE,9850,Vosselare,Vlaanderen,VLG,Flandre-Orientale,VOV,Gent,44,51.0289,3.5566
BE,9850,Nevele,Vlaanderen,VLG,Flandre-Orientale,VOV,Gent,44,51.0353,3.5457
BE,9850,Merendree,Vlaanderen,VLG,Flandre-Orientale,VOV,Gent,44,51.0766,3.576
BE,9860,Oosterzele,Vlaanderen,VLG,Flandre-Orientale,VOV,Gent,44,50.9526,3.7983
BE,9860,Gijzenzele,Vlaanderen,VLG,Flandre-Orientale,VOV,Gent,44,50.971,3.817
BE,9860,Balegem,Vlaanderen,VLG,Flandre-Orientale,VOV,Gent,44,50.9257,3.7908
BE,9860,Landskouter,Vlaanderen,VLG,Flandre-Orientale,VOV,Gent,44,50.9695,3.7934
BE,9860,Scheldewindeke,Vlaanderen,VLG,Flandre-Orientale,VOV,Gent,44,50.9344,3.7866
BE,9860,Moortsele,Vlaanderen,VLG,Flandre-Orientale,VOV,Gent,44,50.9586,3.7775
BE,9870,Olsene,Vlaanderen,VLG,Flandre-Orientale,VOV,Gent,44,50.9342,3.4639
BE,9870,Machelen,Vlaanderen,VLG,Flandre-Orientale,VOV,Gent,44,50.9597,3.4905
BE,9870,Zulte,Vlaanderen,VLG,Flandre-Orientale,VOV,Gent,44,50.9195,3.4486
BE,9880,Aalter,Vlaanderen,VLG,Flandre-Orientale,VOV,Gent,44,51.0902,3.4469
BE,9880,Poeke,Vlaanderen,VLG,Flandre-Orientale,VOV,Gent,44,51.0394,3.4454
BE,9880,Lotenhulle,Vlaanderen,VLG,Flandre-Orientale,VOV,Gent,44,51.0502,3.4616
BE,9881,Bellem,Vlaanderen,VLG,Flandre-Orientale,VOV,Gent,44,51.094,3.4928
BE,9890,Semmerzake,Vlaanderen,VLG,Flandre-Orientale,VOV,Gent,44,50.9437,3.6632
BE,9890,Gavere,Vlaanderen,VLG,Flandre-Orientale,VOV,Gent,44,50.9292,3.6618
BE,9890,Vurste,Vlaanderen,VLG,Flandre-Orientale,VOV,Gent,44,50.9432,3.6831
BE,9890,Dikkelvenne,Vlaanderen,VLG,Flandre-Orientale,VOV,Gent,44,50.9193,3.6951
BE,9890,Baaigem,Vlaanderen,VLG,Flandre-Orientale,VOV,Gent,44,50.932,3.7203
BE,9890,Asper,Vlaanderen,VLG,Flandre-Orientale,VOV,Gent,44,50.9137,3.6513
BE,9900,Eeklo,Vlaanderen,VLG,Flandre-Orientale,VOV,Eeklo,43,51.187,3.5565
BE,9910,Knesselare,Vlaanderen,VLG,Flandre-Orientale,VOV,Gent,44,51.1393,3.4128
BE,9910,Ursel,Vlaanderen,VLG,Flandre-Orientale,VOV,Gent,44,51.129,3.4865
BE,9920,Lovendegem,Vlaanderen,VLG,Flandre-Orientale,VOV,Gent,44,51.1017,3.613
BE,9921,Vinderhoute,Vlaanderen,VLG,Flandre-Orientale,VOV,Gent,44,51.0876,3.6416
BE,9930,Zomergem,Vlaanderen,VLG,Flandre-Orientale,VOV,Gent,44,51.1199,3.565
BE,9930,Lievegem,Vlaanderen,VLG,Flandre-Orientale,VOV,Gent,44,51.1199,3.565
BE,9931,Oostwinkel,Vlaanderen,VLG,Flandre-Orientale,VOV,Gent,44,51.1515,3.532
BE,9932,Ronsele,Vlaanderen,VLG,Flandre-Orientale,VOV,Gent,44,51.1306,3.5518
BE,9940,Kluizen,Vlaanderen,VLG,Flandre-Orientale,VOV,Gent,44,51.1582,3.7319
BE,9940,Ertvelde,Vlaanderen,VLG,Flandre-Orientale,VOV,Gent,44,51.1792,3.7472
BE,9940,Evergem,Vlaanderen,VLG,Flandre-Orientale,VOV,Gent,44,51.1131,3.7098
BE,9940,Sleidinge,Vlaanderen,VLG,Flandre-Orientale,VOV,Gent,44,51.1336,3.674
BE,9950,Waarschoot,Vlaanderen,VLG,Flandre-Orientale,VOV,Gent,44,51.1525,3.605
BE,9960,Assenede,Vlaanderen,VLG,Flandre-Orientale,VOV,Eeklo,43,51.226,3.7509
BE,9961,Boekhoute,Vlaanderen,VLG,Flandre-Orientale,VOV,Eeklo,43,51.2586,3.7178
BE,9968,Bassevelde,Vlaanderen,VLG,Flandre-Orientale,VOV,Eeklo,43,51.231,3.678
BE,9968,Oosteeklo,Vlaanderen,VLG,Flandre-Orientale,VOV,Eeklo,43,51.193,3.6893
BE,9970,Kaprijke,Vlaanderen,VLG,Flandre-Orientale,VOV,Eeklo,43,51.2172,3.6152
BE,9971,Lembeke,Vlaanderen,VLG,Flandre-Orientale,VOV,Eeklo,43,51.1949,3.6333
BE,9980,Sint-Laureins,Vlaanderen,VLG,Flandre-Orientale,VOV,Eeklo,43,51.242,3.5244
BE,9981,Sint-Margriete,Vlaanderen,VLG,Flandre-Orientale,VOV,Eeklo,43,51.2822,3.5464
BE,9982,Sint-Jan-In-Eremo,Vlaanderen,VLG,Flandre-Orientale,VOV,Eeklo,43,51.2716,3.5806
BE,9988,Waterland-Oudeman,Vlaanderen,VLG,Flandre-Orientale,VOV,Eeklo,43,51.2887,3.5899
BE,9988,Watervliet,Vlaanderen,VLG,Flandre-Orientale,VOV,Eeklo,43,51.2749,3.626
BE,9990,Maldegem,Vlaanderen,VLG,Flandre-Orientale,VOV,Eeklo,43,51.2074,3.4451
BE,9991,Adegem,Vlaanderen,VLG,Flandre-Orientale,VOV,Eeklo,43,51.2051,3.4954
BE,9992,Middelburg,Vlaanderen,VLG,Flandre-Orientale,VOV,Eeklo,43,51.2561,3.416
BE,8000,Koolkerke,Vlaanderen,VLG,Flandre-Occidentale,VWV,Brugge,31,51.2393,3.2475
BE,8000,Brugge,Vlaanderen,VLG,Flandre-Occidentale,VWV,Brugge,31,51.2089,3.2242
BE,8020,Hertsberge,Vlaanderen,VLG,Flandre-Occidentale,VWV,Brugge,31,51.1073,3.2694
BE,8020,Waardamme,Vlaanderen,VLG,Flandre-Occidentale,VWV,Brugge,31,51.1114,3.2229
BE,8020,Oostkamp,Vlaanderen,VLG,Flandre-Occidentale,VWV,Brugge,31,51.1543,3.2313
BE,8020,Ruddervoorde,Vlaanderen,VLG,Flandre-Occidentale,VWV,Brugge,31,51.0959,3.2074
BE,8200,Sint-Michiels,Vlaanderen,VLG,Flandre-Occidentale,VWV,Brugge,31,51.1881,3.2114
BE,8200,Sint-Andries,Vlaanderen,VLG,Flandre-Occidentale,VWV,Brugge,31,51.197,3.1789
BE,8210,Loppem,Vlaanderen,VLG,Flandre-Occidentale,VWV,Brugge,31,51.1566,3.196
BE,8210,Veldegem,Vlaanderen,VLG,Flandre-Occidentale,VWV,Brugge,31,51.1048,3.1591
BE,8210,Zedelgem,Vlaanderen,VLG,Flandre-Occidentale,VWV,Brugge,31,51.1424,3.1368
BE,8211,Aartrijke,Vlaanderen,VLG,Flandre-Occidentale,VWV,Brugge,31,51.1191,3.0908
BE,8300,Knokke-Heist,Vlaanderen,VLG,Flandre-Occidentale,VWV,Brugge,31,51.35,3.2667
BE,8300,Westkapelle,Vlaanderen,VLG,Flandre-Occidentale,VWV,Brugge,31,51.3151,3.3017
BE,8300,Knokke,Vlaanderen,VLG,Flandre-Occidentale,VWV,Brugge,31,51.3511,3.2874
BE,8301,Heist-Aan-Zee,Vlaanderen,VLG,Flandre-Occidentale,VWV,Brugge,31,51.3387,3.2388
BE,8301,Ramskapelle,Vlaanderen,VLG,Flandre-Occidentale,VWV,Brugge,31,51.3151,3.2506
BE,8310,Assebroek,Vlaanderen,VLG,Flandre-Occidentale,VWV,Brugge,31,51.1937,3.2623
BE,8310,Sint-Kruis,Vlaanderen,VLG,Flandre-Occidentale,VWV,Brugge,31,51.214,3.2495
BE,8340,Hoeke,Vlaanderen,VLG,Flandre-Occidentale,VWV,Brugge,31,51.292,3.3349
BE,8340,Sijsele,Vlaanderen,VLG,Flandre-Occidentale,VWV,Brugge,31,51.2085,3.3171
BE,8340,Damme,Vlaanderen,VLG,Flandre-Occidentale,VWV,Brugge,31,51.2515,3.2814
BE,8340,Oostkerke,Vlaanderen,VLG,Flandre-Occidentale,VWV,Brugge,31,51.2772,3.2961
BE,8340,Lapscheure,Vlaanderen,VLG,Flandre-Occidentale,VWV,Brugge,31,51.2777,3.3566
BE,8340,Moerkerke,Vlaanderen,VLG,Flandre-Occidentale,VWV,Brugge,31,51.2455,3.3425
BE,8370,Uitkerke,Vlaanderen,VLG,Flandre-Occidentale,VWV,Brugge,31,51.3068,3.1371
BE,8370,Blankenberge,Vlaanderen,VLG,Flandre-Occidentale,VWV,Brugge,31,51.3131,3.1323
BE,8377,Zuienkerke,Vlaanderen,VLG,Flandre-Occidentale,VWV,Brugge,31,51.2651,3.1551
BE,8377,Meetkerke,Vlaanderen,VLG,Flandre-Occidentale,VWV,Brugge,31,51.2354,3.1517
BE,8377,Houtave,Vlaanderen,VLG,Flandre-Occidentale,VWV,Brugge,31,51.2363,3.1108
BE,8377,Nieuwmunster,Vlaanderen,VLG,Flandre-Occidentale,VWV,Brugge,31,51.2729,3.0993
BE,8380,Lissewege,Vlaanderen,VLG,Flandre-Occidentale,VWV,Brugge,31,51.2943,3.1933
BE,8380,Zeebrugge,Vlaanderen,VLG,Flandre-Occidentale,VWV,Brugge,31,51.329,3.1819
BE,8380,Dudzele,Vlaanderen,VLG,Flandre-Occidentale,VWV,Brugge,31,51.2737,3.2253
BE,8400,Oostende,Vlaanderen,VLG,Flandre-Occidentale,VWV,Oostende,35,51.2155,2.927
BE,8400,Zandvoorde,Vlaanderen,VLG,Flandre-Occidentale,VWV,Oostende,35,51.1994,2.9722
BE,8400,Stene,Vlaanderen,VLG,Flandre-Occidentale,VWV,Oostende,35,51.2044,2.9126
BE,8420,Klemskerke,Vlaanderen,VLG,Flandre-Occidentale,VWV,Oostende,35,51.2422,3.024
BE,8420,Wenduine,Vlaanderen,VLG,Flandre-Occidentale,VWV,Oostende,35,51.2983,3.0821
BE,8420,De Haan,Vlaanderen,VLG,Flandre-Occidentale,VWV,Oostende,35,51.2703,3.0531
BE,8421,Vlissegem,Vlaanderen,VLG,Flandre-Occidentale,VWV,Oostende,35,51.2553,3.056
BE,8430,Middelkerke,Vlaanderen,VLG,Flandre-Occidentale,VWV,Oostende,35,51.1853,2.8208
BE,8431,Wilskerke,Vlaanderen,VLG,Flandre-Occidentale,VWV,Oostende,35,51.1812,2.84
BE,8432,Leffinge,Vlaanderen,VLG,Flandre-Occidentale,VWV,Oostende,35,51.1758,2.8758
BE,8433,Sint-Pieters-Kapelle,Vlaanderen,VLG,Flandre-Occidentale,VWV,Oostende,35,51.1259,2.8766
BE,8433,Slijpe,Vlaanderen,VLG,Flandre-Occidentale,VWV,Oostende,35,51.1551,2.8483
BE,8433,Schore,Vlaanderen,VLG,Flandre-Occidentale,VWV,Oostende,35,51.1114,2.8401
BE,8433,Mannekensvere,Vlaanderen,VLG,Flandre-Occidentale,VWV,Oostende,35,51.126,2.818
BE,8434,Westende,Vlaanderen,VLG,Flandre-Occidentale,VWV,Oostende,35,51.1596,2.7687
BE,8434,Lombardsijde,Vlaanderen,VLG,Flandre-Occidentale,VWV,Oostende,35,51.15,2.75
BE,8450,Bredene,Vlaanderen,VLG,Flandre-Occidentale,VWV,Oostende,35,51.2349,2.9756
BE,8460,Ettelgem,Vlaanderen,VLG,Flandre-Occidentale,VWV,Oostende,35,51.1798,3.0292
BE,8460,Roksem,Vlaanderen,VLG,Flandre-Occidentale,VWV,Oostende,35,51.1688,3.0329
BE,8460,Westkerke,Vlaanderen,VLG,Flandre-Occidentale,VWV,Oostende,35,51.1645,3.0108
BE,8460,Oudenburg,Vlaanderen,VLG,Flandre-Occidentale,VWV,Oostende,35,51.1849,3.0004
BE,8470,Snaaskerke,Vlaanderen,VLG,Flandre-Occidentale,VWV,Oostende,35,51.1774,2.939
BE,8470,Moere,Vlaanderen,VLG,Flandre-Occidentale,VWV,Oostende,35,51.1226,2.9558
BE,8470,Gistel,Vlaanderen,VLG,Flandre-Occidentale,VWV,Oostende,35,51.1561,2.9639
BE,8470,Zevekote,Vlaanderen,VLG,Flandre-Occidentale,VWV,Oostende,35,51.1377,2.9206
BE,8480,Bekegem,Vlaanderen,VLG,Flandre-Occidentale,VWV,Oostende,35,51.1598,3.0457
BE,8480,Eernegem,Vlaanderen,VLG,Flandre-Occidentale,VWV,Oostende,35,51.1326,3.0256
BE,8480,Ichtegem,Vlaanderen,VLG,Flandre-Occidentale,VWV,Oostende,35,51.0957,3.0155
BE,8490,Stalhille,Vlaanderen,VLG,Flandre-Occidentale,VWV,Brugge,31,51.2141,3.072
BE,8490,Zerkegem,Vlaanderen,VLG,Flandre-Occidentale,VWV,Brugge,31,51.1664,3.0699
BE,8490,Varsenare,Vlaanderen,VLG,Flandre-Occidentale,VWV,Brugge,31,51.1898,3.1392
BE,8490,Jabbeke,Vlaanderen,VLG,Flandre-Occidentale,VWV,Brugge,31,51.1818,3.0894
BE,8490,Snellegem,Vlaanderen,VLG,Flandre-Occidentale,VWV,Brugge,31,51.1678,3.1192
BE,8500,Kortrijk,Vlaanderen,VLG,Flandre-Occidentale,VWV,Kortrijk,34,50.828,3.2649
BE,8501,Bissegem,Vlaanderen,VLG,Flandre-Occidentale,VWV,Kortrijk,34,50.8238,3.2284
BE,8501,Heule,Vlaanderen,VLG,Flandre-Occidentale,VWV,Kortrijk,34,50.8375,3.2382
BE,8510,Kooigem,Vlaanderen,VLG,Flandre-Occidentale,VWV,Kortrijk,34,50.7401,3.3316
BE,8510,Marke,Vlaanderen,VLG,Flandre-Occidentale,VWV,Kortrijk,34,50.8068,3.2334
BE,8510,Rollegem,Vlaanderen,VLG,Flandre-Occidentale,VWV,Kortrijk,34,50.7656,3.2632
BE,8510,Bellegem,Vlaanderen,VLG,Flandre-Occidentale,VWV,Kortrijk,34,50.7769,3.2793
BE,8511,Aalbeke,Vlaanderen,VLG,Flandre-Occidentale,VWV,Kortrijk,34,50.7785,3.2295
BE,8520,Kuurne,Vlaanderen,VLG,Flandre-Occidentale,VWV,Kortrijk,34,50.8514,3.2824
BE,8530,Harelbeke,Vlaanderen,VLG,Flandre-Occidentale,VWV,Kortrijk,34,50.8534,3.3094
BE,8531,Bavikhove,Vlaanderen,VLG,Flandre-Occidentale,VWV,Kortrijk,34,50.8753,3.3106
BE,8531,Hulste,Vlaanderen,VLG,Flandre-Occidentale,VWV,Kortrijk,34,50.8822,3.295
BE,8540,Deerlijk,Vlaanderen,VLG,Flandre-Occidentale,VWV,Kortrijk,34,50.8534,3.3542
BE,8550,Zwevegem,Vlaanderen,VLG,Flandre-Occidentale,VWV,Kortrijk,34,50.8127,3.3385
BE,8551,Heestert,Vlaanderen,VLG,Flandre-Occidentale,VWV,Kortrijk,34,50.782,3.4122
BE,8552,Moen,Vlaanderen,VLG,Flandre-Occidentale,VWV,Kortrijk,34,50.7701,3.3948
BE,8553,Otegem,Vlaanderen,VLG,Flandre-Occidentale,VWV,Kortrijk,34,50.8069,3.4204
BE,8554,Sint-Denijs,Vlaanderen,VLG,Flandre-Occidentale,VWV,Kortrijk,34,50.752,3.3663
BE,8560,Wevelgem,Vlaanderen,VLG,Flandre-Occidentale,VWV,Kortrijk,34,50.8,3.1667
BE,8560,Gullegem,Vlaanderen,VLG,Flandre-Occidentale,VWV,Kortrijk,34,50.843,3.2047
BE,8560,Moorsele,Vlaanderen,VLG,Flandre-Occidentale,VWV,Kortrijk,34,50.8409,3.1597
BE,8570,Anzegem,Vlaanderen,VLG,Flandre-Occidentale,VWV,Kortrijk,34,50.837,3.4779
BE,8570,Gijzelbrechtegem,Vlaanderen,VLG,Flandre-Occidentale,VWV,Kortrijk,34,50.8268,3.5014
BE,8570,Vichte,Vlaanderen,VLG,Flandre-Occidentale,VWV,Kortrijk,34,50.8387,3.4013
BE,8570,Ingooigem,Vlaanderen,VLG,Flandre-Occidentale,VWV,Kortrijk,34,50.8201,3.4337
BE,8572,Kaster,Vlaanderen,VLG,Flandre-Occidentale,VWV,Kortrijk,34,50.8133,3.4959
BE,8573,Tiegem,Vlaanderen,VLG,Flandre-Occidentale,VWV,Kortrijk,34,50.809,3.4748
BE,8580,Avelgem,Vlaanderen,VLG,Flandre-Occidentale,VWV,Kortrijk,34,50.7762,3.445
BE,8581,Kerkhove,Vlaanderen,VLG,Flandre-Occidentale,VWV,Kortrijk,34,50.7985,3.5027
BE,8581,Waarmaarde,Vlaanderen,VLG,Flandre-Occidentale,VWV,Kortrijk,34,50.79,3.4866
BE,8582,Outrijve,Vlaanderen,VLG,Flandre-Occidentale,VWV,Kortrijk,34,50.7577,3.4296
BE,8583,Bossuit,Vlaanderen,VLG,Flandre-Occidentale,VWV,Kortrijk,34,50.7485,3.4082
BE,8587,Espierres,Vlaanderen,VLG,Flandre-Occidentale,VWV,Kortrijk,34,50.7189,3.3563
BE,8587,Helchin,Vlaanderen,VLG,Flandre-Occidentale,VWV,Kortrijk,34,50.7321,3.3841
BE,8587,Espierres-Helchin,Vlaanderen,VLG,Flandre-Occidentale,VWV,Kortrijk,34,50.7255,3.3702
BE,8600,Vladslo,Vlaanderen,VLG,Flandre-Occidentale,VWV,Diksmuide,32,51.0464,2.916
BE,8600,Diksmuide,Vlaanderen,VLG,Flandre-Occidentale,VWV,Diksmuide,32,51.0325,2.8638
BE,8600,Lampernisse,Vlaanderen,VLG,Flandre-Occidentale,VWV,Diksmuide,32,51.0329,2.7691
BE,8600,Nieuwkapelle,Vlaanderen,VLG,Flandre-Occidentale,VWV,Diksmuide,32,50.9996,2.7992
BE,8600,Esen,Vlaanderen,VLG,Flandre-Occidentale,VWV,Diksmuide,32,51.0294,2.9019
BE,8600,Kaaskerke,Vlaanderen,VLG,Flandre-Occidentale,VWV,Diksmuide,32,51.0354,2.8387
BE,8600,Keiem,Vlaanderen,VLG,Flandre-Occidentale,VWV,Diksmuide,32,51.0814,2.8822
BE,8600,Stuivekenskerke,Vlaanderen,VLG,Flandre-Occidentale,VWV,Diksmuide,32,51.0768,2.8251
BE,8600,Leke,Vlaanderen,VLG,Flandre-Occidentale,VWV,Diksmuide,32,51.1002,2.891
BE,8600,Pervijze,Vlaanderen,VLG,Flandre-Occidentale,VWV,Diksmuide,32,51.0732,2.794
BE,8600,Beerst,Vlaanderen,VLG,Flandre-Occidentale,VWV,Diksmuide,32,51.0598,2.885
BE,8600,Oostkerke,Vlaanderen,VLG,Flandre-Occidentale,VWV,Diksmuide,32,51.0472,2.7976
BE,8600,Sint-Jacobs-Kapelle,Vlaanderen,VLG,Flandre-Occidentale,VWV,Diksmuide,32,51.0167,2.8345
BE,8600,Woumen,Vlaanderen,VLG,Flandre-Occidentale,VWV,Diksmuide,32,51.0015,2.8697
BE,8600,Oudekapelle,Vlaanderen,VLG,Flandre-Occidentale,VWV,Diksmuide,32,51.0132,2.8084
BE,8600,Driekapellen,Vlaanderen,VLG,Flandre-Occidentale,VWV,Diksmuide,32,51.0431,2.8451
BE,8610,Kortemark,Vlaanderen,VLG,Flandre-Occidentale,VWV,Diksmuide,32,51.0295,3.0411
BE,8610,Werken,Vlaanderen,VLG,Flandre-Occidentale,VWV,Diksmuide,32,51.0294,2.9645
BE,8610,Zarren,Vlaanderen,VLG,Flandre-Occidentale,VWV,Diksmuide,32,51.0184,2.9581
BE,8610,Handzame,Vlaanderen,VLG,Flandre-Occidentale,VWV,Diksmuide,32,51.0254,3.0032
BE,8620,Nieuwpoort,Vlaanderen,VLG,Flandre-Occidentale,VWV,Veurne,38,51.1301,2.7513
BE,8620,Sint-Joris,Vlaanderen,VLG,Flandre-Occidentale,VWV,Veurne,38,51.1303,2.7782
BE,8620,Ramskapelle,Vlaanderen,VLG,Flandre-Occidentale,VWV,Veurne,38,51.1097,2.764
BE,8630,De Moeren,Vlaanderen,VLG,Flandre-Occidentale,VWV,Veurne,38,51.0437,2.5997
BE,8630,Steenkerke,Vlaanderen,VLG,Flandre-Occidentale,VWV,Veurne,38,51.0574,2.6893
BE,8630,Wulveringem,Vlaanderen,VLG,Flandre-Occidentale,VWV,Veurne,38,51.0149,2.6545
BE,8630,Houtem,Vlaanderen,VLG,Flandre-Occidentale,VWV,Veurne,38,51.0108,2.6095
BE,8630,Zoutenaaie,Vlaanderen,VLG,Flandre-Occidentale,VWV,Veurne,38,51.0482,2.7545
BE,8630,Vinkem,Vlaanderen,VLG,Flandre-Occidentale,VWV,Veurne,38,51.0157,2.6616
BE,8630,Booitshoeke,Vlaanderen,VLG,Flandre-Occidentale,VWV,Veurne,38,51.0904,2.7421
BE,8630,Veurne,Vlaanderen,VLG,Flandre-Occidentale,VWV,Veurne,38,51.0732,2.668
BE,8630,Eggewaartskapelle,Vlaanderen,VLG,Flandre-Occidentale,VWV,Veurne,38,51.0499,2.7223
BE,8630,Bulskamp,Vlaanderen,VLG,Flandre-Occidentale,VWV,Veurne,38,51.0423,2.6494
BE,8630,Avekapelle,Vlaanderen,VLG,Flandre-Occidentale,VWV,Veurne,38,51.0662,2.7327
BE,8640,Westvleteren,Vlaanderen,VLG,Flandre-Occidentale,VWV,Ieper,33,50.9274,2.7169
BE,8640,Vleteren,Vlaanderen,VLG,Flandre-Occidentale,VWV,Ieper,33,50.9201,2.7492
BE,8640,Woesten,Vlaanderen,VLG,Flandre-Occidentale,VWV,Ieper,33,50.8997,2.7896
BE,8640,Oostvleteren,Vlaanderen,VLG,Flandre-Occidentale,VWV,Ieper,33,50.9332,2.7412
BE,8647,Lo,Vlaanderen,VLG,Flandre-Occidentale,VWV,Diksmuide,32,50.9804,2.7496
BE,8647,Reninge,Vlaanderen,VLG,Flandre-Occidentale,VWV,Diksmuide,32,50.9478,2.7889
BE,8647,Pollinkhove,Vlaanderen,VLG,Flandre-Occidentale,VWV,Diksmuide,32,50.9712,2.7326
BE,8647,Noordschote,Vlaanderen,VLG,Flandre-Occidentale,VWV,Diksmuide,32,50.9548,2.8103
BE,8647,Lo-Reninge,Vlaanderen,VLG,Flandre-Occidentale,VWV,Diksmuide,32,50.9635,2.7704
BE,8650,Merkem,Vlaanderen,VLG,Flandre-Occidentale,VWV,Diksmuide,32,50.9528,2.8523
BE,8650,Klerken,Vlaanderen,VLG,Flandre-Occidentale,VWV,Diksmuide,32,50.9964,2.9077
BE,8650,Houthulst,Vlaanderen,VLG,Flandre-Occidentale,VWV,Diksmuide,32,50.9782,2.9505
BE,8660,De Panne,Vlaanderen,VLG,Flandre-Occidentale,VWV,Veurne,38,51.0979,2.5937
BE,8660,Adinkerke,Vlaanderen,VLG,Flandre-Occidentale,VWV,Veurne,38,51.0741,2.5991
BE,8670,Oostduinkerke,Vlaanderen,VLG,Flandre-Occidentale,VWV,Veurne,38,51.1156,2.6822
BE,8670,Koksijde,Vlaanderen,VLG,Flandre-Occidentale,VWV,Veurne,38,51.1164,2.6377
BE,8670,Wulpen,Vlaanderen,VLG,Flandre-Occidentale,VWV,Veurne,38,51.1,2.7
BE,8680,Bovekerke,Vlaanderen,VLG,Flandre-Occidentale,VWV,Diksmuide,32,51.0543,2.9632
BE,8680,Zande,Vlaanderen,VLG,Flandre-Occidentale,VWV,Diksmuide,32,51.1204,2.9215
BE,8680,Koekelare,Vlaanderen,VLG,Flandre-Occidentale,VWV,Diksmuide,32,51.0905,2.9783
BE,8690,Alveringem,Vlaanderen,VLG,Flandre-Occidentale,VWV,Veurne,38,51.0124,2.7112
BE,8690,Sint-Rijkers,Vlaanderen,VLG,Flandre-Occidentale,VWV,Veurne,38,50.9961,2.7022
BE,8690,Oeren,Vlaanderen,VLG,Flandre-Occidentale,VWV,Veurne,38,51.0236,2.7045
BE,8690,Hoogstade,Vlaanderen,VLG,Flandre-Occidentale,VWV,Veurne,38,50.9796,2.6911
BE,8691,Izenberge,Vlaanderen,VLG,Flandre-Occidentale,VWV,Veurne,38,50.9939,2.6546
BE,8691,Leisele,Vlaanderen,VLG,Flandre-Occidentale,VWV,Veurne,38,50.9844,2.62
BE,8691,Beveren-Aan-De-Ijzer,Vlaanderen,VLG,Flandre-Occidentale,VWV,Veurne,38,50.9738,2.6549
BE,8691,Stavele,Vlaanderen,VLG,Flandre-Occidentale,VWV,Veurne,38,50.9407,2.6724
BE,8691,Gijverinkhove,Vlaanderen,VLG,Flandre-Occidentale,VWV,Veurne,38,50.9761,2.6725
BE,8700,Schuiferskapelle,Vlaanderen,VLG,Flandre-Occidentale,VWV,Tielt,37,51.0324,3.338
BE,8700,Kanegem,Vlaanderen,VLG,Flandre-Occidentale,VWV,Tielt,37,51.0129,3.4019
BE,8700,Aarsele,Vlaanderen,VLG,Flandre-Occidentale,VWV,Tielt,37,50.9966,3.4195
BE,8700,Tielt,Vlaanderen,VLG,Flandre-Occidentale,VWV,Tielt,37,50.9993,3.3271
BE,8710,Wielsbeke,Vlaanderen,VLG,Flandre-Occidentale,VWV,Tielt,37,50.9,3.3667
BE,8710,Ooigem,Vlaanderen,VLG,Flandre-Occidentale,VWV,Tielt,37,50.8933,3.3363
BE,8710,Sint-Baafs-Vijve,Vlaanderen,VLG,Flandre-Occidentale,VWV,Tielt,37,50.9,3.3833
BE,8720,Wakken,Vlaanderen,VLG,Flandre-Occidentale,VWV,Tielt,37,50.933,3.3974
BE,8720,Markegem,Vlaanderen,VLG,Flandre-Occidentale,VWV,Tielt,37,50.9463,3.4003
BE,8720,Oeselgem,Vlaanderen,VLG,Flandre-Occidentale,VWV,Tielt,37,50.9379,3.4318
BE,8720,Dentergem,Vlaanderen,VLG,Flandre-Occidentale,VWV,Tielt,37,50.9643,3.4162
BE,8730,Oedelem,Vlaanderen,VLG,Flandre-Occidentale,VWV,Brugge,31,51.1703,3.3376
BE,8730,Beernem,Vlaanderen,VLG,Flandre-Occidentale,VWV,Brugge,31,51.1398,3.339
BE,8730,Sint-Joris,Vlaanderen,VLG,Flandre-Occidentale,VWV,Brugge,31,51.1266,3.3652
BE,8740,Egem,Vlaanderen,VLG,Flandre-Occidentale,VWV,Tielt,37,51.0153,3.2585
BE,8740,Pittem,Vlaanderen,VLG,Flandre-Occidentale,VWV,Tielt,37,50.9928,3.2632
BE,8750,Wingene,Vlaanderen,VLG,Flandre-Occidentale,VWV,Tielt,37,51.0578,3.2736
BE,8750,Zwevezele,Vlaanderen,VLG,Flandre-Occidentale,VWV,Tielt,37,51.0368,3.2119
BE,8755,Ruiselede,Vlaanderen,VLG,Flandre-Occidentale,VWV,Tielt,37,51.0404,3.3942
BE,8760,Meulebeke,Vlaanderen,VLG,Flandre-Occidentale,VWV,Tielt,37,50.9514,3.288
BE,8770,Ingelmunster,Vlaanderen,VLG,Flandre-Occidentale,VWV,Roeselare,36,50.9208,3.2557
BE,8780,Oostrozebeke,Vlaanderen,VLG,Flandre-Occidentale,VWV,Tielt,37,50.9209,3.338
BE,8790,Waregem,Vlaanderen,VLG,Flandre-Occidentale,VWV,Kortrijk,34,50.889,3.4276
BE,8791,Beveren,Vlaanderen,VLG,Flandre-Occidentale,VWV,Kortrijk,34,50.8754,3.3403
BE,8792,Desselgem,Vlaanderen,VLG,Flandre-Occidentale,VWV,Kortrijk,34,50.8861,3.3596
BE,8793,Sint-Eloois-Vijve,Vlaanderen,VLG,Flandre-Occidentale,VWV,Kortrijk,34,50.9091,3.4155
BE,8800,Oekene,Vlaanderen,VLG,Flandre-Occidentale,VWV,Roeselare,36,50.9179,3.1568
BE,8800,Rumbeke,Vlaanderen,VLG,Flandre-Occidentale,VWV,Roeselare,36,50.9325,3.1672
BE,8800,Beveren,Vlaanderen,VLG,Flandre-Occidentale,VWV,Roeselare,36,50.9726,3.1439
BE,8800,Roeselare,Vlaanderen,VLG,Flandre-Occidentale,VWV,Roeselare,36,50.9465,3.1227
BE,8810,Lichtervelde,Vlaanderen,VLG,Flandre-Occidentale,VWV,Roeselare,36,51.0333,3.15
BE,8820,Torhout,Vlaanderen,VLG,Flandre-Occidentale,VWV,Brugge,31,51.0656,3.1008
BE,8830,Hooglede,Vlaanderen,VLG,Flandre-Occidentale,VWV,Roeselare,36,50.9833,3.0833
BE,8830,Gits,Vlaanderen,VLG,Flandre-Occidentale,VWV,Roeselare,36,50.9969,3.0956
BE,8840,Oostnieuwkerke,Vlaanderen,VLG,Flandre-Occidentale,VWV,Roeselare,36,50.9396,3.0574
BE,8840,Staden,Vlaanderen,VLG,Flandre-Occidentale,VWV,Roeselare,36,50.9746,3.0147
BE,8840,Westrozebeke,Vlaanderen,VLG,Flandre-Occidentale,VWV,Roeselare,36,50.9318,3.01
BE,8850,Ardooie,Vlaanderen,VLG,Flandre-Occidentale,VWV,Tielt,37,50.9757,3.1974
BE,8851,Koolskamp,Vlaanderen,VLG,Flandre-Occidentale,VWV,Tielt,37,51.0023,3.2104
BE,8860,Lendelede,Vlaanderen,VLG,Flandre-Occidentale,VWV,Kortrijk,34,50.8863,3.2375
BE,8870,Kachtem,Vlaanderen,VLG,Flandre-Occidentale,VWV,Roeselare,36,50.9334,3.1942
BE,8870,Izegem,Vlaanderen,VLG,Flandre-Occidentale,VWV,Roeselare,36,50.914,3.2138
BE,8870,Emelgem,Vlaanderen,VLG,Flandre-Occidentale,VWV,Roeselare,36,50.9238,3.2303
BE,8880,Sint-Eloois-Winkel,Vlaanderen,VLG,Flandre-Occidentale,VWV,Roeselare,36,50.8759,3.1814
BE,8880,Ledegem,Vlaanderen,VLG,Flandre-Occidentale,VWV,Roeselare,36,50.8579,3.1241
BE,8880,Rollegem-Kapelle,Vlaanderen,VLG,Flandre-Occidentale,VWV,Roeselare,36,50.8687,3.1464
BE,8890,Moorslede,Vlaanderen,VLG,Flandre-Occidentale,VWV,Roeselare,36,50.8919,3.0612
BE,8890,Dadizele,Vlaanderen,VLG,Flandre-Occidentale,VWV,Roeselare,36,50.8514,3.0947
BE,8900,Sint-Jan,Vlaanderen,VLG,Flandre-Occidentale,VWV,Ieper,33,50.865,2.9048
BE,8900,Ieper,Vlaanderen,VLG,Flandre-Occidentale,VWV,Ieper,33,50.8511,2.8857
BE,8900,Brielen,Vlaanderen,VLG,Flandre-Occidentale,VWV,Ieper,33,50.8678,2.848
BE,8900,Dikkebus,Vlaanderen,VLG,Flandre-Occidentale,VWV,Ieper,33,50.8213,2.8287
BE,8902,Zillebeke,Vlaanderen,VLG,Flandre-Occidentale,VWV,Ieper,33,50.8346,2.9225
BE,8902,Voormezele,Vlaanderen,VLG,Flandre-Occidentale,VWV,Ieper,33,50.8168,2.8762
BE,8902,Hollebeke,Vlaanderen,VLG,Flandre-Occidentale,VWV,Ieper,33,50.8051,2.9366
BE,8904,Zuidschote,Vlaanderen,VLG,Flandre-Occidentale,VWV,Ieper,33,50.9159,2.8374
BE,8904,Boezinge,Vlaanderen,VLG,Flandre-Occidentale,VWV,Ieper,33,50.8967,2.8542
BE,8906,Elverdinge,Vlaanderen,VLG,Flandre-Occidentale,VWV,Ieper,33,50.8848,2.8171
BE,8908,Vlamertinge,Vlaanderen,VLG,Flandre-Occidentale,VWV,Ieper,33,50.8549,2.8202
BE,8920,Bikschote,Vlaanderen,VLG,Flandre-Occidentale,VWV,Ieper,33,50.9279,2.8627
BE,8920,Poelkapelle,Vlaanderen,VLG,Flandre-Occidentale,VWV,Ieper,33,50.9179,2.9568
BE,8920,Langemark,Vlaanderen,VLG,Flandre-Occidentale,VWV,Ieper,33,50.9131,2.9196
BE,8920,Langemark-Poelkapelle,Vlaanderen,VLG,Flandre-Occidentale,VWV,Ieper,33,50.9197,2.913
BE,8930,Menen,Vlaanderen,VLG,Flandre-Occidentale,VWV,Kortrijk,34,50.7972,3.1224
BE,8930,Rekkem,Vlaanderen,VLG,Flandre-Occidentale,VWV,Kortrijk,34,50.7837,3.1635
BE,8930,Lauwe,Vlaanderen,VLG,Flandre-Occidentale,VWV,Kortrijk,34,50.7948,3.1869
BE,8940,Geluwe,Vlaanderen,VLG,Flandre-Occidentale,VWV,Ieper,33,50.8098,3.0769
BE,8940,Wervik,Vlaanderen,VLG,Flandre-Occidentale,VWV,Ieper,33,50.7807,3.0385
BE,8950,Nieuwkerke,Vlaanderen,VLG,Flandre-Occidentale,VWV,Ieper,33,50.7471,2.8286
BE,8950,Heuvelland,Vlaanderen,VLG,Flandre-Occidentale,VWV,Ieper,33,50.776,2.8223
BE,8951,Dranouter,Vlaanderen,VLG,Flandre-Occidentale,VWV,Ieper,33,50.766,2.7839
BE,8952,Wulvergem,Vlaanderen,VLG,Flandre-Occidentale,VWV,Ieper,33,50.7602,2.8524
BE,8953,Wijtschate,Vlaanderen,VLG,Flandre-Occidentale,VWV,Ieper,33,50.7863,2.8837
BE,8954,Westouter,Vlaanderen,VLG,Flandre-Occidentale,VWV,Ieper,33,50.7972,2.7465
BE,8956,Kemmel,Vlaanderen,VLG,Flandre-Occidentale,VWV,Ieper,33,50.7833,2.8271
BE,8957,Messines,Vlaanderen,VLG,Flandre-Occidentale,VWV,Ieper,33,50.7658,2.8976
BE,8958,Loker,Vlaanderen,VLG,Flandre-Occidentale,VWV,Ieper,33,50.7817,2.7723
BE,8970,Reningelst,Vlaanderen,VLG,Flandre-Occidentale,VWV,Ieper,33,50.8151,2.7707
BE,8970,Poperinge,Vlaanderen,VLG,Flandre-Occidentale,VWV,Ieper,33,50.8539,2.7266
BE,8972,Roesbrugge-Haringe,Vlaanderen,VLG,Flandre-Occidentale,VWV,Ieper,33,50.9181,2.6254
BE,8972,Proven,Vlaanderen,VLG,Flandre-Occidentale,VWV,Ieper,33,50.8898,2.6572
BE,8972,Krombeke,Vlaanderen,VLG,Flandre-Occidentale,VWV,Ieper,33,50.9149,2.6883
BE,8978,Watou,Vlaanderen,VLG,Flandre-Occidentale,VWV,Ieper,33,50.8586,2.6207
BE,8980,Geluveld,Vlaanderen,VLG,Flandre-Occidentale,VWV,Ieper,33,50.8351,2.9934
BE,8980,Zandvoorde,Vlaanderen,VLG,Flandre-Occidentale,VWV,Ieper,33,50.8128,2.9812
BE,8980,Zonnebeke,Vlaanderen,VLG,Flandre-Occidentale,VWV,Ieper,33,50.8726,2.9873
BE,8980,Passendale,Vlaanderen,VLG,Flandre-Occidentale,VWV,Ieper,33,50.8998,3.0213
BE,8980,Beselare,Vlaanderen,VLG,Flandre-Occidentale,VWV,Ieper,33,50.8481,3.0245
BE,1300,Limal,Wallonie,WAL,Brabant Wallon,WBR,Nivelles,25,50.6948,4.5754
BE,1300,Wavre,Wallonie,WAL,Brabant Wallon,WBR,Nivelles,25,50.7172,4.6014
BE,1301,Bierges,Wallonie,WAL,Brabant Wallon,WBR,Nivelles,25,50.7114,4.5866
BE,1310,La Hulpe,Wallonie,WAL,Brabant Wallon,WBR,Nivelles,25,50.7309,4.4858
BE,1315,Opprebais,Wallonie,WAL,Brabant Wallon,WBR,Nivelles,25,50.68,4.7978
BE,1315,Piétrebais,Wallonie,WAL,Brabant Wallon,WBR,Nivelles,25,50.7278,4.7645
BE,1315,Glimes,Wallonie,WAL,Brabant Wallon,WBR,Nivelles,25,50.68,4.8371
BE,1315,Incourt,Wallonie,WAL,Brabant Wallon,WBR,Nivelles,25,50.6915,4.7982
BE,1315,Roux-Miroir,Wallonie,WAL,Brabant Wallon,WBR,Nivelles,25,50.7086,4.7827
BE,1320,Hamme-Mille,Wallonie,WAL,Brabant Wallon,WBR,Nivelles,25,50.7802,4.7173
BE,1320,L'Ecluse,Wallonie,WAL,Brabant Wallon,WBR,Nivelles,25,50.773,4.8314
BE,1320,Beauvechain,Wallonie,WAL,Brabant Wallon,WBR,Nivelles,25,50.782,4.7718
BE,1320,Nodebais,Wallonie,WAL,Brabant Wallon,WBR,Nivelles,25,50.7728,4.7369
BE,1320,Tourinnes-La-Grosse,Wallonie,WAL,Brabant Wallon,WBR,Nivelles,25,50.783,4.7444
BE,1325,Chaumont-Gistoux,Wallonie,WAL,Brabant Wallon,WBR,Nivelles,25,50.6775,4.7212
BE,1325,Longueville,Wallonie,WAL,Brabant Wallon,WBR,Nivelles,25,50.7024,4.7401
BE,1325,Corroy-Le-Grand,Wallonie,WAL,Brabant Wallon,WBR,Nivelles,25,50.6631,4.674
BE,1325,Bonlez,Wallonie,WAL,Brabant Wallon,WBR,Nivelles,25,50.7021,4.6886
BE,1325,Dion-Valmont,Wallonie,WAL,Brabant Wallon,WBR,Nivelles,25,50.7082,4.6677
BE,1330,Rixensart,Wallonie,WAL,Brabant Wallon,WBR,Nivelles,25,50.7123,4.5253
BE,1331,Rosières,Wallonie,WAL,Brabant Wallon,WBR,Nivelles,25,50.731,4.5447
BE,1332,Genval,Wallonie,WAL,Brabant Wallon,WBR,Nivelles,25,50.7216,4.4938
BE,1340,Ottignies-Louvain-La-Neuve,Wallonie,WAL,Brabant Wallon,WBR,Nivelles,25,50.6671,4.5502
BE,1340,Ottignies,Wallonie,WAL,Brabant Wallon,WBR,Nivelles,25,50.6653,4.5668
BE,1341,Céroux-Mousty,Wallonie,WAL,Brabant Wallon,WBR,Nivelles,25,50.6609,4.5207
BE,1342,Limelette,Wallonie,WAL,Brabant Wallon,WBR,Nivelles,25,50.6843,4.5719
BE,1348,Louvain-La-Neuve,Wallonie,WAL,Brabant Wallon,WBR,Nivelles,25,50.6683,4.6144
BE,1350,Orp-Le-Grand,Wallonie,WAL,Brabant Wallon,WBR,Nivelles,25,50.7033,4.9891
BE,1350,Noduwez,Wallonie,WAL,Brabant Wallon,WBR,Nivelles,25,50.7286,4.9678
BE,1350,Jandrain-Jandrenouille,Wallonie,WAL,Brabant Wallon,WBR,Nivelles,25,50.6718,4.978
BE,1350,Orp-Jauche,Wallonie,WAL,Brabant Wallon,WBR,Nivelles,25,50.6839,4.9493
BE,1350,Jauche,Wallonie,WAL,Brabant Wallon,WBR,Nivelles,25,50.6814,4.9556
BE,1350,Marilles,Wallonie,WAL,Brabant Wallon,WBR,Nivelles,25,50.7072,4.9527
BE,1350,Enines,Wallonie,WAL,Brabant Wallon,WBR,Nivelles,25,50.6943,4.9269
BE,1350,Folx-Les-Caves,Wallonie,WAL,Brabant Wallon,WBR,Nivelles,25,50.6612,4.9378
BE,1357,Hélécine,Wallonie,WAL,Brabant Wallon,WBR,Nivelles,25,50.739,4.6983
BE,1357,Opheylissem,Wallonie,WAL,Brabant Wallon,WBR,Nivelles,25,50.7471,4.9769
BE,1357,Neerheylissem,Wallonie,WAL,Brabant Wallon,WBR,Nivelles,25,50.7584,4.9883
BE,1357,Linsmeau,Wallonie,WAL,Brabant Wallon,WBR,Nivelles,25,50.7356,4.9998
BE,1360,Malèves-Sainte-Marie-Wastinnes,Wallonie,WAL,Brabant Wallon,WBR,Nivelles,25,50.6388,4.7947
BE,1360,Thorembais-Les-Béguines,Wallonie,WAL,Brabant Wallon,WBR,Nivelles,25,50.6582,4.8175
BE,1360,Thorembais-Saint-Trond,Wallonie,WAL,Brabant Wallon,WBR,Nivelles,25,50.6349,4.7841
BE,1360,Orbais,Wallonie,WAL,Brabant Wallon,WBR,Nivelles,25,50.638,4.7635
BE,1360,Perwez,Wallonie,WAL,Brabant Wallon,WBR,Nivelles,25,50.6243,4.8135
BE,1367,Grand-Rosière-Hottomont,Wallonie,WAL,Brabant Wallon,WBR,Nivelles,25,50.6319,4.8656
BE,1367,Huppaye,Wallonie,WAL,Brabant Wallon,WBR,Nivelles,25,50.6936,4.8942
BE,1367,Bomal,Wallonie,WAL,Brabant Wallon,WBR,Nivelles,25,50.6701,4.8732
BE,1367,Ramillies,Wallonie,WAL,Brabant Wallon,WBR,Nivelles,25,50.6339,4.9012
BE,1367,Mont-Saint-André,Wallonie,WAL,Brabant Wallon,WBR,Nivelles,25,50.6563,4.8661
BE,1367,Autre-Eglise,Wallonie,WAL,Brabant Wallon,WBR,Nivelles,25,50.6692,4.9038
BE,1367,Gérompont,Wallonie,WAL,Brabant Wallon,WBR,Nivelles,25,50.6481,4.8814
BE,1367,Geest-Gérompont-Petit-Rosière,Wallonie,WAL,Brabant Wallon,WBR,Nivelles,25,50.6404,4.8587
BE,1370,Lathuy,Wallonie,WAL,Brabant Wallon,WBR,Nivelles,25,50.7246,4.8262
BE,1370,Jodoigne-Souveraine,Wallonie,WAL,Brabant Wallon,WBR,Nivelles,25,50.7094,4.8376
BE,1370,Saint-Jean-Geest,Wallonie,WAL,Brabant Wallon,WBR,Nivelles,25,50.7401,4.8965
BE,1370,Zétrud-Lumay,Wallonie,WAL,Brabant Wallon,WBR,Nivelles,25,50.7571,4.8871
BE,1370,Saint-Remy-Geest,Wallonie,WAL,Brabant Wallon,WBR,Nivelles,25,50.7469,4.8585
BE,1370,Jodoigne,Wallonie,WAL,Brabant Wallon,WBR,Nivelles,25,50.7236,4.8691
