[
  {
    "country_code": "DK",
    "zipcode": "8789",
    "place": "Endelave",
    "state": "Region Midtjylland",
    "state_code": "18",
    "province": "Horsens Kommune",
    "province_code": "615",
    "community": "",
    "community_code": "",
    "latitude": "55.7573",
    "longitude": "10.271"
  },
  {
    "country_code": "DK",
    "zipcode": "8799",
    "place": "Tunø",
    "state": "Region Midtjylland",
    "state_code": "18",
    "province": "Odder Kommune",
    "province_code": "727",
    "community": "",
    "community_code": "",
    "latitude": "55.9528",
    "longitude": "10.432"
  },
  {
    "country_code": "DK",
    "zipcode": "4305",
    "place": "Orø",
    "state": "Region Sjælland",
    "state_code": "20",
    "province": "Holbæk Kommune",
    "province_code": "316",
    "community": "",
    "community_code": "",
    "latitude": "55.7718",
    "longitude": "11.8163"
  },
  {
    "country_code": "DK",
    "zipcode": "4244",
    "place": "Agersø",
    "state": "Region Sjælland",
    "state_code": "20",
    "province": "Slagelse Kommune",
    "province_code": "330",
    "community": "",
    "community_code": "",
    "latitude": "55.2149",
    "longitude": "11.1854"
  },
  {
    "country_code": "DK",
    "zipcode": "4245",
    "place": "Omø",
    "state": "Region Sjælland",
    "state_code": "20",
    "province": "Slagelse Kommune",
    "province_code": "330",
    "community": "",
    "community_code": "",
    "latitude": "55.162",
    "longitude": "11.159"
  },
  {
    "country_code": "DK",
    "zipcode": "4942",
    "place": "Askø og Lilleø",
    "state": "Region Sjælland",
    "state_code": "20",
    "province": "Lolland Kommune",
    "province_code": "360",
    "community": "",
    "community_code": "",
    "latitude": "54.8969",
    "longitude": "11.495"
  },
  {
    "country_code": "DK",
    "zipcode": "4945",
    "place": "Femø",
    "state": "Region Sjælland",
    "state_code": "20",
    "province": "Lolland Kommune",
    "province_code": "360",
    "community": "",
    "community_code": "",
    "latitude": "54.9758",
    "longitude": "11.5352"
  },
  {
    "country_code": "DK",
    "zipcode": "5601",
    "place": "Lyø",
    "state": "Region Syddanmark",
    "state_code": "21",
    "province": "Faaborg-Midtfyn Kommune",
    "province_code": "430",
    "community": "",
    "community_code": "",
    "latitude": "55.0439",
    "longitude": "10.1473"
  },
  {
    "country_code": "DK",
    "zipcode": "5602",
    "place": "Avernakø",
    "state": "Region Syddanmark",
    "state_code": "21",
    "province": "Faaborg-Midtfyn Kommune",
    "province_code": "430",
    "community": "",
    "community_code": "",
    "latitude": "55.0187",
    "longitude": "10.2845"
  },
  {
    "country_code": "DK",
    "zipcode": "5603",
    "place": "Bjørnø",
    "state": "Region Syddanmark",
    "state_code": "21",
    "province": "Faaborg-Midtfyn Kommune",
    "province_code": "430",
    "community": "",
    "community_code": "",
    "latitude": "55.0633",
    "longitude": "10.2482"
  },
  {
    "country_code": "DK",
    "zipcode": "5943",
    "place": "Strynø",
    "state": "Region Syddanmark",
    "state_code": "21",
    "province": "Langeland Kommune",
    "province_code": "482",
    "community": "",
    "community_code": "",
    "latitude": "54.9008",
    "longitude": "10.6118"
  },
  {
    "country_code": "DK",
    "zipcode": "5965",
    "place": "Birkholm",
    "state": "Region Syddanmark",
    "state_code": "21",
    "province": "Ærø Kommune",
    "province_code": "492",
    "community": "",
    "community_code": "",
    "latitude": "54.931",
    "longitude": "10.503"
  },
  {
    "country_code": "DK",
    "zipcode": "6210",
    "place": "Barsø",
    "state": "Region Syddanmark",
    "state_code": "21",
    "province": "Aabenraa Kommune",
    "province_code": "580",
    "community": "",
    "community_code": "",
    "latitude": "55.1216",
    "longitude": "9.5578"
  },
  {
    "country_code": "DK",
    "zipcode": "7900",
    "place": "Nykøbing M",
    "state": "Region Nordjylland",
    "state_code": "81",
    "province": "Morsø Kommune",
    "province_code": "773",
    "community": "",
    "community_code": "",
    "latitude": "56.7619",
    "longitude": "8.6836"
  },
  {
    "country_code": "DK",
    "zipcode": "7950",
    "place": "Erslev",
    "state": "Region Nordjylland",
    "state_code": "81",
    "province": "Morsø Kommune",
    "province_code": "773",
    "community": "",
    "community_code": "",
    "latitude": "56.8298",
    "longitude": "8.7501"
  },
  {
    "country_code": "DK",
    "zipcode": "7960",
    "place": "Karby",
    "state": "Region Nordjylland",
    "state_code": "81",
    "province": "Morsø Kommune",
    "province_code": "773",
    "community": "",
    "community_code": "",
    "latitude": "56.7536",
    "longitude": "8.5613"
  },
  {
    "country_code": "DK",
    "zipcode": "7970",
    "place": "Redsted M",
    "state": "Region Nordjylland",
    "state_code": "81",
    "province": "Morsø Kommune",
    "province_code": "773",
    "community": "",
    "community_code": "",
    "latitude": "56.7619",
    "longitude": "8.6836"
  },
  {
    "country_code": "DK",
    "zipcode": "7980",
    "place": "Vils",
    "state": "Region Nordjylland",
    "state_code": "81",
    "province": "Morsø Kommune",
    "province_code": "773",
    "community": "",
    "community_code": "",
    "latitude": "56.7631",
    "longitude": "8.7286"
  },
  {
    "country_code": "DK",
    "zipcode": "7990",
    "place": "Øster Assels",
    "state": "Region Nordjylland",
    "state_code": "81",
    "province": "Morsø Kommune",
    "province_code": "773",
    "community": "",
    "community_code": "",
    "latitude": "56.7011",
    "longitude": "8.6946"
  },
  {
    "country_code": "DK",
    "zipcode": "7700",
    "place": "Thisted",
    "state": "Region Nordjylland",
    "state_code": "81",
    "province": "Thisted Kommune",
    "province_code": "787",
    "community": "",
    "community_code": "",
    "latitude": "56.9552",
    "longitude": "8.6949"
  },
  {
    "country_code": "DK",
    "zipcode": "7730",
    "place": "Hanstholm",
    "state": "Region Nordjylland",
    "state_code": "81",
    "province": "Thisted Kommune",
    "province_code": "787",
    "community": "",
    "community_code": "",
    "latitude": "57.1167",
    "longitude": "8.6167"
  },
  {
    "country_code": "DK",
    "zipcode": "7741",
    "place": "Frøstrup",
    "state": "Region Nordjylland",
    "state_code": "81",
    "province": "Thisted Kommune",
    "province_code": "787",
    "community": "",
    "community_code": "",
    "latitude": "57.0867",
    "longitude": "8.9958"
  },
  {
    "country_code": "DK",
    "zipcode": "7742",
    "place": "Vesløs",
    "state": "Region Nordjylland",
    "state_code": "81",
    "province": "Thisted Kommune",
    "province_code": "787",
    "community": "",
    "community_code": "",
    "latitude": "57.0383",
    "longitude": "8.9746"
  },
  {
    "country_code": "DK",
    "zipcode": "7752",
    "place": "Snedsted",
    "state": "Region Nordjylland",
    "state_code": "81",
    "province": "Thisted Kommune",
    "province_code": "787",
    "community": "",
    "community_code": "",
    "latitude": "56.8924",
    "longitude": "8.5244"
  },
  {
    "country_code": "DK",
    "zipcode": "7755",
    "place": "Bedsted Thy",
    "state": "Region Nordjylland",
    "state_code": "81",
    "province": "Thisted Kommune",
    "province_code": "787",
    "community": "",
    "community_code": "",
    "latitude": "56.8924",
    "longitude": "8.5244"
  },
  {
    "country_code": "DK",
    "zipcode": "7760",
    "place": "Hurup Thy",
    "state": "Region Nordjylland",
    "state_code": "81",
    "province": "Thisted Kommune",
    "province_code": "787",
    "community": "",
    "community_code": "",
    "latitude": "56.7494",
    "longitude": "8.4195"
  },
  {
    "country_code": "DK",
    "zipcode": "7770",
    "place": "Vestervig",
    "state": "Region Nordjylland",
    "state_code": "81",
    "province": "Thisted Kommune",
    "province_code": "787",
    "community": "",
    "community_code": "",
    "latitude": "56.7628",
    "longitude": "8.3194"
  },
  {
    "country_code": "DK",
    "zipcode": "9320",
    "place": "Hjallerup",
    "state": "Region Nordjylland",
    "state_code": "81",
    "province": "Brønderslev Kommune",
    "province_code": "810",
    "community": "",
    "community_code": "",
    "latitude": "57.1647",
    "longitude": "10.1457"
  },
  {
    "country_code": "DK",
    "zipcode": "9330",
    "place": "Dronninglund",
    "state": "Region Nordjylland",
    "state_code": "81",
    "province": "Brønderslev Kommune",
    "province_code": "810",
    "community": "",
    "community_code": "",
    "latitude": "57.1604",
    "longitude": "10.2929"
  },
  {
    "country_code": "DK",
    "zipcode": "9340",
    "place": "Asaa",
    "state": "Region Nordjylland",
    "state_code": "81",
    "province": "Brønderslev Kommune",
    "province_code": "810",
    "community": "",
    "community_code": "",
    "latitude": "57.1487",
    "longitude": "10.4037"
  },
  {
    "country_code": "DK",
    "zipcode": "9352",
    "place": "Dybvad",
    "state": "Region Nordjylland",
    "state_code": "81",
    "province": "Brønderslev Kommune",
    "province_code": "810",
    "community": "",
    "community_code": "",
    "latitude": "57.272",
    "longitude": "10.3595"
  },
  {
    "country_code": "DK",
    "zipcode": "9370",
    "place": "Hals",
    "state": "Region Nordjylland",
    "state_code": "81",
    "province": "Brønderslev Kommune",
    "province_code": "810",
    "community": "",
    "community_code": "",
    "latitude": "56.9961",
    "longitude": "10.3081"
  },
  {
    "country_code": "DK",
    "zipcode": "9382",
    "place": "Tylstrup",
    "state": "Region Nordjylland",
    "state_code": "81",
    "province": "Brønderslev Kommune",
    "province_code": "810",
    "community": "",
    "community_code": "",
    "latitude": "57.1947",
    "longitude": "9.9531"
  },
  {
    "country_code": "DK",
    "zipcode": "9440",
    "place": "Aabybro",
    "state": "Region Nordjylland",
    "state_code": "81",
    "province": "Brønderslev Kommune",
    "province_code": "810",
    "community": "",
    "community_code": "",
    "latitude": "57.1584",
    "longitude": "9.7367"
  },
  {
    "country_code": "DK",
    "zipcode": "9480",
    "place": "Løkken",
    "state": "Region Nordjylland",
    "state_code": "81",
    "province": "Brønderslev Kommune",
    "province_code": "810",
    "community": "",
    "community_code": "",
    "latitude": "57.3705",
    "longitude": "9.7147"
  },
  {
    "country_code": "DK",
    "zipcode": "9700",
    "place": "Brønderslev",
    "state": "Region Nordjylland",
    "state_code": "81",
    "province": "Brønderslev Kommune",
    "province_code": "810",
    "community": "",
    "community_code": "",
    "latitude": "57.2702",
    "longitude": "9.941"
  },
  {
    "country_code": "DK",
    "zipcode": "9740",
    "place": "Jerslev J",
    "state": "Region Nordjylland",
    "state_code": "81",
    "province": "Brønderslev Kommune",
    "province_code": "810",
    "community": "",
    "community_code": "",
    "latitude": "57.323",
    "longitude": "10.0722"
  },
  {
    "country_code": "DK",
    "zipcode": "9750",
    "place": "Østervrå",
    "state": "Region Nordjylland",
    "state_code": "81",
    "province": "Brønderslev Kommune",
    "province_code": "810",
    "community": "",
    "community_code": "",
    "latitude": "57.3417",
    "longitude": "10.2401"
  },
  {
    "country_code": "DK",
    "zipcode": "9760",
    "place": "Vrå",
    "state": "Region Nordjylland",
    "state_code": "81",
    "province": "Brønderslev Kommune",
    "province_code": "810",
    "community": "",
    "community_code": "",
    "latitude": "57.3476",
    "longitude": "9.9515"
  },
  {
    "country_code": "DK",
    "zipcode": "9300",
    "place": "Sæby",
    "state": "Region Nordjylland",
    "state_code": "81",
    "province": "Frederikshavn Kommune",
    "province_code": "813",
    "community": "",
    "community_code": "",
    "latitude": "57.3319",
    "longitude": "10.5225"
  },
  {
    "country_code": "DK",
    "zipcode": "9330",
    "place": "Dronninglund",
    "state": "Region Nordjylland",
    "state_code": "81",
    "province": "Frederikshavn Kommune",
    "province_code": "813",
    "community": "",
    "community_code": "",
    "latitude": "57.1604",
    "longitude": "10.2929"
  },
  {
    "country_code": "DK",
    "zipcode": "9340",
    "place": "Asaa",
    "state": "Region Nordjylland",
    "state_code": "81",
    "province": "Frederikshavn Kommune",
    "province_code": "813",
    "community": "",
    "community_code": "",
    "latitude": "57.1487",
    "longitude": "10.4037"
  },
  {
    "country_code": "DK",
    "zipcode": "9352",
    "place": "Dybvad",
    "state": "Region Nordjylland",
    "state_code": "81",
    "province": "Frederikshavn Kommune",
    "province_code": "813",
    "community": "",
    "community_code": "",
    "latitude": "57.272",
    "longitude": "10.3595"
  },
  {
    "country_code": "DK",
    "zipcode": "9750",
    "place": "Østervrå",
    "state": "Region Nordjylland",
    "state_code": "81",
    "province": "Frederikshavn Kommune",
    "province_code": "813",
    "community": "",
    "community_code": "",
    "latitude": "57.3417",
    "longitude": "10.2401"
  },
  {
    "country_code": "DK",
    "zipcode": "9830",
    "place": "Tårs",
    "state": "Region Nordjylland",
    "state_code": "81",
    "province": "Frederikshavn Kommune",
    "province_code": "813",
    "community": "",
    "community_code": "",
    "latitude": "57.3833",
    "longitude": "10.1167"
  },
  {
    "country_code": "DK",
    "zipcode": "9870",
    "place": "Sindal",
    "state": "Region Nordjylland",
    "state_code": "81",
    "province": "Frederikshavn Kommune",
    "province_code": "813",
    "community": "",
    "community_code": "",
    "latitude": "57.4712",
    "longitude": "10.2031"
  },
  {
    "country_code": "DK",
    "zipcode": "9881",
    "place": "Bindslev",
    "state": "Region Nordjylland",
    "state_code": "81",
    "province": "Frederikshavn Kommune",
    "province_code": "813",
    "community": "",
    "community_code": "",
    "latitude": "57.5521",
    "longitude": "10.2036"
  },
  {
    "country_code": "DK",
    "zipcode": "9900",
    "place": "Frederikshavn",
    "state": "Region Nordjylland",
    "state_code": "81",
    "province": "Frederikshavn Kommune",
    "province_code": "813",
    "community": "",
    "community_code": "",
    "latitude": "57.4407",
    "longitude": "10.5366"
  },
  {
    "country_code": "DK",
    "zipcode": "9970",
    "place": "Strandby",
    "state": "Region Nordjylland",
    "state_code": "81",
    "province": "Frederikshavn Kommune",
    "province_code": "813",
    "community": "",
    "community_code": "",
    "latitude": "57.4915",
    "longitude": "10.4961"
  },
  {
    "country_code": "DK",
    "zipcode": "9981",
    "place": "Jerup",
    "state": "Region Nordjylland",
    "state_code": "81",
    "province": "Frederikshavn Kommune",
    "province_code": "813",
    "community": "",
    "community_code": "",
    "latitude": "57.5343",
    "longitude": "10.4166"
  },
  {
    "country_code": "DK",
    "zipcode": "9982",
    "place": "Ålbæk",
    "state": "Region Nordjylland",
    "state_code": "81",
    "province": "Frederikshavn Kommune",
    "province_code": "813",
    "community": "",
    "community_code": "",
    "latitude": "57.5925",
    "longitude": "10.4046"
  },
  {
    "country_code": "DK",
    "zipcode": "9990",
    "place": "Skagen",
    "state": "Region Nordjylland",
    "state_code": "81",
    "province": "Frederikshavn Kommune",
    "province_code": "813",
    "community": "",
    "community_code": "",
    "latitude": "57.7209",
    "longitude": "10.5839"
  },
  {
    "country_code": "DK",
    "zipcode": "9240",
    "place": "Nibe",
    "state": "Region Nordjylland",
    "state_code": "81",
    "province": "Vesthimmerlands Kommune",
    "province_code": "820",
    "community": "",
    "community_code": "",
    "latitude": "56.9815",
    "longitude": "9.6392"
  },
  {
    "country_code": "DK",
    "zipcode": "9541",
    "place": "Suldrup",
    "state": "Region Nordjylland",
    "state_code": "81",
    "province": "Vesthimmerlands Kommune",
    "province_code": "820",
    "community": "",
    "community_code": "",
    "latitude": "56.8488",
    "longitude": "9.7006"
  },
  {
    "country_code": "DK",
    "zipcode": "9600",
    "place": "Aars",
    "state": "Region Nordjylland",
    "state_code": "81",
    "province": "Vesthimmerlands Kommune",
    "province_code": "820",
    "community": "",
    "community_code": "",
    "latitude": "56.804",
    "longitude": "9.5144"
  },
  {
    "country_code": "DK",
    "zipcode": "9610",
    "place": "Nørager",
    "state": "Region Nordjylland",
    "state_code": "81",
    "province": "Vesthimmerlands Kommune",
    "province_code": "820",
    "community": "",
    "community_code": "",
    "latitude": "56.7262",
    "longitude": "9.5971"
  },
  {
    "country_code": "DK",
    "zipcode": "9620",
    "place": "Aalestrup",
    "state": "Region Nordjylland",
    "state_code": "81",
    "province": "Vesthimmerlands Kommune",
    "province_code": "820",
    "community": "",
    "community_code": "",
    "latitude": "56.6947",
    "longitude": "9.4934"
  },
  {
    "country_code": "DK",
    "zipcode": "9631",
    "place": "Gedsted",
    "state": "Region Nordjylland",
    "state_code": "81",
    "province": "Vesthimmerlands Kommune",
    "province_code": "820",
    "community": "",
    "community_code": "",
    "latitude": "56.6892",
    "longitude": "9.3367"
  },
  {
    "country_code": "DK",
    "zipcode": "9640",
    "place": "Farsø",
    "state": "Region Nordjylland",
    "state_code": "81",
    "province": "Vesthimmerlands Kommune",
    "province_code": "820",
    "community": "",
    "community_code": "",
    "latitude": "56.7728",
    "longitude": "9.3393"
  },
  {
    "country_code": "DK",
    "zipcode": "9670",
    "place": "Løgstør",
    "state": "Region Nordjylland",
    "state_code": "81",
    "province": "Vesthimmerlands Kommune",
    "province_code": "820",
    "community": "",
    "community_code": "",
    "latitude": "56.9625",
    "longitude": "9.2583"
  },
  {
    "country_code": "DK",
    "zipcode": "9681",
    "place": "Ranum",
    "state": "Region Nordjylland",
    "state_code": "81",
    "province": "Vesthimmerlands Kommune",
    "province_code": "820",
    "community": "",
    "community_code": "",
    "latitude": "56.8973",
    "longitude": "9.2287"
  },
  {
    "country_code": "DK",
    "zipcode": "9940",
    "place": "Læsø",
    "state": "Region Nordjylland",
    "state_code": "81",
    "province": "Læsø Kommune",
    "province_code": "825",
    "community": "",
    "community_code": "",
    "latitude": "57.5448",
    "longitude": "10.4827"
  },
  {
    "country_code": "DK",
    "zipcode": "9230",
    "place": "Svenstrup J",
    "state": "Region Nordjylland",
    "state_code": "81",
    "province": "Rebild Kommune",
    "province_code": "840",
    "community": "",
    "community_code": "",
    "latitude": "56.9733",
    "longitude": "9.9233"
  },
  {
    "country_code": "DK",
    "zipcode": "9240",
    "place": "Nibe",
    "state": "Region Nordjylland",
    "state_code": "81",
    "province": "Rebild Kommune",
    "province_code": "840",
    "community": "",
    "community_code": "",
    "latitude": "56.9815",
    "longitude": "9.6392"
  },
  {
    "country_code": "DK",
    "zipcode": "9260",
    "place": "Gistrup",
    "state": "Region Nordjylland",
    "state_code": "81",
    "province": "Rebild Kommune",
    "province_code": "840",
    "community": "",
    "community_code": "",
    "latitude": "56.9943",
    "longitude": "9.9909"
  },
  {
    "country_code": "DK",
    "zipcode": "9293",
    "place": "Kongerslev",
    "state": "Region Nordjylland",
    "state_code": "81",
    "province": "Rebild Kommune",
    "province_code": "840",
    "community": "",
    "community_code": "",
    "latitude": "56.9056",
    "longitude": "10.1267"
  },
  {
    "country_code": "DK",
    "zipcode": "9500",
    "place": "Hobro",
    "state": "Region Nordjylland",
    "state_code": "81",
    "province": "Rebild Kommune",
    "province_code": "840",
    "community": "",
    "community_code": "",
    "latitude": "56.6431",
    "longitude": "9.7903"
  },
  {
    "country_code": "DK",
    "zipcode": "9510",
    "place": "Arden",
    "state": "Region Nordjylland",
    "state_code": "81",
    "province": "Rebild Kommune",
    "province_code": "840",
    "community": "",
    "community_code": "",
    "latitude": "56.769",
    "longitude": "9.8618"
  },
  {
    "country_code": "DK",
    "zipcode": "9520",
    "place": "Skørping",
    "state": "Region Nordjylland",
    "state_code": "81",
    "province": "Rebild Kommune",
    "province_code": "840",
    "community": "",
    "community_code": "",
    "latitude": "56.8363",
    "longitude": "9.8925"
  },
  {
    "country_code": "DK",
    "zipcode": "9530",
    "place": "Støvring",
    "state": "Region Nordjylland",
    "state_code": "81",
    "province": "Rebild Kommune",
    "province_code": "840",
    "community": "",
    "community_code": "",
    "latitude": "56.8854",
    "longitude": "9.8384"
  },
  {
    "country_code": "DK",
    "zipcode": "9541",
    "place": "Suldrup",
    "state": "Region Nordjylland",
    "state_code": "81",
    "province": "Rebild Kommune",
    "province_code": "840",
    "community": "",
    "community_code": "",
    "latitude": "56.8488",
    "longitude": "9.7006"
  },
  {
    "country_code": "DK",
    "zipcode": "9560",
    "place": "Hadsund",
    "state": "Region Nordjylland",
    "state_code": "81",
    "province": "Rebild Kommune",
    "province_code": "840",
    "community": "",
    "community_code": "",
    "latitude": "56.7148",
    "longitude": "10.1168"
  },
  {
    "country_code": "DK",
    "zipcode": "9574",
    "place": "Bælum",
    "state": "Region Nordjylland",
    "state_code": "81",
    "province": "Rebild Kommune",
    "province_code": "840",
    "community": "",
    "community_code": "",
    "latitude": "56.83",
    "longitude": "10.1198"
  },
  {
    "country_code": "DK",
    "zipcode": "9575",
    "place": "Terndrup",
    "state": "Region Nordjylland",
    "state_code": "81",
    "province": "Rebild Kommune",
    "province_code": "840",
    "community": "",
    "community_code": "",
    "latitude": "56.8139",
    "longitude": "10.0615"
  },
  {
    "country_code": "DK",
    "zipcode": "9600",
    "place": "Aars",
    "state": "Region Nordjylland",
    "state_code": "81",
    "province": "Rebild Kommune",
    "province_code": "840",
    "community": "",
    "community_code": "",
    "latitude": "56.804",
    "longitude": "9.5144"
  },
  {
    "country_code": "DK",
    "zipcode": "9610",
    "place": "Nørager",
    "state": "Region Nordjylland",
    "state_code": "81",
    "province": "Rebild Kommune",
    "province_code": "840",
    "community": "",
    "community_code": "",
    "latitude": "56.7262",
    "longitude": "9.5971"
  },
  {
    "country_code": "DK",
    "zipcode": "9620",
    "place": "Aalestrup",
    "state": "Region Nordjylland",
    "state_code": "81",
    "province": "Rebild Kommune",
    "province_code": "840",
    "community": "",
    "community_code": "",
    "latitude": "56.6947",
    "longitude": "9.4934"
  },
  {
    "country_code": "DK",
    "zipcode": "8970",
    "place": "Havndal",
    "state": "Region Nordjylland",
    "state_code": "81",
    "province": "Mariagerfjord Kommune",
    "province_code": "846",
    "community": "",
    "community_code": "",
    "latitude": "56.6525",
    "longitude": "10.1967"
  },
  {
    "country_code": "DK",
    "zipcode": "8990",
    "place": "Fårup",
    "state": "Region Nordjylland",
    "state_code": "81",
    "province": "Mariagerfjord Kommune",
    "province_code": "846",
    "community": "",
    "community_code": "",
    "latitude": "56.3667",
    "longitude": "10.2494"
  },
  {
    "country_code": "DK",
    "zipcode": "9500",
    "place": "Hobro",
    "state": "Region Nordjylland",
    "state_code": "81",
    "province": "Mariagerfjord Kommune",
    "province_code": "846",
    "community": "",
    "community_code": "",
    "latitude": "56.6431",
    "longitude": "9.7903"
  },
  {
    "country_code": "DK",
    "zipcode": "9510",
    "place": "Arden",
    "state": "Region Nordjylland",
    "state_code": "81",
    "province": "Mariagerfjord Kommune",
    "province_code": "846",
    "community": "",
    "community_code": "",
    "latitude": "56.769",
    "longitude": "9.8618"
  },
  {
    "country_code": "DK",
    "zipcode": "9550",
    "place": "Mariager",
    "state": "Region Nordjylland",
    "state_code": "81",
    "province": "Mariagerfjord Kommune",
    "province_code": "846",
    "community": "",
    "community_code": "",
    "latitude": "56.6499",
    "longitude": "9.9751"
  },
  {
    "country_code": "DK",
    "zipcode": "9560",
    "place": "Hadsund",
    "state": "Region Nordjylland",
    "state_code": "81",
    "province": "Mariagerfjord Kommune",
    "province_code": "846",
    "community": "",
    "community_code": "",
    "latitude": "56.7148",
    "longitude": "10.1168"
  },
  {
    "country_code": "DK",
    "zipcode": "9620",
    "place": "Aalestrup",
    "state": "Region Nordjylland",
    "state_code": "81",
    "province": "Mariagerfjord Kommune",
    "province_code": "846",
    "community": "",
    "community_code": "",
    "latitude": "56.6947",
    "longitude": "9.4934"
  },
  {
    "country_code": "DK",
    "zipcode": "9632",
    "place": "Møldrup",
    "state": "Region Nordjylland",
    "state_code": "81",
    "province": "Mariagerfjord Kommune",
    "province_code": "846",
    "community": "",
    "community_code": "",
    "latitude": "56.6167",
    "longitude": "9.5011"
  },
  {
    "country_code": "DK",
    "zipcode": "9381",
    "place": "Sulsted",
    "state": "Region Nordjylland",
    "state_code": "81",
    "province": "Jammerbugt Kommune",
    "province_code": "849",
    "community": "",
    "community_code": "",
    "latitude": "57.1634",
    "longitude": "9.9567"
  },
  {
    "country_code": "DK",
    "zipcode": "9382",
    "place": "Tylstrup",
    "state": "Region Nordjylland",
    "state_code": "81",
    "province": "Jammerbugt Kommune",
    "province_code": "849",
    "community": "",
    "community_code": "",
    "latitude": "57.1947",
    "longitude": "9.9531"
  },
  {
    "country_code": "DK",
    "zipcode": "9430",
    "place": "Vadum",
    "state": "Region Nordjylland",
    "state_code": "81",
    "province": "Jammerbugt Kommune",
    "province_code": "849",
    "community": "",
    "community_code": "",
    "latitude": "57.1179",
    "longitude": "9.857"
  },
  {
    "country_code": "DK",
    "zipcode": "9440",
    "place": "Aabybro",
    "state": "Region Nordjylland",
    "state_code": "81",
    "province": "Jammerbugt Kommune",
    "province_code": "849",
    "community": "",
    "community_code": "",
    "latitude": "57.1584",
    "longitude": "9.7367"
  },
  {
    "country_code": "DK",
    "zipcode": "9460",
    "place": "Brovst",
    "state": "Region Nordjylland",
    "state_code": "81",
    "province": "Jammerbugt Kommune",
    "province_code": "849",
    "community": "",
    "community_code": "",
    "latitude": "57.0956",
    "longitude": "9.528"
  },
  {
    "country_code": "DK",
    "zipcode": "9480",
    "place": "Løkken",
    "state": "Region Nordjylland",
    "state_code": "81",
    "province": "Jammerbugt Kommune",
    "province_code": "849",
    "community": "",
    "community_code": "",
    "latitude": "57.3705",
    "longitude": "9.7147"
  },
  {
    "country_code": "DK",
    "zipcode": "9490",
    "place": "Pandrup",
    "state": "Region Nordjylland",
    "state_code": "81",
    "province": "Jammerbugt Kommune",
    "province_code": "849",
    "community": "",
    "community_code": "",
    "latitude": "57.2215",
    "longitude": "9.6757"
  },
  {
    "country_code": "DK",
    "zipcode": "9492",
    "place": "Blokhus",
    "state": "Region Nordjylland",
    "state_code": "81",
    "province": "Jammerbugt Kommune",
    "province_code": "849",
    "community": "",
    "community_code": "",
    "latitude": "57.248",
    "longitude": "9.5897"
  },
  {
    "country_code": "DK",
    "zipcode": "9493",
    "place": "Saltum",
    "state": "Region Nordjylland",
    "state_code": "81",
    "province": "Jammerbugt Kommune",
    "province_code": "849",
    "community": "",
    "community_code": "",
    "latitude": "57.2719",
    "longitude": "9.698"
  },
  {
    "country_code": "DK",
    "zipcode": "9670",
    "place": "Løgstør",
    "state": "Region Nordjylland",
    "state_code": "81",
    "province": "Jammerbugt Kommune",
    "province_code": "849",
    "community": "",
    "community_code": "",
    "latitude": "56.9625",
    "longitude": "9.2583"
  },
  {
    "country_code": "DK",
    "zipcode": "9690",
    "place": "Fjerritslev",
    "state": "Region Nordjylland",
    "state_code": "81",
    "province": "Jammerbugt Kommune",
    "province_code": "849",
    "community": "",
    "community_code": "",
    "latitude": "57.0813",
    "longitude": "9.2664"
  },
  {
    "country_code": "DK",
    "zipcode": "9700",
    "place": "Brønderslev",
    "state": "Region Nordjylland",
    "state_code": "81",
    "province": "Jammerbugt Kommune",
    "province_code": "849",
    "community": "",
    "community_code": "",
    "latitude": "57.2702",
    "longitude": "9.941"
  },
  {
    "country_code": "DK",
    "zipcode": "9000",
    "place": "Aalborg",
    "state": "Region Nordjylland",
    "state_code": "81",
    "province": "Aalborg Kommune",
    "province_code": "851",
    "community": "",
    "community_code": "",
    "latitude": "57.048",
    "longitude": "9.9187"
  },
  {
    "country_code": "DK",
    "zipcode": "9100",
    "place": "Aalborg",
    "state": "Region Nordjylland",
    "state_code": "81",
    "province": "Aalborg Kommune",
    "province_code": "851",
    "community": "",
    "community_code": "",
    "latitude": "57.048",
    "longitude": "9.9187"
  },
  {
    "country_code": "DK",
    "zipcode": "9200",
    "place": "Aalborg SV",
    "state": "Region Nordjylland",
    "state_code": "81",
    "province": "Aalborg Kommune",
    "province_code": "851",
    "community": "",
    "community_code": "",
    "latitude": "56.9733",
    "longitude": "9.9233"
  },
  {
    "country_code": "DK",
    "zipcode": "9210",
    "place": "Aalborg SØ",
    "state": "Region Nordjylland",
    "state_code": "81",
    "province": "Aalborg Kommune",
    "province_code": "851",
    "community": "",
    "community_code": "",
    "latitude": "56.9733",
    "longitude": "9.9233"
  },
  {
    "country_code": "DK",
    "zipcode": "9220",
    "place": "Aalborg Øst",
    "state": "Region Nordjylland",
    "state_code": "81",
    "province": "Aalborg Kommune",
    "province_code": "851",
    "community": "",
    "community_code": "",
    "latitude": "56.9733",
    "longitude": "9.9233"
  },
  {
    "country_code": "DK",
    "zipcode": "9230",
    "place": "Svenstrup J",
    "state": "Region Nordjylland",
    "state_code": "81",
    "province": "Aalborg Kommune",
    "province_code": "851",
    "community": "",
    "community_code": "",
    "latitude": "56.9733",
    "longitude": "9.9233"
  },
  {
    "country_code": "DK",
    "zipcode": "9240",
    "place": "Nibe",
    "state": "Region Nordjylland",
    "state_code": "81",
    "province": "Aalborg Kommune",
    "province_code": "851",
    "community": "",
    "community_code": "",
    "latitude": "56.9815",
    "longitude": "9.6392"
  },
  {
    "country_code": "DK",
    "zipcode": "9260",
    "place": "Gistrup",
    "state": "Region Nordjylland",
    "state_code": "81",
    "province": "Aalborg Kommune",
    "province_code": "851",
    "community": "",
    "community_code": "",
    "latitude": "56.9943",
    "longitude": "9.9909"
  },
  {
    "country_code": "DK",
    "zipcode": "9270",
    "place": "Klarup",
    "state": "Region Nordjylland",
    "state_code": "81",
    "province": "Aalborg Kommune",
    "province_code": "851",
    "community": "",
    "community_code": "",
    "latitude": "57.0119",
    "longitude": "10.0562"
  },
  {
    "country_code": "DK",
    "zipcode": "9280",
    "place": "Storvorde",
    "state": "Region Nordjylland",
    "state_code": "81",
    "province": "Aalborg Kommune",
    "province_code": "851",
    "community": "",
    "community_code": "",
    "latitude": "57.0039",
    "longitude": "10.1013"
  },
  {
    "country_code": "DK",
    "zipcode": "9293",
    "place": "Kongerslev",
    "state": "Region Nordjylland",
    "state_code": "81",
    "province": "Aalborg Kommune",
    "province_code": "851",
    "community": "",
    "community_code": "",
    "latitude": "56.9056",
    "longitude": "10.1267"
  },
  {
    "country_code": "DK",
    "zipcode": "9310",
    "place": "Vodskov",
    "state": "Region Nordjylland",
    "state_code": "81",
    "province": "Aalborg Kommune",
    "province_code": "851",
    "community": "",
    "community_code": "",
    "latitude": "57.1085",
    "longitude": "10.0222"
  },
  {
    "country_code": "DK",
    "zipcode": "9320",
    "place": "Hjallerup",
    "state": "Region Nordjylland",
    "state_code": "81",
    "province": "Aalborg Kommune",
    "province_code": "851",
    "community": "",
    "community_code": "",
    "latitude": "57.1647",
    "longitude": "10.1457"
  },
  {
    "country_code": "DK",
    "zipcode": "9362",
    "place": "Gandrup",
    "state": "Region Nordjylland",
    "state_code": "81",
    "province": "Aalborg Kommune",
    "province_code": "851",
    "community": "",
    "community_code": "",
    "latitude": "57.0574",
    "longitude": "10.1814"
  },
  {
    "country_code": "DK",
    "zipcode": "9370",
    "place": "Hals",
    "state": "Region Nordjylland",
    "state_code": "81",
    "province": "Aalborg Kommune",
    "province_code": "851",
    "community": "",
    "community_code": "",
    "latitude": "56.9961",
    "longitude": "10.3081"
  },
  {
    "country_code": "DK",
    "zipcode": "9380",
    "place": "Vestbjerg",
    "state": "Region Nordjylland",
    "state_code": "81",
    "province": "Aalborg Kommune",
    "province_code": "851",
    "community": "",
    "community_code": "",
    "latitude": "57.1317",
    "longitude": "9.9594"
  },
  {
    "country_code": "DK",
    "zipcode": "9381",
    "place": "Sulsted",
    "state": "Region Nordjylland",
    "state_code": "81",
    "province": "Aalborg Kommune",
    "province_code": "851",
    "community": "",
    "community_code": "",
    "latitude": "57.1634",
    "longitude": "9.9567"
  },
  {
    "country_code": "DK",
    "zipcode": "9382",
    "place": "Tylstrup",
    "state": "Region Nordjylland",
    "state_code": "81",
    "province": "Aalborg Kommune",
    "province_code": "851",
    "community": "",
    "community_code": "",
    "latitude": "57.1947",
    "longitude": "9.9531"
  },
  {
    "country_code": "DK",
    "zipcode": "9400",
    "place": "Nørresundby",
    "state": "Region Nordjylland",
    "state_code": "81",
    "province": "Aalborg Kommune",
    "province_code": "851",
    "community": "",
    "community_code": "",
    "latitude": "57.0483",
    "longitude": "9.9352"
  },
  {
    "country_code": "DK",
    "zipcode": "9430",
    "place": "Vadum",
    "state": "Region Nordjylland",
    "state_code": "81",
    "province": "Aalborg Kommune",
    "province_code": "851",
    "community": "",
    "community_code": "",
    "latitude": "57.1179",
    "longitude": "9.857"
  },
  {
    "country_code": "DK",
    "zipcode": "9440",
    "place": "Aabybro",
    "state": "Region Nordjylland",
    "state_code": "81",
    "province": "Aalborg Kommune",
    "province_code": "851",
    "community": "",
    "community_code": "",
    "latitude": "57.1584",
    "longitude": "9.7367"
  },
  {
    "country_code": "DK",
    "zipcode": "9530",
    "place": "Støvring",
    "state": "Region Nordjylland",
    "state_code": "81",
    "province": "Aalborg Kommune",
    "province_code": "851",
    "community": "",
    "community_code": "",
    "latitude": "56.8854",
    "longitude": "9.8384"
  },
  {
    "country_code": "DK",
    "zipcode": "9480",
    "place": "Løkken",
    "state": "Region Nordjylland",
    "state_code": "81",
    "province": "Hjørring Kommune",
    "province_code": "860",
    "community": "",
    "community_code": "",
    "latitude": "57.3705",
    "longitude": "9.7147"
  },
  {
    "country_code": "DK",
    "zipcode": "9740",
    "place": "Jerslev J",
    "state": "Region Nordjylland",
    "state_code": "81",
    "province": "Hjørring Kommune",
    "province_code": "860",
    "community": "",
    "community_code": "",
    "latitude": "57.323",
    "longitude": "10.0722"
  },
  {
    "country_code": "DK",
    "zipcode": "9750",
    "place": "Østervrå",
    "state": "Region Nordjylland",
    "state_code": "81",
    "province": "Hjørring Kommune",
    "province_code": "860",
    "community": "",
    "community_code": "",
    "latitude": "57.3417",
    "longitude": "10.2401"
  },
  {
    "country_code": "DK",
    "zipcode": "9760",
    "place": "Vrå",
    "state": "Region Nordjylland",
    "state_code": "81",
    "province": "Hjørring Kommune",
    "province_code": "860",
    "community": "",
    "community_code": "",
    "latitude": "57.3476",
    "longitude": "9.9515"
  },
  {
    "country_code": "DK",
    "zipcode": "9800",
    "place": "Hjørring",
    "state": "Region Nordjylland",
    "state_code": "81",
    "province": "Hjørring Kommune",
    "province_code": "860",
    "community": "",
    "community_code": "",
    "latitude": "57.4642",
    "longitude": "9.9823"
  },
  {
    "country_code": "DK",
    "zipcode": "9830",
    "place": "Tårs",
    "state": "Region Nordjylland",
    "state_code": "81",
    "province": "Hjørring Kommune",
    "province_code": "860",
    "community": "",
    "community_code": "",
    "latitude": "57.3833",
    "longitude": "10.1167"
  },
  {
    "country_code": "DK",
    "zipcode": "9850",
    "place": "Hirtshals",
    "state": "Region Nordjylland",
    "state_code": "81",
    "province": "Hjørring Kommune",
    "province_code": "860",
    "community": "",
    "community_code": "",
    "latitude": "57.5881",
    "longitude": "9.9592"
  },
  {
    "country_code": "DK",
    "zipcode": "9870",
    "place": "Sindal",
    "state": "Region Nordjylland",
    "state_code": "81",
    "province": "Hjørring Kommune",
    "province_code": "860",
    "community": "",
    "community_code": "",
    "latitude": "57.4712",
    "longitude": "10.2031"
  },
  {
    "country_code": "DK",
    "zipcode": "9881",
    "place": "Bindslev",
    "state": "Region Nordjylland",
    "state_code": "81",
    "province": "Hjørring Kommune",
    "province_code": "860",
    "community": "",
    "community_code": "",
    "latitude": "57.5521",
    "longitude": "10.2036"
  },
  {
    "country_code": "DK",
    "zipcode": "9900",
    "place": "Frederikshavn",
    "state": "Region Nordjylland",
    "state_code": "81",
    "province": "Hjørring Kommune",
    "province_code": "860",
    "community": "",
    "community_code": "",
    "latitude": "57.4407",
    "longitude": "10.5366"
  },
  {
    "country_code": "DK",
    "zipcode": "9982",
    "place": "Ålbæk",
    "state": "Region Nordjylland",
    "state_code": "81",
    "province": "Hjørring Kommune",
    "province_code": "860",
    "community": "",
    "community_code": "",
    "latitude": "57.5925",
    "longitude": "10.4046"
  },
  {
    "country_code": "DK",
    "zipcode": "8654",
    "place": "Bryrup",
    "state": "Region Midtjylland",
    "state_code": "82",
    "province": "Horsens Kommune",
    "province_code": "615",
    "community": "",
    "community_code": "",
    "latitude": "56.0228",
    "longitude": "9.5183"
  },
  {
    "country_code": "DK",
    "zipcode": "8660",
    "place": "Skanderborg",
    "state": "Region Midtjylland",
    "state_code": "82",
    "province": "Horsens Kommune",
    "province_code": "615",
    "community": "",
    "community_code": "",
    "latitude": "56.0399",
    "longitude": "9.9272"
  },
  {
    "country_code": "DK",
    "zipcode": "8680",
    "place": "Ry",
    "state": "Region Midtjylland",
    "state_code": "82",
    "province": "Horsens Kommune",
    "province_code": "615",
    "community": "",
    "community_code": "",
    "latitude": "56.0904",
    "longitude": "9.7651"
  },
  {
    "country_code": "DK",
    "zipcode": "8700",
    "place": "Horsens",
    "state": "Region Midtjylland",
    "state_code": "82",
    "province": "Horsens Kommune",
    "province_code": "615",
    "community": "",
    "community_code": "",
    "latitude": "55.8607",
    "longitude": "9.8503"
  },
  {
    "country_code": "DK",
    "zipcode": "8732",
    "place": "Hovedgård",
    "state": "Region Midtjylland",
    "state_code": "82",
    "province": "Horsens Kommune",
    "province_code": "615",
    "community": "",
    "community_code": "",
    "latitude": "55.9417",
    "longitude": "9.955"
  },
  {
    "country_code": "DK",
    "zipcode": "8740",
    "place": "Brædstrup",
    "state": "Region Midtjylland",
    "state_code": "82",
    "province": "Horsens Kommune",
    "province_code": "615",
    "community": "",
    "community_code": "",
    "latitude": "55.9715",
    "longitude": "9.6113"
  },
  {
    "country_code": "DK",
    "zipcode": "8751",
    "place": "Gedved",
    "state": "Region Midtjylland",
    "state_code": "82",
    "province": "Horsens Kommune",
    "province_code": "615",
    "community": "",
    "community_code": "",
    "latitude": "55.9308",
    "longitude": "9.846"
  },
  {
    "country_code": "DK",
    "zipcode": "8752",
    "place": "Østbirk",
    "state": "Region Midtjylland",
    "state_code": "82",
    "province": "Horsens Kommune",
    "province_code": "615",
    "community": "",
    "community_code": "",
    "latitude": "55.9648",
    "longitude": "9.7556"
  },
  {
    "country_code": "DK",
    "zipcode": "8762",
    "place": "Flemming",
    "state": "Region Midtjylland",
    "state_code": "82",
    "province": "Horsens Kommune",
    "province_code": "615",
    "community": "",
    "community_code": "",
    "latitude": "55.8687",
    "longitude": "9.6675"
  },
  {
    "country_code": "DK",
    "zipcode": "8765",
    "place": "Klovborg",
    "state": "Region Midtjylland",
    "state_code": "82",
    "province": "Horsens Kommune",
    "province_code": "615",
    "community": "",
    "community_code": "",
    "latitude": "55.9319",
    "longitude": "9.491"
  },
  {
    "country_code": "DK",
    "zipcode": "8781",
    "place": "Stenderup",
    "state": "Region Midtjylland",
    "state_code": "82",
    "province": "Horsens Kommune",
    "province_code": "615",
    "community": "",
    "community_code": "",
    "latitude": "55.7921",
    "longitude": "9.8097"
  },
  {
    "country_code": "DK",
    "zipcode": "8783",
    "place": "Hornsyld",
    "state": "Region Midtjylland",
    "state_code": "82",
    "province": "Horsens Kommune",
    "province_code": "615",
    "community": "",
    "community_code": "",
    "latitude": "55.7526",
    "longitude": "9.8512"
  },
  {
    "country_code": "DK",
    "zipcode": "6933",
    "place": "Kibæk",
    "state": "Region Midtjylland",
    "state_code": "82",
    "province": "Herning Kommune",
    "province_code": "657",
    "community": "",
    "community_code": "",
    "latitude": "56.0317",
    "longitude": "8.857"
  },
  {
    "country_code": "DK",
    "zipcode": "6973",
    "place": "Ørnhøj",
    "state": "Region Midtjylland",
    "state_code": "82",
    "province": "Herning Kommune",
    "province_code": "657",
    "community": "",
    "community_code": "",
    "latitude": "56.1987",
    "longitude": "8.5645"
  },
  {
    "country_code": "DK",
    "zipcode": "6990",
    "place": "Ulfborg",
    "state": "Region Midtjylland",
    "state_code": "82",
    "province": "Herning Kommune",
    "province_code": "657",
    "community": "",
    "community_code": "",
    "latitude": "56.2673",
    "longitude": "8.3217"
  },
  {
    "country_code": "DK",
    "zipcode": "7260",
    "place": "Sønder Omme",
    "state": "Region Midtjylland",
    "state_code": "82",
    "province": "Herning Kommune",
    "province_code": "657",
    "community": "",
    "community_code": "",
    "latitude": "55.8398",
    "longitude": "8.8972"
  },
  {
    "country_code": "DK",
    "zipcode": "7270",
    "place": "Stakroge",
    "state": "Region Midtjylland",
    "state_code": "82",
    "province": "Herning Kommune",
    "province_code": "657",
    "community": "",
    "community_code": "",
    "latitude": "55.8901",
    "longitude": "8.8473"
  },
  {
    "country_code": "DK",
    "zipcode": "7280",
    "place": "Sønder Felding",
    "state": "Region Midtjylland",
    "state_code": "82",
    "province": "Herning Kommune",
    "province_code": "657",
    "community": "",
    "community_code": "",
    "latitude": "55.9376",
    "longitude": "8.7794"
  },
  {
    "country_code": "DK",
    "zipcode": "7330",
    "place": "Brande",
    "state": "Region Midtjylland",
    "state_code": "82",
    "province": "Herning Kommune",
    "province_code": "657",
    "community": "",
    "community_code": "",
    "latitude": "55.9381",
    "longitude": "9.1218"
  },
  {
    "country_code": "DK",
    "zipcode": "7400",
    "place": "Herning",
    "state": "Region Midtjylland",
    "state_code": "82",
    "province": "Herning Kommune",
    "province_code": "657",
    "community": "",
    "community_code": "",
    "latitude": "56.1393",
    "longitude": "8.9738"
  },
  {
    "country_code": "DK",
    "zipcode": "7451",
    "place": "Sunds",
    "state": "Region Midtjylland",
    "state_code": "82",
    "province": "Herning Kommune",
    "province_code": "657",
    "community": "",
    "community_code": "",
    "latitude": "56.2042",
    "longitude": "9.0127"
  },
  {
    "country_code": "DK",
    "zipcode": "7470",
    "place": "Karup J",
    "state": "Region Midtjylland",
    "state_code": "82",
    "province": "Herning Kommune",
    "province_code": "657",
    "community": "",
    "community_code": "",
    "latitude": "56.1757",
    "longitude": "9.0321"
  },
  {
    "country_code": "DK",
    "zipcode": "7480",
    "place": "Vildbjerg",
    "state": "Region Midtjylland",
    "state_code": "82",
    "province": "Herning Kommune",
    "province_code": "657",
    "community": "",
    "community_code": "",
    "latitude": "56.2",
    "longitude": "8.7667"
  },
  {
    "country_code": "DK",
    "zipcode": "7490",
    "place": "Aulum",
    "state": "Region Midtjylland",
    "state_code": "82",
    "province": "Herning Kommune",
    "province_code": "657",
    "community": "",
    "community_code": "",
    "latitude": "56.2654",
    "longitude": "8.7926"
  },
  {
    "country_code": "DK",
    "zipcode": "7500",
    "place": "Holstebro",
    "state": "Region Midtjylland",
    "state_code": "82",
    "province": "Herning Kommune",
    "province_code": "657",
    "community": "",
    "community_code": "",
    "latitude": "56.3601",
    "longitude": "8.6161"
  },
  {
    "country_code": "DK",
    "zipcode": "7540",
    "place": "Haderup",
    "state": "Region Midtjylland",
    "state_code": "82",
    "province": "Herning Kommune",
    "province_code": "657",
    "community": "",
    "community_code": "",
    "latitude": "56.3896",
    "longitude": "8.9943"
  },
  {
    "country_code": "DK",
    "zipcode": "7550",
    "place": "Sørvad",
    "state": "Region Midtjylland",
    "state_code": "82",
    "province": "Herning Kommune",
    "province_code": "657",
    "community": "",
    "community_code": "",
    "latitude": "56.2629",
    "longitude": "8.6563"
  },
  {
    "country_code": "DK",
    "zipcode": "7830",
    "place": "Vinderup",
    "state": "Region Midtjylland",
    "state_code": "82",
    "province": "Herning Kommune",
    "province_code": "657",
    "community": "",
    "community_code": "",
    "latitude": "56.4751",
    "longitude": "8.7908"
  },
  {
    "country_code": "DK",
    "zipcode": "6990",
    "place": "Ulfborg",
    "state": "Region Midtjylland",
    "state_code": "82",
    "province": "Holstebro Kommune",
    "province_code": "661",
    "community": "",
    "community_code": "",
    "latitude": "56.2673",
    "longitude": "8.3217"
  },
  {
    "country_code": "DK",
    "zipcode": "7500",
    "place": "Holstebro",
    "state": "Region Midtjylland",
    "state_code": "82",
    "province": "Holstebro Kommune",
    "province_code": "661",
    "community": "",
    "community_code": "",
    "latitude": "56.3601",
    "longitude": "8.6161"
  },
  {
    "country_code": "DK",
    "zipcode": "7540",
    "place": "Haderup",
    "state": "Region Midtjylland",
    "state_code": "82",
    "province": "Holstebro Kommune",
    "province_code": "661",
    "community": "",
    "community_code": "",
    "latitude": "56.3896",
    "longitude": "8.9943"
  },
  {
    "country_code": "DK",
    "zipcode": "7560",
    "place": "Hjerm",
    "state": "Region Midtjylland",
    "state_code": "82",
    "province": "Holstebro Kommune",
    "province_code": "661",
    "community": "",
    "community_code": "",
    "latitude": "56.4384",
    "longitude": "8.6345"
  },
  {
    "country_code": "DK",
    "zipcode": "7570",
    "place": "Vemb",
    "state": "Region Midtjylland",
    "state_code": "82",
    "province": "Holstebro Kommune",
    "province_code": "661",
    "community": "",
    "community_code": "",
    "latitude": "56.3423",
    "longitude": "8.3375"
  },
  {
    "country_code": "DK",
    "zipcode": "7600",
    "place": "Struer",
    "state": "Region Midtjylland",
    "state_code": "82",
    "province": "Holstebro Kommune",
    "province_code": "661",
    "community": "",
    "community_code": "",
    "latitude": "56.4912",
    "longitude": "8.5838"
  },
  {
    "country_code": "DK",
    "zipcode": "7800",
    "place": "Skive",
    "state": "Region Midtjylland",
    "state_code": "82",
    "province": "Holstebro Kommune",
    "province_code": "661",
    "community": "",
    "community_code": "",
    "latitude": "56.5638",
    "longitude": "9.0402"
  },
  {
    "country_code": "DK",
    "zipcode": "7830",
    "place": "Vinderup",
    "state": "Region Midtjylland",
    "state_code": "82",
    "province": "Holstebro Kommune",
    "province_code": "661",
    "community": "",
    "community_code": "",
    "latitude": "56.4751",
    "longitude": "8.7908"
  },
  {
    "country_code": "DK",
    "zipcode": "6990",
    "place": "Ulfborg",
    "state": "Region Midtjylland",
    "state_code": "82",
    "province": "Lemvig Kommune",
    "province_code": "665",
    "community": "",
    "community_code": "",
    "latitude": "56.2673",
    "longitude": "8.3217"
  },
  {
    "country_code": "DK",
    "zipcode": "7570",
    "place": "Vemb",
    "state": "Region Midtjylland",
    "state_code": "82",
    "province": "Lemvig Kommune",
    "province_code": "665",
    "community": "",
    "community_code": "",
    "latitude": "56.3423",
    "longitude": "8.3375"
  },
  {
    "country_code": "DK",
    "zipcode": "7600",
    "place": "Struer",
    "state": "Region Midtjylland",
    "state_code": "82",
    "province": "Lemvig Kommune",
    "province_code": "665",
    "community": "",
    "community_code": "",
    "latitude": "56.4912",
    "longitude": "8.5838"
  },
  {
    "country_code": "DK",
    "zipcode": "7620",
    "place": "Lemvig",
    "state": "Region Midtjylland",
    "state_code": "82",
    "province": "Lemvig Kommune",
    "province_code": "665",
    "community": "",
    "community_code": "",
    "latitude": "56.5486",
    "longitude": "8.3102"
  },
  {
    "country_code": "DK",
    "zipcode": "7650",
    "place": "Bøvlingbjerg",
    "state": "Region Midtjylland",
    "state_code": "82",
    "province": "Lemvig Kommune",
    "province_code": "665",
    "community": "",
    "community_code": "",
    "latitude": "56.4353",
    "longitude": "8.2029"
  },
  {
    "country_code": "DK",
    "zipcode": "7660",
    "place": "Bækmarksbro",
    "state": "Region Midtjylland",
    "state_code": "82",
    "province": "Lemvig Kommune",
    "province_code": "665",
    "community": "",
    "community_code": "",
    "latitude": "56.4153",
    "longitude": "8.307"
  },
  {
    "country_code": "DK",
    "zipcode": "7673",
    "place": "Harboøre",
    "state": "Region Midtjylland",
    "state_code": "82",
    "province": "Lemvig Kommune",
    "province_code": "665",
    "community": "",
    "community_code": "",
    "latitude": "56.6175",
    "longitude": "8.1807"
  },
  {
    "country_code": "DK",
    "zipcode": "7680",
    "place": "Thyborøn",
    "state": "Region Midtjylland",
    "state_code": "82",
    "province": "Lemvig Kommune",
    "province_code": "665",
    "community": "",
    "community_code": "",
    "latitude": "56.6985",
    "longitude": "8.2124"
  },
  {
    "country_code": "DK",
    "zipcode": "7500",
    "place": "Holstebro",
    "state": "Region Midtjylland",
    "state_code": "82",
    "province": "Struer Kommune",
    "province_code": "671",
    "community": "",
    "community_code": "",
    "latitude": "56.3601",
    "longitude": "8.6161"
  },
  {
    "country_code": "DK",
    "zipcode": "7560",
    "place": "Hjerm",
    "state": "Region Midtjylland",
    "state_code": "82",
    "province": "Struer Kommune",
    "province_code": "671",
    "community": "",
    "community_code": "",
    "latitude": "56.4384",
    "longitude": "8.6345"
  },
  {
    "country_code": "DK",
    "zipcode": "7600",
    "place": "Struer",
    "state": "Region Midtjylland",
    "state_code": "82",
    "province": "Struer Kommune",
    "province_code": "671",
    "community": "",
    "community_code": "",
    "latitude": "56.4912",
    "longitude": "8.5838"
  },
  {
    "country_code": "DK",
    "zipcode": "7660",
    "place": "Bækmarksbro",
    "state": "Region Midtjylland",
    "state_code": "82",
    "province": "Struer Kommune",
    "province_code": "671",
    "community": "",
    "community_code": "",
    "latitude": "56.4153",
    "longitude": "8.307"
  },
  {
    "country_code": "DK",
    "zipcode": "7760",
    "place": "Hurup Thy",
    "state": "Region Midtjylland",
    "state_code": "82",
    "province": "Struer Kommune",
    "province_code": "671",
    "community": "",
    "community_code": "",
    "latitude": "56.7494",
    "longitude": "8.4195"
  },
  {
    "country_code": "DK",
    "zipcode": "7790",
    "place": "Thyholm",
    "state": "Region Midtjylland",
    "state_code": "82",
    "province": "Struer Kommune",
    "province_code": "671",
    "community": "",
    "community_code": "",
    "latitude": "56.9189",
    "longitude": "8.6206"
  },
  {
    "country_code": "DK",
    "zipcode": "7830",
    "place": "Vinderup",
    "state": "Region Midtjylland",
    "state_code": "82",
    "province": "Struer Kommune",
    "province_code": "671",
    "community": "",
    "community_code": "",
    "latitude": "56.4751",
    "longitude": "8.7908"
  },
  {
    "country_code": "DK",
    "zipcode": "8400",
    "place": "Ebeltoft",
    "state": "Region Midtjylland",
    "state_code": "82",
    "province": "Syddjurs Kommune",
    "province_code": "706",
    "community": "",
    "community_code": "",
    "latitude": "56.1944",
    "longitude": "10.6821"
  },
  {
    "country_code": "DK",
    "zipcode": "8410",
    "place": "Rønde",
    "state": "Region Midtjylland",
    "state_code": "82",
    "province": "Syddjurs Kommune",
    "province_code": "706",
    "community": "",
    "community_code": "",
    "latitude": "56.3015",
    "longitude": "10.4751"
  },
  {
    "country_code": "DK",
    "zipcode": "8420",
    "place": "Knebel",
    "state": "Region Midtjylland",
    "state_code": "82",
    "province": "Syddjurs Kommune",
    "province_code": "706",
    "community": "",
    "community_code": "",
    "latitude": "56.2141",
    "longitude": "10.4886"
  },
  {
    "country_code": "DK",
    "zipcode": "8444",
    "place": "Balle",
    "state": "Region Midtjylland",
    "state_code": "82",
    "province": "Syddjurs Kommune",
    "province_code": "706",
    "community": "",
    "community_code": "",
    "latitude": "56.2963",
    "longitude": "10.2589"
  },
  {
    "country_code": "DK",
    "zipcode": "8543",
    "place": "Hornslet",
    "state": "Region Midtjylland",
    "state_code": "82",
    "province": "Syddjurs Kommune",
    "province_code": "706",
    "community": "",
    "community_code": "",
    "latitude": "56.3155",
    "longitude": "10.3204"
  },
  {
    "country_code": "DK",
    "zipcode": "8544",
    "place": "Mørke",
    "state": "Region Midtjylland",
    "state_code": "82",
    "province": "Syddjurs Kommune",
    "province_code": "706",
    "community": "",
    "community_code": "",
    "latitude": "56.3345",
    "longitude": "10.3819"
  },
  {
    "country_code": "DK",
    "zipcode": "8550",
    "place": "Ryomgård",
    "state": "Region Midtjylland",
    "state_code": "82",
    "province": "Syddjurs Kommune",
    "province_code": "706",
    "community": "",
    "community_code": "",
    "latitude": "56.3843",
    "longitude": "10.503"
  },
  {
    "country_code": "DK",
    "zipcode": "8560",
    "place": "Kolind",
    "state": "Region Midtjylland",
    "state_code": "82",
    "province": "Syddjurs Kommune",
    "province_code": "706",
    "community": "",
    "community_code": "",
    "latitude": "56.3606",
    "longitude": "10.5836"
  },
  {
    "country_code": "DK",
    "zipcode": "8570",
    "place": "Trustrup",
    "state": "Region Midtjylland",
    "state_code": "82",
    "province": "Syddjurs Kommune",
    "province_code": "706",
    "community": "",
    "community_code": "",
    "latitude": "56.3493",
    "longitude": "10.7739"
  },
  {
    "country_code": "DK",
    "zipcode": "8581",
    "place": "Nimtofte",
    "state": "Region Midtjylland",
    "state_code": "82",
    "province": "Syddjurs Kommune",
    "province_code": "706",
    "community": "",
    "community_code": "",
    "latitude": "56.408",
    "longitude": "10.5686"
  },
  {
    "country_code": "DK",
    "zipcode": "8963",
    "place": "Auning",
    "state": "Region Midtjylland",
    "state_code": "82",
    "province": "Syddjurs Kommune",
    "province_code": "706",
    "community": "",
    "community_code": "",
    "latitude": "56.4308",
    "longitude": "10.3782"
  },
  {
    "country_code": "DK",
    "zipcode": "8444",
    "place": "Balle",
    "state": "Region Midtjylland",
    "state_code": "82",
    "province": "Norddjurs Kommune",
    "province_code": "707",
    "community": "",
    "community_code": "",
    "latitude": "56.2963",
    "longitude": "10.2589"
  },
  {
    "country_code": "DK",
    "zipcode": "8500",
    "place": "Grenaa",
    "state": "Region Midtjylland",
    "state_code": "82",
    "province": "Norddjurs Kommune",
    "province_code": "707",
    "community": "",
    "community_code": "",
    "latitude": "56.4158",
    "longitude": "10.8782"
  },
  {
    "country_code": "DK",
    "zipcode": "8550",
    "place": "Ryomgård",
    "state": "Region Midtjylland",
    "state_code": "82",
    "province": "Norddjurs Kommune",
    "province_code": "707",
    "community": "",
    "community_code": "",
    "latitude": "56.3843",
    "longitude": "10.503"
  },
  {
    "country_code": "DK",
    "zipcode": "8560",
    "place": "Kolind",
    "state": "Region Midtjylland",
    "state_code": "82",
    "province": "Norddjurs Kommune",
    "province_code": "707",
    "community": "",
    "community_code": "",
    "latitude": "56.3606",
    "longitude": "10.5836"
  },
  {
    "country_code": "DK",
    "zipcode": "8570",
    "place": "Trustrup",
    "state": "Region Midtjylland",
    "state_code": "82",
    "province": "Norddjurs Kommune",
    "province_code": "707",
    "community": "",
    "community_code": "",
    "latitude": "56.3493",
    "longitude": "10.7739"
  },
  {
    "country_code": "DK",
    "zipcode": "8581",
    "place": "Nimtofte",
    "state": "Region Midtjylland",
    "state_code": "82",
    "province": "Norddjurs Kommune",
    "province_code": "707",
    "community": "",
    "community_code": "",
    "latitude": "56.408",
    "longitude": "10.5686"
  },
  {
    "country_code": "DK",
    "zipcode": "8585",
    "place": "Glesborg",
    "state": "Region Midtjylland",
    "state_code": "82",
    "province": "Norddjurs Kommune",
    "province_code": "707",
    "community": "",
    "community_code": "",
    "latitude": "56.4775",
    "longitude": "10.7233"
  },
  {
    "country_code": "DK",
    "zipcode": "8586",
    "place": "Ørum Djurs",
    "state": "Region Midtjylland",
    "state_code": "82",
    "province": "Norddjurs Kommune",
    "province_code": "707",
    "community": "",
    "community_code": "",
    "latitude": "56.4312",
    "longitude": "10.6202"
  },
  {
    "country_code": "DK",
    "zipcode": "8592",
    "place": "Anholt",
    "state": "Region Midtjylland",
    "state_code": "82",
    "province": "Norddjurs Kommune",
    "province_code": "707",
    "community": "",
    "community_code": "",
    "latitude": "56.7036",
    "longitude": "11.5455"
  },
  {
    "country_code": "DK",
    "zipcode": "8950",
    "place": "Ørsted",
    "state": "Region Midtjylland",
    "state_code": "82",
    "province": "Norddjurs Kommune",
    "province_code": "707",
    "community": "",
    "community_code": "",
    "latitude": "56.502",
    "longitude": "10.3372"
  },
  {
    "country_code": "DK",
    "zipcode": "8961",
    "place": "Allingåbro",
    "state": "Region Midtjylland",
    "state_code": "82",
    "province": "Norddjurs Kommune",
    "province_code": "707",
    "community": "",
    "community_code": "",
    "latitude": "56.4649",
    "longitude": "10.3341"
  },
  {
    "country_code": "DK",
    "zipcode": "8963",
    "place": "Auning",
    "state": "Region Midtjylland",
    "state_code": "82",
    "province": "Norddjurs Kommune",
    "province_code": "707",
    "community": "",
    "community_code": "",
    "latitude": "56.4308",
    "longitude": "10.3782"
  },
  {
    "country_code": "DK",
    "zipcode": "8370",
    "place": "Hadsten",
    "state": "Region Midtjylland",
    "state_code": "82",
    "province": "Favrskov Kommune",
    "province_code": "710",
    "community": "",
    "community_code": "",
    "latitude": "56.3282",
    "longitude": "10.0493"
  },
  {
    "country_code": "DK",
    "zipcode": "8380",
    "place": "Trige",
    "state": "Region Midtjylland",
    "state_code": "82",
    "province": "Favrskov Kommune",
    "province_code": "710",
    "community": "",
    "community_code": "",
    "latitude": "56.2529",
    "longitude": "10.1484"
  },
  {
    "country_code": "DK",
    "zipcode": "8382",
    "place": "Hinnerup",
    "state": "Region Midtjylland",
    "state_code": "82",
    "province": "Favrskov Kommune",
    "province_code": "710",
    "community": "",
    "community_code": "",
    "latitude": "56.2661",
    "longitude": "10.063"
  },
  {
    "country_code": "DK",
    "zipcode": "8450",
    "place": "Hammel",
    "state": "Region Midtjylland",
    "state_code": "82",
    "province": "Favrskov Kommune",
    "province_code": "710",
    "community": "",
    "community_code": "",
    "latitude": "56.2576",
    "longitude": "9.8632"
  },
  {
    "country_code": "DK",
    "zipcode": "8471",
    "place": "Sabro",
    "state": "Region Midtjylland",
    "state_code": "82",
    "province": "Favrskov Kommune",
    "province_code": "710",
    "community": "",
    "community_code": "",
    "latitude": "56.2133",
    "longitude": "10.0344"
  },
  {
    "country_code": "DK",
    "zipcode": "8472",
    "place": "Sporup",
    "state": "Region Midtjylland",
    "state_code": "82",
    "province": "Favrskov Kommune",
    "province_code": "710",
    "community": "",
    "community_code": "",
    "latitude": "56.2133",
    "longitude": "10.0344"
  },
  {
    "country_code": "DK",
    "zipcode": "8641",
    "place": "Sorring",
    "state": "Region Midtjylland",
    "state_code": "82",
    "province": "Favrskov Kommune",
    "province_code": "710",
    "community": "",
    "community_code": "",
    "latitude": "56.1769",
    "longitude": "9.7758"
  },
  {
    "country_code": "DK",
    "zipcode": "8850",
    "place": "Bjerringbro",
    "state": "Region Midtjylland",
    "state_code": "82",
    "province": "Favrskov Kommune",
    "province_code": "710",
    "community": "",
    "community_code": "",
    "latitude": "56.378",
    "longitude": "9.6607"
  },
  {
    "country_code": "DK",
    "zipcode": "8860",
    "place": "Ulstrup",
    "state": "Region Midtjylland",
    "state_code": "82",
    "province": "Favrskov Kommune",
    "province_code": "710",
    "community": "",
    "community_code": "",
    "latitude": "56.3899",
    "longitude": "9.7935"
  },
  {
    "country_code": "DK",
    "zipcode": "8870",
    "place": "Langå",
    "state": "Region Midtjylland",
    "state_code": "82",
    "province": "Favrskov Kommune",
    "province_code": "710",
    "community": "",
    "community_code": "",
    "latitude": "56.3903",
    "longitude": "9.8949"
  },
  {
    "country_code": "DK",
    "zipcode": "8881",
    "place": "Thorsø",
    "state": "Region Midtjylland",
    "state_code": "82",
    "province": "Favrskov Kommune",
    "province_code": "710",
    "community": "",
    "community_code": "",
    "latitude": "56.2995",
    "longitude": "9.7892"
  },
  {
    "country_code": "DK",
    "zipcode": "8882",
    "place": "Fårvang",
    "state": "Region Midtjylland",
    "state_code": "82",
    "province": "Favrskov Kommune",
    "province_code": "710",
    "community": "",
    "community_code": "",
    "latitude": "56.2675",
    "longitude": "9.7278"
  },
  {
    "country_code": "DK",
    "zipcode": "8940",
    "place": "Randers SV",
    "state": "Region Midtjylland",
    "state_code": "82",
    "province": "Favrskov Kommune",
    "province_code": "710",
    "community": "",
    "community_code": "",
    "latitude": "56.4893",
    "longitude": "10.262"
  },
  {
    "country_code": "DK",
    "zipcode": "8960",
    "place": "Randers SØ",
    "state": "Region Midtjylland",
    "state_code": "82",
    "province": "Favrskov Kommune",
    "province_code": "710",
    "community": "",
    "community_code": "",
    "latitude": "56.4422",
    "longitude": "10.3635"
  },
  {
    "country_code": "DK",
    "zipcode": "8300",
    "place": "Odder",
    "state": "Region Midtjylland",
    "state_code": "82",
    "province": "Odder Kommune",
    "province_code": "727",
    "community": "",
    "community_code": "",
    "latitude": "55.9731",
    "longitude": "10.153"
  },
  {
    "country_code": "DK",
    "zipcode": "8340",
    "place": "Malling",
    "state": "Region Midtjylland",
    "state_code": "82",
    "province": "Odder Kommune",
    "province_code": "727",
    "community": "",
    "community_code": "",
    "latitude": "56.0363",
    "longitude": "10.1963"
  },
  {
    "country_code": "DK",
    "zipcode": "8350",
    "place": "Hundslund",
    "state": "Region Midtjylland",
    "state_code": "82",
    "province": "Odder Kommune",
    "province_code": "727",
    "community": "",
    "community_code": "",
    "latitude": "55.916",
    "longitude": "10.0521"
  },
  {
    "country_code": "DK",
    "zipcode": "8660",
    "place": "Skanderborg",
    "state": "Region Midtjylland",
    "state_code": "82",
    "province": "Odder Kommune",
    "province_code": "727",
    "community": "",
    "community_code": "",
    "latitude": "56.0399",
    "longitude": "9.9272"
  },
  {
    "country_code": "DK",
    "zipcode": "8860",
    "place": "Ulstrup",
    "state": "Region Midtjylland",
    "state_code": "82",
    "province": "Randers Kommune",
    "province_code": "730",
    "community": "",
    "community_code": "",
    "latitude": "56.3899",
    "longitude": "9.7935"
  },
  {
    "country_code": "DK",
    "zipcode": "8870",
    "place": "Langå",
    "state": "Region Midtjylland",
    "state_code": "82",
    "province": "Randers Kommune",
    "province_code": "730",
    "community": "",
    "community_code": "",
    "latitude": "56.3903",
    "longitude": "9.8949"
  },
  {
    "country_code": "DK",
    "zipcode": "8900",
    "place": "Randers C",
    "state": "Region Midtjylland",
    "state_code": "82",
    "province": "Randers Kommune",
    "province_code": "730",
    "community": "",
    "community_code": "",
    "latitude": "56.4893",
    "longitude": "10.262"
  },
  {
    "country_code": "DK",
    "zipcode": "8920",
    "place": "Randers NV",
    "state": "Region Midtjylland",
    "state_code": "82",
    "province": "Randers Kommune",
    "province_code": "730",
    "community": "",
    "community_code": "",
    "latitude": "56.4893",
    "longitude": "10.262"
  },
  {
    "country_code": "DK",
    "zipcode": "8930",
    "place": "Randers NØ",
    "state": "Region Midtjylland",
    "state_code": "82",
    "province": "Randers Kommune",
    "province_code": "730",
    "community": "",
    "community_code": "",
    "latitude": "56.4893",
    "longitude": "10.262"
  },
  {
    "country_code": "DK",
    "zipcode": "8940",
    "place": "Randers SV",
    "state": "Region Midtjylland",
    "state_code": "82",
    "province": "Randers Kommune",
    "province_code": "730",
    "community": "",
    "community_code": "",
    "latitude": "56.4893",
    "longitude": "10.262"
  },
  {
    "country_code": "DK",
    "zipcode": "8960",
    "place": "Randers SØ",
    "state": "Region Midtjylland",
    "state_code": "82",
    "province": "Randers Kommune",
    "province_code": "730",
    "community": "",
    "community_code": "",
    "latitude": "56.4422",
    "longitude": "10.3635"
  },
  {
    "country_code": "DK",
    "zipcode": "8970",
    "place": "Havndal",
    "state": "Region Midtjylland",
    "state_code": "82",
    "province": "Randers Kommune",
    "province_code": "730",
    "community": "",
    "community_code": "",
    "latitude": "56.6525",
    "longitude": "10.1967"
  },
  {
    "country_code": "DK",
    "zipcode": "8981",
    "place": "Spentrup",
    "state": "Region Midtjylland",
    "state_code": "82",
    "province": "Randers Kommune",
    "province_code": "730",
    "community": "",
    "community_code": "",
    "latitude": "56.537",
    "longitude": "10.0379"
  },
  {
    "country_code": "DK",
    "zipcode": "8983",
    "place": "Gjerlev J",
    "state": "Region Midtjylland",
    "state_code": "82",
    "province": "Randers Kommune",
    "province_code": "730",
    "community": "",
    "community_code": "",
    "latitude": "56.537",
    "longitude": "10.0379"
  },
  {
    "country_code": "DK",
    "zipcode": "8990",
    "place": "Fårup",
    "state": "Region Midtjylland",
    "state_code": "82",
    "province": "Randers Kommune",
    "province_code": "730",
    "community": "",
    "community_code": "",
    "latitude": "56.3667",
    "longitude": "10.2494"
  },
  {
    "country_code": "DK",
    "zipcode": "9550",
    "place": "Mariager",
    "state": "Region Midtjylland",
    "state_code": "82",
    "province": "Randers Kommune",
    "province_code": "730",
    "community": "",
    "community_code": "",
    "latitude": "56.6499",
    "longitude": "9.9751"
  },
  {
    "country_code": "DK",
    "zipcode": "7362",
    "place": "Hampen",
    "state": "Region Midtjylland",
    "state_code": "82",
    "province": "Silkeborg Kommune",
    "province_code": "740",
    "community": "",
    "community_code": "",
    "latitude": "56.019",
    "longitude": "9.3551"
  },
  {
    "country_code": "DK",
    "zipcode": "7441",
    "place": "Bording",
    "state": "Region Midtjylland",
    "state_code": "82",
    "province": "Silkeborg Kommune",
    "province_code": "740",
    "community": "",
    "community_code": "",
    "latitude": "56.1441",
    "longitude": "9.2765"
  },
  {
    "country_code": "DK",
    "zipcode": "7442",
    "place": "Engesvang",
    "state": "Region Midtjylland",
    "state_code": "82",
    "province": "Silkeborg Kommune",
    "province_code": "740",
    "community": "",
    "community_code": "",
    "latitude": "56.1707",
    "longitude": "9.3495"
  },
  {
    "country_code": "DK",
    "zipcode": "7470",
    "place": "Karup J",
    "state": "Region Midtjylland",
    "state_code": "82",
    "province": "Silkeborg Kommune",
    "province_code": "740",
    "community": "",
    "community_code": "",
    "latitude": "56.1757",
    "longitude": "9.0321"
  },
  {
    "country_code": "DK",
    "zipcode": "8450",
    "place": "Hammel",
    "state": "Region Midtjylland",
    "state_code": "82",
    "province": "Silkeborg Kommune",
    "province_code": "740",
    "community": "",
    "community_code": "",
    "latitude": "56.2576",
    "longitude": "9.8632"
  },
  {
    "country_code": "DK",
    "zipcode": "8472",
    "place": "Sporup",
    "state": "Region Midtjylland",
    "state_code": "82",
    "province": "Silkeborg Kommune",
    "province_code": "740",
    "community": "",
    "community_code": "",
    "latitude": "56.2133",
    "longitude": "10.0344"
  },
  {
    "country_code": "DK",
    "zipcode": "8600",
    "place": "Silkeborg",
    "state": "Region Midtjylland",
    "state_code": "82",
    "province": "Silkeborg Kommune",
    "province_code": "740",
    "community": "",
    "community_code": "",
    "latitude": "56.1697",
    "longitude": "9.5451"
  },
  {
    "country_code": "DK",
    "zipcode": "8620",
    "place": "Kjellerup",
    "state": "Region Midtjylland",
    "state_code": "82",
    "province": "Silkeborg Kommune",
    "province_code": "740",
    "community": "",
    "community_code": "",
    "latitude": "56.2858",
    "longitude": "9.4353"
  },
  {
    "country_code": "DK",
    "zipcode": "8632",
    "place": "Lemming",
    "state": "Region Midtjylland",
    "state_code": "82",
    "province": "Silkeborg Kommune",
    "province_code": "740",
    "community": "",
    "community_code": "",
    "latitude": "56.2405",
    "longitude": "9.5473"
  },
  {
    "country_code": "DK",
    "zipcode": "8641",
    "place": "Sorring",
    "state": "Region Midtjylland",
    "state_code": "82",
    "province": "Silkeborg Kommune",
    "province_code": "740",
    "community": "",
    "community_code": "",
    "latitude": "56.1769",
    "longitude": "9.7758"
  },
  {
    "country_code": "DK",
    "zipcode": "8643",
    "place": "Ans By",
    "state": "Region Midtjylland",
    "state_code": "82",
    "province": "Silkeborg Kommune",
    "province_code": "740",
    "community": "",
    "community_code": "",
    "latitude": "56.1769",
    "longitude": "9.7758"
  },
  {
    "country_code": "DK",
    "zipcode": "8653",
    "place": "Them",
    "state": "Region Midtjylland",
    "state_code": "82",
    "province": "Silkeborg Kommune",
    "province_code": "740",
    "community": "",
    "community_code": "",
    "latitude": "56.0943",
    "longitude": "9.5487"
  },
  {
    "country_code": "DK",
    "zipcode": "8654",
    "place": "Bryrup",
    "state": "Region Midtjylland",
    "state_code": "82",
    "province": "Silkeborg Kommune",
    "province_code": "740",
    "community": "",
    "community_code": "",
    "latitude": "56.0228",
    "longitude": "9.5183"
  },
  {
    "country_code": "DK",
    "zipcode": "8680",
    "place": "Ry",
    "state": "Region Midtjylland",
    "state_code": "82",
    "province": "Silkeborg Kommune",
    "province_code": "740",
    "community": "",
    "community_code": "",
    "latitude": "56.0904",
    "longitude": "9.7651"
  },
  {
    "country_code": "DK",
    "zipcode": "8740",
    "place": "Brædstrup",
    "state": "Region Midtjylland",
    "state_code": "82",
    "province": "Silkeborg Kommune",
    "province_code": "740",
    "community": "",
    "community_code": "",
    "latitude": "55.9715",
    "longitude": "9.6113"
  },
  {
    "country_code": "DK",
    "zipcode": "8800",
    "place": "Viborg",
    "state": "Region Midtjylland",
    "state_code": "82",
    "province": "Silkeborg Kommune",
    "province_code": "740",
    "community": "",
    "community_code": "",
    "latitude": "56.4532",
    "longitude": "9.402"
  },
  {
    "country_code": "DK",
    "zipcode": "8840",
    "place": "Rødkærsbro",
    "state": "Region Midtjylland",
    "state_code": "82",
    "province": "Silkeborg Kommune",
    "province_code": "740",
    "community": "",
    "community_code": "",
    "latitude": "56.3531",
    "longitude": "9.5051"
  },
  {
    "country_code": "DK",
    "zipcode": "8881",
    "place": "Thorsø",
    "state": "Region Midtjylland",
    "state_code": "82",
    "province": "Silkeborg Kommune",
    "province_code": "740",
    "community": "",
    "community_code": "",
    "latitude": "56.2995",
    "longitude": "9.7892"
  },
  {
    "country_code": "DK",
    "zipcode": "8882",
    "place": "Fårvang",
    "state": "Region Midtjylland",
    "state_code": "82",
    "province": "Silkeborg Kommune",
    "province_code": "740",
    "community": "",
    "community_code": "",
    "latitude": "56.2675",
    "longitude": "9.7278"
  },
  {
    "country_code": "DK",
    "zipcode": "8883",
    "place": "Gjern",
    "state": "Region Midtjylland",
    "state_code": "82",
    "province": "Silkeborg Kommune",
    "province_code": "740",
    "community": "",
    "community_code": "",
    "latitude": "56.2302",
    "longitude": "9.7391"
  },
  {
    "country_code": "DK",
    "zipcode": "8305",
    "place": "Samsø",
    "state": "Region Midtjylland",
    "state_code": "82",
    "province": "Samsø Kommune",
    "province_code": "741",
    "community": "",
    "community_code": "",
    "latitude": "55.8796",
    "longitude": "10.6076"
  },
  {
    "country_code": "DK",
    "zipcode": "8362",
    "place": "Hørning",
    "state": "Region Midtjylland",
    "state_code": "82",
    "province": "Skanderborg Kommune",
    "province_code": "746",
    "community": "",
    "community_code": "",
    "latitude": "56.087",
    "longitude": "10.0372"
  },
  {
    "country_code": "DK",
    "zipcode": "8464",
    "place": "Galten",
    "state": "Region Midtjylland",
    "state_code": "82",
    "province": "Skanderborg Kommune",
    "province_code": "746",
    "community": "",
    "community_code": "",
    "latitude": "56.35",
    "longitude": "10.05"
  },
  {
    "country_code": "DK",
    "zipcode": "8471",
    "place": "Sabro",
    "state": "Region Midtjylland",
    "state_code": "82",
    "province": "Skanderborg Kommune",
    "province_code": "746",
    "community": "",
    "community_code": "",
    "latitude": "56.2133",
    "longitude": "10.0344"
  },
  {
    "country_code": "DK",
    "zipcode": "8472",
    "place": "Sporup",
    "state": "Region Midtjylland",
    "state_code": "82",
    "province": "Skanderborg Kommune",
    "province_code": "746",
    "community": "",
    "community_code": "",
    "latitude": "56.2133",
    "longitude": "10.0344"
  },
  {
    "country_code": "DK",
    "zipcode": "8600",
    "place": "Silkeborg",
    "state": "Region Midtjylland",
    "state_code": "82",
    "province": "Skanderborg Kommune",
    "province_code": "746",
    "community": "",
    "community_code": "",
    "latitude": "56.1697",
    "longitude": "9.5451"
  },
  {
    "country_code": "DK",
    "zipcode": "8660",
    "place": "Skanderborg",
    "state": "Region Midtjylland",
    "state_code": "82",
    "province": "Skanderborg Kommune",
    "province_code": "746",
    "community": "",
    "community_code": "",
    "latitude": "56.0399",
    "longitude": "9.9272"
  },
  {
    "country_code": "DK",
    "zipcode": "8670",
    "place": "Låsby",
    "state": "Region Midtjylland",
    "state_code": "82",
    "province": "Skanderborg Kommune",
    "province_code": "746",
    "community": "",
    "community_code": "",
    "latitude": "56.1502",
    "longitude": "9.8068"
  },
  {
    "country_code": "DK",
    "zipcode": "8680",
    "place": "Ry",
    "state": "Region Midtjylland",
    "state_code": "82",
    "province": "Skanderborg Kommune",
    "province_code": "746",
    "community": "",
    "community_code": "",
    "latitude": "56.0904",
    "longitude": "9.7651"
  },
  {
    "country_code": "DK",
    "zipcode": "8751",
    "place": "Gedved",
    "state": "Region Midtjylland",
    "state_code": "82",
    "province": "Skanderborg Kommune",
    "province_code": "746",
    "community": "",
    "community_code": "",
    "latitude": "55.9308",
    "longitude": "9.846"
  },
  {
    "country_code": "DK",
    "zipcode": "8000",
    "place": "Aarhus C",
    "state": "Region Midtjylland",
    "state_code": "82",
    "province": "Aarhus Kommune",
    "province_code": "751",
    "community": "",
    "community_code": "",
    "latitude": "56.1567",
    "longitude": "10.2108"
  },
  {
    "country_code": "DK",
    "zipcode": "8100",
    "place": "Aarhus C",
    "state": "Region Midtjylland",
    "state_code": "82",
    "province": "Aarhus Kommune",
    "province_code": "751",
    "community": "",
    "community_code": "",
    "latitude": "56.1567",
    "longitude": "10.2108"
  },
  {
    "country_code": "DK",
    "zipcode": "8200",
    "place": "Aarhus N",
    "state": "Region Midtjylland",
    "state_code": "82",
    "province": "Aarhus Kommune",
    "province_code": "751",
    "community": "",
    "community_code": "",
    "latitude": "56.1663",
    "longitude": "10.1987"
  },
  {
    "country_code": "DK",
    "zipcode": "8210",
    "place": "Aarhus V",
    "state": "Region Midtjylland",
    "state_code": "82",
    "province": "Aarhus Kommune",
    "province_code": "751",
    "community": "",
    "community_code": "",
    "latitude": "56.1663",
    "longitude": "10.1987"
  },
  {
    "country_code": "DK",
    "zipcode": "8220",
    "place": "Brabrand",
    "state": "Region Midtjylland",
    "state_code": "82",
    "province": "Aarhus Kommune",
    "province_code": "751",
    "community": "",
    "community_code": "",
    "latitude": "56.1531",
    "longitude": "10.1057"
  },
  {
    "country_code": "DK",
    "zipcode": "8230",
    "place": "Åbyhøj",
    "state": "Region Midtjylland",
    "state_code": "82",
    "province": "Aarhus Kommune",
    "province_code": "751",
    "community": "",
    "community_code": "",
    "latitude": "56.1563",
    "longitude": "10.1653"
  },
  {
    "country_code": "DK",
    "zipcode": "8240",
    "place": "Risskov",
    "state": "Region Midtjylland",
    "state_code": "82",
    "province": "Aarhus Kommune",
    "province_code": "751",
    "community": "",
    "community_code": "",
    "latitude": "56.1972",
    "longitude": "10.248"
  },
  {
    "country_code": "DK",
    "zipcode": "8245",
    "place": "Risskov Ø",
    "state": "Region Midtjylland",
    "state_code": "82",
    "province": "Aarhus Kommune",
    "province_code": "751",
    "community": "",
    "community_code": "",
    "latitude": "56.1972",
    "longitude": "10.248"
  },
  {
    "country_code": "DK",
    "zipcode": "8250",
    "place": "Egå",
    "state": "Region Midtjylland",
    "state_code": "82",
    "province": "Aarhus Kommune",
    "province_code": "751",
    "community": "",
    "community_code": "",
    "latitude": "56.2136",
    "longitude": "10.2644"
  },
  {
    "country_code": "DK",
    "zipcode": "8260",
    "place": "Viby J",
    "state": "Region Midtjylland",
    "state_code": "82",
    "province": "Aarhus Kommune",
    "province_code": "751",
    "community": "",
    "community_code": "",
    "latitude": "56.1663",
    "longitude": "10.1987"
  },
  {
    "country_code": "DK",
    "zipcode": "8270",
    "place": "Højbjerg",
    "state": "Region Midtjylland",
    "state_code": "82",
    "province": "Aarhus Kommune",
    "province_code": "751",
    "community": "",
    "community_code": "",
    "latitude": "56.1112",
    "longitude": "10.2099"
  },
  {
    "country_code": "DK",
    "zipcode": "8300",
    "place": "Odder",
    "state": "Region Midtjylland",
    "state_code": "82",
    "province": "Aarhus Kommune",
    "province_code": "751",
    "community": "",
    "community_code": "",
    "latitude": "55.9731",
    "longitude": "10.153"
  },
  {
    "country_code": "DK",
    "zipcode": "8310",
    "place": "Tranbjerg J",
    "state": "Region Midtjylland",
    "state_code": "82",
    "province": "Aarhus Kommune",
    "province_code": "751",
    "community": "",
    "community_code": "",
    "latitude": "56.0901",
    "longitude": "10.1194"
  },
  {
    "country_code": "DK",
    "zipcode": "8320",
    "place": "Mårslet",
    "state": "Region Midtjylland",
    "state_code": "82",
    "province": "Aarhus Kommune",
    "province_code": "751",
    "community": "",
    "community_code": "",
    "latitude": "56.0636",
    "longitude": "10.1623"
  },
  {
    "country_code": "DK",
    "zipcode": "8330",
    "place": "Beder",
    "state": "Region Midtjylland",
    "state_code": "82",
    "province": "Aarhus Kommune",
    "province_code": "751",
    "community": "",
    "community_code": "",
    "latitude": "56.0602",
    "longitude": "10.2118"
  },
  {
    "country_code": "DK",
    "zipcode": "8340",
    "place": "Malling",
    "state": "Region Midtjylland",
    "state_code": "82",
    "province": "Aarhus Kommune",
    "province_code": "751",
    "community": "",
    "community_code": "",
    "latitude": "56.0363",
    "longitude": "10.1963"
  },
  {
    "country_code": "DK",
    "zipcode": "8355",
    "place": "Solbjerg",
    "state": "Region Midtjylland",
    "state_code": "82",
    "province": "Aarhus Kommune",
    "province_code": "751",
    "community": "",
    "community_code": "",
    "latitude": "56.0427",
    "longitude": "10.0863"
  },
  {
    "country_code": "DK",
    "zipcode": "8361",
    "place": "Hasselager",
    "state": "Region Midtjylland",
    "state_code": "82",
    "province": "Aarhus Kommune",
    "province_code": "751",
    "community": "",
    "community_code": "",
    "latitude": "56.1007",
    "longitude": "10.1065"
  },
  {
    "country_code": "DK",
    "zipcode": "8362",
    "place": "Hørning",
    "state": "Region Midtjylland",
    "state_code": "82",
    "province": "Aarhus Kommune",
    "province_code": "751",
    "community": "",
    "community_code": "",
    "latitude": "56.087",
    "longitude": "10.0372"
  },
  {
    "country_code": "DK",
    "zipcode": "8380",
    "place": "Trige",
    "state": "Region Midtjylland",
    "state_code": "82",
    "province": "Aarhus Kommune",
    "province_code": "751",
    "community": "",
    "community_code": "",
    "latitude": "56.2529",
    "longitude": "10.1484"
  },
  {
    "country_code": "DK",
    "zipcode": "8381",
    "place": "Tilst",
    "state": "Region Midtjylland",
    "state_code": "82",
    "province": "Aarhus Kommune",
    "province_code": "751",
    "community": "",
    "community_code": "",
    "latitude": "56.1938",
    "longitude": "10.1128"
  },
  {
    "country_code": "DK",
    "zipcode": "8382",
    "place": "Hinnerup",
    "state": "Region Midtjylland",
    "state_code": "82",
    "province": "Aarhus Kommune",
    "province_code": "751",
    "community": "",
    "community_code": "",
    "latitude": "56.2661",
    "longitude": "10.063"
  },
  {
    "country_code": "DK",
    "zipcode": "8462",
    "place": "Harlev J",
    "state": "Region Midtjylland",
    "state_code": "82",
    "province": "Aarhus Kommune",
    "province_code": "751",
    "community": "",
    "community_code": "",
    "latitude": "56.35",
    "longitude": "10.05"
  },
  {
    "country_code": "DK",
    "zipcode": "8464",
    "place": "Galten",
    "state": "Region Midtjylland",
    "state_code": "82",
    "province": "Aarhus Kommune",
    "province_code": "751",
    "community": "",
    "community_code": "",
    "latitude": "56.35",
    "longitude": "10.05"
  },
  {
    "country_code": "DK",
    "zipcode": "8471",
    "place": "Sabro",
    "state": "Region Midtjylland",
    "state_code": "82",
    "province": "Aarhus Kommune",
    "province_code": "751",
    "community": "",
    "community_code": "",
    "latitude": "56.2133",
    "longitude": "10.0344"
  },
  {
    "country_code": "DK",
    "zipcode": "8520",
    "place": "Lystrup",
    "state": "Region Midtjylland",
    "state_code": "82",
    "province": "Aarhus Kommune",
    "province_code": "751",
    "community": "",
    "community_code": "",
    "latitude": "56.4984",
    "longitude": "10.4689"
  },
  {
    "country_code": "DK",
    "zipcode": "8530",
    "place": "Hjortshøj",
    "state": "Region Midtjylland",
    "state_code": "82",
    "province": "Aarhus Kommune",
    "province_code": "751",
    "community": "",
    "community_code": "",
    "latitude": "56.2481",
    "longitude": "10.2653"
  },
  {
    "country_code": "DK",
    "zipcode": "8541",
    "place": "Skødstrup",
    "state": "Region Midtjylland",
    "state_code": "82",
    "province": "Aarhus Kommune",
    "province_code": "751",
    "community": "",
    "community_code": "",
    "latitude": "56.2635",
    "longitude": "10.3041"
  },
  {
    "country_code": "DK",
    "zipcode": "8543",
    "place": "Hornslet",
    "state": "Region Midtjylland",
    "state_code": "82",
    "province": "Aarhus Kommune",
    "province_code": "751",
    "community": "",
    "community_code": "",
    "latitude": "56.3155",
    "longitude": "10.3204"
  },
  {
    "country_code": "DK",
    "zipcode": "8660",
    "place": "Skanderborg",
    "state": "Region Midtjylland",
    "state_code": "82",
    "province": "Aarhus Kommune",
    "province_code": "751",
    "community": "",
    "community_code": "",
    "latitude": "56.0399",
    "longitude": "9.9272"
  },
  {
    "country_code": "DK",
    "zipcode": "7160",
    "place": "Tørring",
    "state": "Region Midtjylland",
    "state_code": "82",
    "province": "Ikast-Brande Kommune",
    "province_code": "756",
    "community": "",
    "community_code": "",
    "latitude": "55.85",
    "longitude": "9.4833"
  },
  {
    "country_code": "DK",
    "zipcode": "7330",
    "place": "Brande",
    "state": "Region Midtjylland",
    "state_code": "82",
    "province": "Ikast-Brande Kommune",
    "province_code": "756",
    "community": "",
    "community_code": "",
    "latitude": "55.9381",
    "longitude": "9.1218"
  },
  {
    "country_code": "DK",
    "zipcode": "7361",
    "place": "Ejstrupholm",
    "state": "Region Midtjylland",
    "state_code": "82",
    "province": "Ikast-Brande Kommune",
    "province_code": "756",
    "community": "",
    "community_code": "",
    "latitude": "55.9841",
    "longitude": "9.2818"
  },
  {
    "country_code": "DK",
    "zipcode": "7362",
    "place": "Hampen",
    "state": "Region Midtjylland",
    "state_code": "82",
    "province": "Ikast-Brande Kommune",
    "province_code": "756",
    "community": "",
    "community_code": "",
    "latitude": "56.019",
    "longitude": "9.3551"
  },
  {
    "country_code": "DK",
    "zipcode": "7400",
    "place": "Herning",
    "state": "Region Midtjylland",
    "state_code": "82",
    "province": "Ikast-Brande Kommune",
    "province_code": "756",
    "community": "",
    "community_code": "",
    "latitude": "56.1393",
    "longitude": "8.9738"
  },
  {
    "country_code": "DK",
    "zipcode": "7430",
    "place": "Ikast",
    "state": "Region Midtjylland",
    "state_code": "82",
    "province": "Ikast-Brande Kommune",
    "province_code": "756",
    "community": "",
    "community_code": "",
    "latitude": "56.1388",
    "longitude": "9.1577"
  },
  {
    "country_code": "DK",
    "zipcode": "7441",
    "place": "Bording",
    "state": "Region Midtjylland",
    "state_code": "82",
    "province": "Ikast-Brande Kommune",
    "province_code": "756",
    "community": "",
    "community_code": "",
    "latitude": "56.1441",
    "longitude": "9.2765"
  },
  {
    "country_code": "DK",
    "zipcode": "7442",
    "place": "Engesvang",
    "state": "Region Midtjylland",
    "state_code": "82",
    "province": "Ikast-Brande Kommune",
    "province_code": "756",
    "community": "",
    "community_code": "",
    "latitude": "56.1707",
    "longitude": "9.3495"
  },
  {
    "country_code": "DK",
    "zipcode": "7451",
    "place": "Sunds",
    "state": "Region Midtjylland",
    "state_code": "82",
    "province": "Ikast-Brande Kommune",
    "province_code": "756",
    "community": "",
    "community_code": "",
    "latitude": "56.2042",
    "longitude": "9.0127"
  },
  {
    "country_code": "DK",
    "zipcode": "8600",
    "place": "Silkeborg",
    "state": "Region Midtjylland",
    "state_code": "82",
    "province": "Ikast-Brande Kommune",
    "province_code": "756",
    "community": "",
    "community_code": "",
    "latitude": "56.1697",
    "longitude": "9.5451"
  },
  {
    "country_code": "DK",
    "zipcode": "8654",
    "place": "Bryrup",
    "state": "Region Midtjylland",
    "state_code": "82",
    "province": "Ikast-Brande Kommune",
    "province_code": "756",
    "community": "",
    "community_code": "",
    "latitude": "56.0228",
    "longitude": "9.5183"
  },
  {
    "country_code": "DK",
    "zipcode": "8765",
    "place": "Klovborg",
    "state": "Region Midtjylland",
    "state_code": "82",
    "province": "Ikast-Brande Kommune",
    "province_code": "756",
    "community": "",
    "community_code": "",
    "latitude": "55.9319",
    "longitude": "9.491"
  },
  {
    "country_code": "DK",
    "zipcode": "8766",
    "place": "Nørre Snede",
    "state": "Region Midtjylland",
    "state_code": "82",
    "province": "Ikast-Brande Kommune",
    "province_code": "756",
    "community": "",
    "community_code": "",
    "latitude": "55.9644",
    "longitude": "9.3932"
  },
  {
    "country_code": "DK",
    "zipcode": "6830",
    "place": "Nørre Nebel",
    "state": "Region Midtjylland",
    "state_code": "82",
    "province": "Ringkøbing-Skjern Kommune",
    "province_code": "760",
    "community": "",
    "community_code": "",
    "latitude": "55.7798",
    "longitude": "8.2952"
  },
  {
    "country_code": "DK",
    "zipcode": "6870",
    "place": "Ølgod",
    "state": "Region Midtjylland",
    "state_code": "82",
    "province": "Ringkøbing-Skjern Kommune",
    "province_code": "760",
    "community": "",
    "community_code": "",
    "latitude": "55.8068",
    "longitude": "8.6286"
  },
  {
    "country_code": "DK",
    "zipcode": "6880",
    "place": "Tarm",
    "state": "Region Midtjylland",
    "state_code": "82",
    "province": "Ringkøbing-Skjern Kommune",
    "province_code": "760",
    "community": "",
    "community_code": "",
    "latitude": "55.9086",
    "longitude": "8.5304"
  },
  {
    "country_code": "DK",
    "zipcode": "6893",
    "place": "Hemmet",
    "state": "Region Midtjylland",
    "state_code": "82",
    "province": "Ringkøbing-Skjern Kommune",
    "province_code": "760",
    "community": "",
    "community_code": "",
    "latitude": "55.8502",
    "longitude": "8.3756"
  },
  {
    "country_code": "DK",
    "zipcode": "6900",
    "place": "Skjern",
    "state": "Region Midtjylland",
    "state_code": "82",
    "province": "Ringkøbing-Skjern Kommune",
    "province_code": "760",
    "community": "",
    "community_code": "",
    "latitude": "55.95",
    "longitude": "8.5"
  },
  {
    "country_code": "DK",
    "zipcode": "6920",
    "place": "Videbæk",
    "state": "Region Midtjylland",
    "state_code": "82",
    "province": "Ringkøbing-Skjern Kommune",
    "province_code": "760",
    "community": "",
    "community_code": "",
    "latitude": "56.0876",
    "longitude": "8.6285"
  },
  {
    "country_code": "DK",
    "zipcode": "6933",
    "place": "Kibæk",
    "state": "Region Midtjylland",
    "state_code": "82",
    "province": "Ringkøbing-Skjern Kommune",
    "province_code": "760",
    "community": "",
    "community_code": "",
    "latitude": "56.0317",
    "longitude": "8.857"
  },
  {
    "country_code": "DK",
    "zipcode": "6940",
    "place": "Lem St",
    "state": "Region Midtjylland",
    "state_code": "82",
    "province": "Ringkøbing-Skjern Kommune",
    "province_code": "760",
    "community": "",
    "community_code": "",
    "latitude": "56.1419",
    "longitude": "8.4606"
  },
  {
    "country_code": "DK",
    "zipcode": "6950",
    "place": "Ringkøbing",
    "state": "Region Midtjylland",
    "state_code": "82",
    "province": "Ringkøbing-Skjern Kommune",
    "province_code": "760",
    "community": "",
    "community_code": "",
    "latitude": "56.0901",
    "longitude": "8.244"
  },
  {
    "country_code": "DK",
    "zipcode": "6960",
    "place": "Hvide Sande",
    "state": "Region Midtjylland",
    "state_code": "82",
    "province": "Ringkøbing-Skjern Kommune",
    "province_code": "760",
    "community": "",
    "community_code": "",
    "latitude": "56.0045",
    "longitude": "8.1294"
  },
  {
    "country_code": "DK",
    "zipcode": "6971",
    "place": "Spjald",
    "state": "Region Midtjylland",
    "state_code": "82",
    "province": "Ringkøbing-Skjern Kommune",
    "province_code": "760",
    "community": "",
    "community_code": "",
    "latitude": "56.1286",
    "longitude": "8.5084"
  },
  {
    "country_code": "DK",
    "zipcode": "6973",
    "place": "Ørnhøj",
    "state": "Region Midtjylland",
    "state_code": "82",
    "province": "Ringkøbing-Skjern Kommune",
    "province_code": "760",
    "community": "",
    "community_code": "",
    "latitude": "56.1987",
    "longitude": "8.5645"
  },
  {
    "country_code": "DK",
    "zipcode": "6980",
    "place": "Tim",
    "state": "Region Midtjylland",
    "state_code": "82",
    "province": "Ringkøbing-Skjern Kommune",
    "province_code": "760",
    "community": "",
    "community_code": "",
    "latitude": "56.1956",
    "longitude": "8.3079"
  },
  {
    "country_code": "DK",
    "zipcode": "6990",
    "place": "Ulfborg",
    "state": "Region Midtjylland",
    "state_code": "82",
    "province": "Ringkøbing-Skjern Kommune",
    "province_code": "760",
    "community": "",
    "community_code": "",
    "latitude": "56.2673",
    "longitude": "8.3217"
  },
  {
    "country_code": "DK",
    "zipcode": "7270",
    "place": "Stakroge",
    "state": "Region Midtjylland",
    "state_code": "82",
    "province": "Ringkøbing-Skjern Kommune",
    "province_code": "760",
    "community": "",
    "community_code": "",
    "latitude": "55.8901",
    "longitude": "8.8473"
  },
  {
    "country_code": "DK",
    "zipcode": "7280",
    "place": "Sønder Felding",
    "state": "Region Midtjylland",
    "state_code": "82",
    "province": "Ringkøbing-Skjern Kommune",
    "province_code": "760",
    "community": "",
    "community_code": "",
    "latitude": "55.9376",
    "longitude": "8.7794"
  },
  {
    "country_code": "DK",
    "zipcode": "7400",
    "place": "Herning",
    "state": "Region Midtjylland",
    "state_code": "82",
    "province": "Ringkøbing-Skjern Kommune",
    "province_code": "760",
    "community": "",
    "community_code": "",
    "latitude": "56.1393",
    "longitude": "8.9738"
  },
  {
    "country_code": "DK",
    "zipcode": "7480",
    "place": "Vildbjerg",
    "state": "Region Midtjylland",
    "state_code": "82",
    "province": "Ringkøbing-Skjern Kommune",
    "province_code": "760",
    "community": "",
    "community_code": "",
    "latitude": "56.2",
    "longitude": "8.7667"
  },
  {
    "country_code": "DK",
    "zipcode": "7100",
    "place": "Vejle",
    "state": "Region Midtjylland",
    "state_code": "82",
    "province": "Hedensted Kommune",
    "province_code": "766",
    "community": "",
    "community_code": "",
    "latitude": "55.7093",
    "longitude": "9.5357"
  },