<?xml version="1.0" encoding="UTF-8"?>
<zipcodes>
  <object>
    <country_code>PR</country_code>
    <zipcode>00601</zipcode>
    <place>Adjuntas</place>
    <state>Adjuntas</state>
    <state_code>001</state_code>
    <province></province>
    <province_code></province_code>
    <community></community>
    <community_code></community_code>
    <latitude>18.1627</latitude>
    <longitude>-66.7221</longitude>
  </object>
  <object>
    <country_code>PR</country_code>
    <zipcode>00602</zipcode>
    <place>Aguada</place>
    <state>Aguada</state>
    <state_code>003</state_code>
    <province></province>
    <province_code></province_code>
    <community></community>
    <community_code></community_code>
    <latitude>18.3794</latitude>
    <longitude>-67.1882</longitude>
  </object>
  <object>
    <country_code>PR</country_code>
    <zipcode>00603</zipcode>
    <place>Aguadilla</place>
    <state>Aguadilla</state>
    <state_code>005</state_code>
    <province></province>
    <province_code></province_code>
    <community></community>
    <community_code></community_code>
    <latitude>18.4274</latitude>
    <longitude>-67.1541</longitude>
  </object>
  <object>
    <country_code>PR</country_code>
    <zipcode>00604</zipcode>
    <place>Aguadilla</place>
    <state>Aguadilla</state>
    <state_code>005</state_code>
    <province></province>
    <province_code></province_code>
    <community></community>
    <community_code></community_code>
    <latitude>18.4274</latitude>
    <longitude>-67.1541</longitude>
  </object>
  <object>
    <country_code>PR</country_code>
    <zipcode>00605</zipcode>
    <place>Aguadilla</place>
    <state>Aguadilla</state>
    <state_code>005</state_code>
    <province></province>
    <province_code></province_code>
    <community></community>
    <community_code></community_code>
    <latitude>18.4274</latitude>
    <longitude>-67.1541</longitude>
  </object>
  <object>
    <country_code>PR</country_code>
    <zipcode>00690</zipcode>
    <place>San Antonio</place>
    <state>Aguadilla</state>
    <state_code>005</state_code>
    <province></province>
    <province_code></province_code>
    <community></community>
    <community_code></community_code>
    <latitude>18.4922</latitude>
    <longitude>-67.0985</longitude>
  </object>
  <object>
    <country_code>PR</country_code>
    <zipcode>00703</zipcode>
    <place>Aguas Buenas</place>
    <state>Aguas Buenas</state>
    <state_code>007</state_code>
    <province></province>
    <province_code></province_code>
    <community></community>
    <community_code></community_code>
    <latitude>18.2569</latitude>
    <longitude>-66.1029</longitude>
  </object>
  <object>
    <country_code>PR</country_code>
    <zipcode>00705</zipcode>
    <place>Aibonito</place>
    <state>Aibonito</state>
    <state_code>009</state_code>
    <province></province>
    <province_code></province_code>
    <community></community>
    <community_code></community_code>
    <latitude>18.14</latitude>
    <longitude>-66.266</longitude>
  </object>
  <object>
    <country_code>PR</country_code>
    <zipcode>00786</zipcode>
    <place>La Plata</place>
    <state>Aibonito</state>
    <state_code>009</state_code>
    <province></province>
    <province_code></province_code>
    <community></community>
    <community_code></community_code>
    <latitude>18.1544</latitude>
    <longitude>-66.2329</longitude>
  </object>
  <object>
    <country_code>PR</country_code>
    <zipcode>00610</zipcode>
    <place>Anasco</place>
    <state>Anasco</state>
    <state_code>011</state_code>
    <province></province>
    <province_code></province_code>
    <community></community>
    <community_code></community_code>
    <latitude>18.2827</latitude>
    <longitude>-67.1396</longitude>
  </object>
  <object>
    <country_code>PR</country_code>
    <zipcode>00612</zipcode>
    <place>Arecibo</place>
    <state>Arecibo</state>
    <state_code>013</state_code>
    <province></province>
    <province_code></province_code>
    <community></community>
    <community_code></community_code>
    <latitude>18.4724</latitude>
    <longitude>-66.7157</longitude>
  </object>
  <object>
    <country_code>PR</country_code>
    <zipcode>00613</zipcode>
    <place>Arecibo</place>
    <state>Arecibo</state>
    <state_code>013</state_code>
    <province></province>
    <province_code></province_code>
    <community></community>
    <community_code></community_code>
    <latitude>18.4724</latitude>
    <longitude>-66.7157</longitude>
  </object>
  <object>
    <country_code>PR</country_code>
    <zipcode>00614</zipcode>
    <place>Arecibo</place>
    <state>Arecibo</state>
    <state_code>013</state_code>
    <province></province>
    <province_code></province_code>
    <community></community>
    <community_code></community_code>
    <latitude>18.4724</latitude>
    <longitude>-66.7157</longitude>
  </object>
  <object>
    <country_code>PR</country_code>
    <zipcode>00616</zipcode>
    <place>Bajadero</place>
    <state>Arecibo</state>
    <state_code>013</state_code>
    <province></province>
    <province_code></province_code>
    <community></community>
    <community_code></community_code>
    <latitude>18.4266</latitude>
    <longitude>-66.6832</longitude>
  </object>
  <object>
    <country_code>PR</country_code>
    <zipcode>00652</zipcode>
    <place>Garrochales</place>
    <state>Arecibo</state>
    <state_code>013</state_code>
    <province></province>
    <province_code></province_code>
    <community></community>
    <community_code></community_code>
    <latitude>18.4577</latitude>
    <longitude>-66.611</longitude>
  </object>
  <object>
    <country_code>PR</country_code>
    <zipcode>00688</zipcode>
    <place>Sabana Hoyos</place>
    <state>Arecibo</state>
    <state_code>013</state_code>
    <province></province>
    <province_code></province_code>
    <community></community>
    <community_code></community_code>
    <latitude>18.4338</latitude>
    <longitude>-66.6138</longitude>
  </object>
  <object>
    <country_code>PR</country_code>
    <zipcode>00714</zipcode>
    <place>Arroyo</place>
    <state>Arroyo</state>
    <state_code>015</state_code>
    <province></province>
    <province_code></province_code>
    <community></community>
    <community_code></community_code>
    <latitude>17.9658</latitude>
    <longitude>-66.0613</longitude>
  </object>
  <object>
    <country_code>PR</country_code>
    <zipcode>00617</zipcode>
    <place>Barceloneta</place>
    <state>Barceloneta</state>
    <state_code>017</state_code>
    <province></province>
    <province_code></province_code>
    <community></community>
    <community_code></community_code>
    <latitude>18.4505</latitude>
    <longitude>-66.5385</longitude>
  </object>
  <object>
    <country_code>PR</country_code>
    <zipcode>00794</zipcode>
    <place>Barranquitas</place>
    <state>Barranquitas</state>
    <state_code>019</state_code>
    <province></province>
    <province_code></province_code>
    <community></community>
    <community_code></community_code>
    <latitude>18.1866</latitude>
    <longitude>-66.3063</longitude>
  </object>
  <object>
    <country_code>PR</country_code>
    <zipcode>00934</zipcode>
    <place>Fort Buchanan</place>
    <state>Bayamon</state>
    <state_code>021</state_code>
    <province></province>
    <province_code></province_code>
    <community></community>
    <community_code></community_code>
    <latitude>18.4122</latitude>
    <longitude>-66.1221</longitude>
  </object>
  <object>
    <country_code>PR</country_code>
    <zipcode>00956</zipcode>
    <place>Bayamon</place>
    <state>Bayamon</state>
    <state_code>021</state_code>
    <province></province>
    <province_code></province_code>
    <community></community>
    <community_code></community_code>
    <latitude>18.3986</latitude>
    <longitude>-66.1557</longitude>
  </object>
  <object>
    <country_code>PR</country_code>
    <zipcode>00957</zipcode>
    <place>Bayamon</place>
    <state>Bayamon</state>
    <state_code>021</state_code>
    <province></province>
    <province_code></province_code>
    <community></community>
    <community_code></community_code>
    <latitude>18.3986</latitude>
    <longitude>-66.1557</longitude>
  </object>
  <object>
    <country_code>PR</country_code>
    <zipcode>00958</zipcode>
    <place>Bayamon</place>
    <state>Bayamon</state>
    <state_code>021</state_code>
    <province></province>
    <province_code></province_code>
    <community></community>
    <community_code></community_code>
    <latitude>18.3986</latitude>
    <longitude>-66.1557</longitude>
  </object>
  <object>
    <country_code>PR</country_code>
    <zipcode>00959</zipcode>
    <place>Bayamon</place>
    <state>Bayamon</state>
    <state_code>021</state_code>
    <province></province>
    <province_code></province_code>
    <community></community>
    <community_code></community_code>
    <latitude>18.3986</latitude>
    <longitude>-66.1557</longitude>
  </object>
  <object>
    <country_code>PR</country_code>
    <zipcode>00960</zipcode>
    <place>Bayamon</place>
    <state>Bayamon</state>
    <state_code>021</state_code>
    <province></province>
    <province_code></province_code>
    <community></community>
    <community_code></community_code>
    <latitude>18.3986</latitude>
    <longitude>-66.1557</longitude>
  </object>
  <object>
    <country_code>PR</country_code>
    <zipcode>00961</zipcode>
    <place>Bayamon</place>
    <state>Bayamon</state>
    <state_code>021</state_code>
    <province></province>
    <province_code></province_code>
    <community></community>
    <community_code></community_code>
    <latitude>18.3986</latitude>
    <longitude>-66.1557</longitude>
  </object>
  <object>
    <country_code>PR</country_code>
    <zipcode>00622</zipcode>
    <place>Boqueron</place>
    <state>Cabo Rojo</state>
    <state_code>023</state_code>
    <province></province>
    <province_code></province_code>
    <community></community>
    <community_code></community_code>
    <latitude>18.0269</latitude>
    <longitude>-67.1691</longitude>
  </object>
  <object>
    <country_code>PR</country_code>
    <zipcode>00623</zipcode>
    <place>Cabo Rojo</place>
    <state>Cabo Rojo</state>
    <state_code>023</state_code>
    <province></province>
    <province_code></province_code>
    <community></community>
    <community_code></community_code>
    <latitude>18.0866</latitude>
    <longitude>-67.1457</longitude>
  </object>
  <object>
    <country_code>PR</country_code>
    <zipcode>00725</zipcode>
    <place>Caguas</place>
    <state>Caguas</state>
    <state_code>025</state_code>
    <province></province>
    <province_code></province_code>
    <community></community>
    <community_code></community_code>
    <latitude>18.2341</latitude>
    <longitude>-66.0485</longitude>
  </object>
  <object>
    <country_code>PR</country_code>
    <zipcode>00726</zipcode>
    <place>Caguas</place>
    <state>Caguas</state>
    <state_code>025</state_code>
    <province></province>
    <province_code></province_code>
    <community></community>
    <community_code></community_code>
    <latitude>18.2341</latitude>
    <longitude>-66.0485</longitude>
  </object>
  <object>
    <country_code>PR</country_code>
    <zipcode>00727</zipcode>
    <place>Caguas</place>
    <state>Caguas</state>
    <state_code>025</state_code>
    <province></province>
    <province_code></province_code>
    <community></community>
    <community_code></community_code>
    <latitude>18.2341</latitude>
    <longitude>-66.0485</longitude>
  </object>
  <object>
    <country_code>PR</country_code>
    <zipcode>00627</zipcode>
    <place>Camuy</place>
    <state>Camuy</state>
    <state_code>027</state_code>
    <province></province>
    <province_code></province_code>
    <community></community>
    <community_code></community_code>
    <latitude>18.4838</latitude>
    <longitude>-66.8449</longitude>
  </object>
  <object>
    <country_code>PR</country_code>
    <zipcode>00729</zipcode>
    <place>Canovanas</place>
    <state>Canovanas</state>
    <state_code>029</state_code>
    <province></province>
    <province_code></province_code>
    <community></community>
    <community_code></community_code>
    <latitude>18.3751</latitude>
    <longitude>-65.8993</longitude>
  </object>
  <object>
    <country_code>PR</country_code>
    <zipcode>00983</zipcode>
    <place>Carolina</place>
    <state>Carolina</state>
    <state_code>031</state_code>
    <province></province>
    <province_code></province_code>
    <community></community>
    <community_code></community_code>
    <latitude>18.3808</latitude>
    <longitude>-65.9574</longitude>
  </object>
  <object>
    <country_code>PR</country_code>
    <zipcode>00984</zipcode>
    <place>Carolina</place>
    <state>Carolina</state>
    <state_code>031</state_code>
    <province></province>
    <province_code></province_code>
    <community></community>
    <community_code></community_code>
    <latitude>18.3808</latitude>
    <longitude>-65.9574</longitude>
  </object>
  <object>
    <country_code>PR</country_code>
    <zipcode>00985</zipcode>
    <place>Carolina</place>
    <state>Carolina</state>
    <state_code>031</state_code>
    <province></province>
    <province_code></province_code>
    <community></community>
    <community_code></community_code>
    <latitude>18.3808</latitude>
    <longitude>-65.9574</longitude>
  </object>
  <object>
    <country_code>PR</country_code>
    <zipcode>00986</zipcode>
    <place>Carolina</place>
    <state>Carolina</state>
    <state_code>031</state_code>
    <province></province>
    <province_code></province_code>
    <community></community>
    <community_code></community_code>
    <latitude>18.3808</latitude>
    <longitude>-65.9574</longitude>
  </object>
  <object>
    <country_code>PR</country_code>
    <zipcode>00987</zipcode>
    <place>Carolina</place>
    <state>Carolina</state>
    <state_code>031</state_code>
    <province></province>
    <province_code></province_code>
    <community></community>
    <community_code></community_code>
    <latitude>18.3808</latitude>
    <longitude>-65.9574</longitude>
  </object>
  <object>
    <country_code>PR</country_code>
    <zipcode>00988</zipcode>
    <place>Carolina</place>
    <state>Carolina</state>
    <state_code>031</state_code>
    <province></province>
    <province_code></province_code>
    <community></community>
    <community_code></community_code>
    <latitude>18.3808</latitude>
    <longitude>-65.9574</longitude>
  </object>
  <object>
    <country_code>PR</country_code>
    <zipcode>00962</zipcode>
    <place>Catano</place>
    <state>Catano</state>
    <state_code>033</state_code>
    <province></province>
    <province_code></province_code>
    <community></community>
    <community_code></community_code>
    <latitude>18.4413</latitude>
    <longitude>-66.1182</longitude>
  </object>
  <object>
    <country_code>PR</country_code>
    <zipcode>00963</zipcode>
    <place>Catano</place>
    <state>Catano</state>
    <state_code>033</state_code>
    <province></province>
    <province_code></province_code>
    <community></community>
    <community_code></community_code>
    <latitude>18.4413</latitude>
    <longitude>-66.1182</longitude>
  </object>
  <object>
    <country_code>PR</country_code>
    <zipcode>00736</zipcode>
    <place>Cayey</place>
    <state>Cayey</state>
    <state_code>035</state_code>
    <province></province>
    <province_code></province_code>
    <community></community>
    <community_code></community_code>
    <latitude>18.1119</latitude>
    <longitude>-66.166</longitude>
  </object>
  <object>
    <country_code>PR</country_code>
    <zipcode>00737</zipcode>
    <place>Cayey</place>
    <state>Cayey</state>
    <state_code>035</state_code>
    <province></province>
    <province_code></province_code>
    <community></community>
    <community_code></community_code>
    <latitude>18.1119</latitude>
    <longitude>-66.166</longitude>
  </object>
  <object>
    <country_code>PR</country_code>
    <zipcode>00735</zipcode>
    <place>Ceiba</place>
    <state>Ceiba</state>
    <state_code>037</state_code>
    <province></province>
    <province_code></province_code>
    <community></community>
    <community_code></community_code>
    <latitude>18.2641</latitude>
    <longitude>-65.6485</longitude>
  </object>
  <object>
    <country_code>PR</country_code>
    <zipcode>00742</zipcode>
    <place>Roosevelt Roads</place>
    <state>Ceiba</state>
    <state_code>037</state_code>
    <province></province>
    <province_code></province_code>
    <community></community>
    <community_code></community_code>
    <latitude>18.235</latitude>
    <longitude>-65.6291</longitude>
  </object>
  <object>
    <country_code>PR</country_code>
    <zipcode>00638</zipcode>
    <place>Ciales</place>
    <state>Ciales</state>
    <state_code>039</state_code>
    <province></province>
    <province_code></province_code>
    <community></community>
    <community_code></community_code>
    <latitude>18.3361</latitude>
    <longitude>-66.4688</longitude>
  </object>
  <object>
    <country_code>PR</country_code>
    <zipcode>00739</zipcode>
    <place>Cidra</place>
    <state>Cidra</state>
    <state_code>041</state_code>
    <province></province>
    <province_code></province_code>
    <community></community>
    <community_code></community_code>
    <latitude>18.1758</latitude>
    <longitude>-66.1613</longitude>
  </object>
  <object>
    <country_code>PR</country_code>
    <zipcode>00769</zipcode>
    <place>Coamo</place>
    <state>Coamo</state>
    <state_code>043</state_code>
    <province></province>
    <province_code></province_code>
    <community></community>
    <community_code></community_code>
    <latitude>18.08</latitude>
    <longitude>-66.3579</longitude>
  </object>
  <object>
    <country_code>PR</country_code>
    <zipcode>00782</zipcode>
    <place>Comerio</place>
    <state>Comerio</state>
    <state_code>045</state_code>
    <province></province>
    <province_code></province_code>
    <community></community>
    <community_code></community_code>
    <latitude>18.218</latitude>
    <longitude>-66.226</longitude>
  </object>
  <object>
    <country_code>PR</country_code>
    <zipcode>00783</zipcode>
    <place>Corozal</place>
    <state>Corozal</state>
    <state_code>047</state_code>
    <province></province>
    <province_code></province_code>
    <community></community>
    <community_code></community_code>
    <latitude>18.3411</latitude>
    <longitude>-66.3168</longitude>
  </object>
  <object>
    <country_code>PR</country_code>
    <zipcode>00775</zipcode>
    <place>Culebra</place>
    <state>Culebra</state>
    <state_code>049</state_code>
    <province></province>
    <province_code></province_code>
    <community></community>
    <community_code></community_code>
    <latitude>18.303</latitude>
    <longitude>-65.301</longitude>
  </object>
  <object>
    <country_code>PR</country_code>
    <zipcode>00646</zipcode>
    <place>Dorado</place>
    <state>Dorado</state>
    <state_code>051</state_code>
    <province></province>
    <province_code></province_code>
    <community></community>
    <community_code></community_code>
    <latitude>18.4588</latitude>
    <longitude>-66.2677</longitude>
  </object>
  <object>
    <country_code>PR</country_code>
    <zipcode>00738</zipcode>
    <place>Fajardo</place>
    <state>Fajardo</state>
    <state_code>053</state_code>
    <province></province>
    <province_code></province_code>
    <community></community>
    <community_code></community_code>
    <latitude>18.3258</latitude>
    <longitude>-65.6524</longitude>
  </object>
  <object>
    <country_code>PR</country_code>
    <zipcode>00740</zipcode>
    <place>Puerto Real</place>
    <state>Fajardo</state>
    <state_code>053</state_code>
    <province></province>
    <province_code></province_code>
    <community></community>
    <community_code></community_code>
    <latitude>18.25</latitude>
    <longitude>-65.7493</longitude>
  </object>
  <object>
    <country_code>PR</country_code>
    <zipcode>00650</zipcode>
    <place>Florida</place>
    <state>Florida</state>
    <state_code>054</state_code>
    <province></province>
    <province_code></province_code>
    <community></community>
    <community_code></community_code>
    <latitude>18.3624</latitude>
    <longitude>-66.5613</longitude>
  </object>
  <object>
    <country_code>PR</country_code>
    <zipcode>00647</zipcode>
    <place>Ensenada</place>
    <state>Guanica</state>
    <state_code>055</state_code>
    <province></province>
    <province_code></province_code>
    <community></community>
    <community_code></community_code>
    <latitude>17.9689</latitude>
    <longitude>-66.9335</longitude>
  </object>
  <object>
    <country_code>PR</country_code>
    <zipcode>00653</zipcode>
    <place>Guanica</place>
    <state>Guanica</state>
    <state_code>055</state_code>
    <province></province>
    <province_code></province_code>
    <community></community>
    <community_code></community_code>
    <latitude>17.9716</latitude>
    <longitude>-66.908</longitude>
  </object>
  <object>
    <country_code>PR</country_code>
    <zipcode>00704</zipcode>
    <place>Aguirre</place>
    <state>Guayama</state>
    <state_code>057</state_code>
    <province></province>
    <province_code></province_code>
    <community></community>
    <community_code></community_code>
    <latitude>17.9529</latitude>
    <longitude>-66.262</longitude>
  </object>
  <object>
    <country_code>PR</country_code>
    <zipcode>00784</zipcode>
    <place>Guayama</place>
    <state>Guayama</state>
    <state_code>057</state_code>
    <province></province>
    <province_code></province_code>
    <community></community>
    <community_code></community_code>
    <latitude>17.9841</latitude>
    <longitude>-66.1138</longitude>
  </object>
  <object>
    <country_code>PR</country_code>
    <zipcode>00656</zipcode>
    <place>Guayanilla</place>
    <state>Guayanilla</state>
    <state_code>059</state_code>
    <province></province>
    <province_code></province_code>
    <community></community>
    <community_code></community_code>
    <latitude>18.0191</latitude>
    <longitude>-66.7918</longitude>
  </object>
  <object>
    <country_code>PR</country_code>
    <zipcode>00785</zipcode>
    <place>Guayama</place>
    <state>Guayanilla</state>
    <state_code>059</state_code>
    <province></province>
    <province_code></province_code>
    <community></community>
    <community_code></community_code>
    <latitude>17.9841</latitude>
    <longitude>-66.1138</longitude>
  </object>
  <object>
    <country_code>PR</country_code>
    <zipcode>00965</zipcode>
    <place>Guaynabo</place>
    <state>Guaynabo</state>
    <state_code>061</state_code>
    <province></province>
    <province_code></province_code>
    <community></community>
    <community_code></community_code>
    <latitude>18.3575</latitude>
    <longitude>-66.111</longitude>
  </object>
  <object>
    <country_code>PR</country_code>
    <zipcode>00966</zipcode>
    <place>Guaynabo</place>
    <state>Guaynabo</state>
    <state_code>061</state_code>
    <province></province>
    <province_code></province_code>
    <community></community>
    <community_code></community_code>
    <latitude>18.3575</latitude>
    <longitude>-66.111</longitude>
  </object>
  <object>
    <country_code>PR</country_code>
    <zipcode>00969</zipcode>
    <place>Guaynabo</place>
    <state>Guaynabo</state>
    <state_code>061</state_code>
    <province></province>
    <province_code></province_code>
    <community></community>
    <community_code></community_code>
    <latitude>18.3575</latitude>
    <longitude>-66.111</longitude>
  </object>
  <object>
    <country_code>PR</country_code>
    <zipcode>00970</zipcode>
    <place>Guaynabo</place>
    <state>Guaynabo</state>
    <state_code>061</state_code>
    <province></province>
    <province_code></province_code>
    <community></community>
    <community_code></community_code>
    <latitude>18.3575</latitude>
    <longitude>-66.111</longitude>
  </object>
  <object>
    <country_code>PR</country_code>
    <zipcode>00971</zipcode>
    <place>Guaynabo</place>
    <state>Guaynabo</state>
    <state_code>061</state_code>
    <province></province>
    <province_code></province_code>
    <community></community>
    <community_code></community_code>
    <latitude>18.3575</latitude>
    <longitude>-66.111</longitude>
  </object>
  <object>
    <country_code>PR</country_code>
    <zipcode>00778</zipcode>
    <place>Gurabo</place>
    <state>Gurabo</state>
    <state_code>063</state_code>
    <province></province>
    <province_code></province_code>
    <community></community>
    <community_code></community_code>
    <latitude>18.2544</latitude>
    <longitude>-65.9729</longitude>
  </object>
  <object>
    <country_code>PR</country_code>
    <zipcode>00659</zipcode>
    <place>Hatillo</place>
    <state>Hatillo</state>
    <state_code>065</state_code>
    <province></province>
    <province_code></province_code>
    <community></community>
    <community_code></community_code>
    <latitude>18.4863</latitude>
    <longitude>-66.8255</longitude>
  </object>
  <object>
    <country_code>PR</country_code>
    <zipcode>00660</zipcode>
    <place>Hormigueros</place>
    <state>Hormigueros</state>
    <state_code>067</state_code>
    <province></province>
    <province_code></province_code>
    <community></community>
    <community_code></community_code>
    <latitude>18.1397</latitude>
    <longitude>-67.1274</longitude>
  </object>
  <object>
    <country_code>PR</country_code>
    <zipcode>00741</zipcode>
    <place>Punta Santiago</place>
    <state>Humacao</state>
    <state_code>069</state_code>
    <province></province>
    <province_code></province_code>
    <community></community>
    <community_code></community_code>
    <latitude>18.1663</latitude>
    <longitude>-65.7482</longitude>
  </object>
  <object>
    <country_code>PR</country_code>
    <zipcode>00791</zipcode>
    <place>Humacao</place>
    <state>Humacao</state>
    <state_code>069</state_code>
    <province></province>
    <province_code></province_code>
    <community></community>
    <community_code></community_code>
    <latitude>18.1497</latitude>
    <longitude>-65.8274</longitude>
  </object>
  <object>
    <country_code>PR</country_code>
    <zipcode>00792</zipcode>
    <place>Humacao</place>
    <state>Humacao</state>
    <state_code>069</state_code>
    <province></province>
    <province_code></province_code>
    <community></community>
    <community_code></community_code>
    <latitude>18.1497</latitude>
    <longitude>-65.8274</longitude>
  </object>
  <object>
    <country_code>PR</country_code>
    <zipcode>00662</zipcode>
    <place>Isabela</place>
    <state>Isabela</state>
    <state_code>071</state_code>
    <province></province>
    <province_code></province_code>
    <community></community>
    <community_code></community_code>
    <latitude>18.5008</latitude>
    <longitude>-67.0243</longitude>
  </object>
  <object>
    <country_code>PR</country_code>
    <zipcode>00664</zipcode>
    <place>Jayuya</place>
    <state>Jayuya</state>
    <state_code>073</state_code>
    <province></province>
    <province_code></province_code>
    <community></community>
    <community_code></community_code>
    <latitude>18.2186</latitude>
    <longitude>-66.5916</longitude>
  </object>
  <object>
    <country_code>PR</country_code>
    <zipcode>00795</zipcode>
    <place>Juana Diaz</place>
    <state>Juana Diaz</state>
    <state_code>075</state_code>
    <province></province>
    <province_code></province_code>
    <community></community>
    <community_code></community_code>
    <latitude>18.0525</latitude>
    <longitude>-66.5066</longitude>
  </object>
  <object>
    <country_code>PR</country_code>
    <zipcode>00777</zipcode>
    <place>Juncos</place>
    <state>Juncos</state>
    <state_code>077</state_code>
    <province></province>
    <province_code></province_code>
    <community></community>
    <community_code></community_code>
    <latitude>18.2275</latitude>
    <longitude>-65.921</longitude>
  </object>
  <object>
    <country_code>PR</country_code>
    <zipcode>00667</zipcode>
    <place>Lajas</place>
    <state>Lajas</state>
    <state_code>079</state_code>
    <province></province>
    <province_code></province_code>
    <community></community>
    <community_code></community_code>
    <latitude>18.05</latitude>
    <longitude>-67.0593</longitude>
  </object>
  <object>
    <country_code>PR</country_code>
    <zipcode>00631</zipcode>
    <place>Castaner</place>
    <state>Lares</state>
    <state_code>081</state_code>
    <province></province>
    <province_code></province_code>
    <community></community>
    <community_code></community_code>
    <latitude>18.1805</latitude>
    <longitude>-66.8321</longitude>
  </object>
  <object>
    <country_code>PR</country_code>
    <zipcode>00669</zipcode>
    <place>Lares</place>
    <state>Lares</state>
    <state_code>081</state_code>
    <province></province>
    <province_code></province_code>
    <community></community>
    <community_code></community_code>
    <latitude>18.2947</latitude>
    <longitude>-66.8771</longitude>
  </object>
  <object>
    <country_code>PR</country_code>
    <zipcode>00670</zipcode>
    <place>Las Marias</place>
    <state>Las Marias</state>
    <state_code>083</state_code>
    <province></province>
    <province_code></province_code>
    <community></community>
    <community_code></community_code>
    <latitude>18.2519</latitude>
    <longitude>-66.9921</longitude>
  </object>
  <object>
    <country_code>PR</country_code>
    <zipcode>00771</zipcode>
    <place>Las Piedras</place>
    <state>Las Piedras</state>
    <state_code>085</state_code>
    <province></province>
    <province_code></province_code>
    <community></community>
    <community_code></community_code>
    <latitude>18.183</latitude>
    <longitude>-65.8663</longitude>
  </object>
  <object>
    <country_code>PR</country_code>
    <zipcode>00772</zipcode>
    <place>Loiza</place>
    <state>Loiza</state>
    <state_code>087</state_code>
    <province></province>
    <province_code></province_code>
    <community></community>
    <community_code></community_code>
    <latitude>18.4313</latitude>
    <longitude>-65.8802</longitude>
  </object>
  <object>
    <country_code>PR</country_code>
    <zipcode>00773</zipcode>
    <place>Luquillo</place>
    <state>Luquillo</state>
    <state_code>089</state_code>
    <province></province>
    <province_code></province_code>
    <community></community>
    <community_code></community_code>
    <latitude>18.3725</latitude>
    <longitude>-65.7166</longitude>
  </object>
  <object>
    <country_code>PR</country_code>
    <zipcode>00674</zipcode>
    <place>Manati</place>
    <state>Manati</state>
    <state_code>091</state_code>
    <province></province>
    <province_code></province_code>
    <community></community>
    <community_code></community_code>
    <latitude>18.4274</latitude>
    <longitude>-66.4921</longitude>
  </object>
  <object>
    <country_code>PR</country_code>
    <zipcode>00606</zipcode>
    <place>Maricao</place>
    <state>Maricao</state>
    <state_code>093</state_code>
    <province></province>
    <province_code></province_code>
    <community></community>
    <community_code></community_code>
    <latitude>18.1808</latitude>
    <longitude>-66.9799</longitude>
  </object>
  <object>
    <country_code>PR</country_code>
    <zipcode>00707</zipcode>
    <place>Maunabo</place>
    <state>Maunabo</state>
    <state_code>095</state_code>
    <province></province>
    <province_code></province_code>
    <community></community>
    <community_code></community_code>
    <latitude>18.0072</latitude>
    <longitude>-65.8993</longitude>
  </object>
  <object>
    <country_code>PR</country_code>
    <zipcode>00680</zipcode>
    <place>Mayaguez</place>
    <state>Mayaguez</state>
    <state_code>097</state_code>
    <province></province>
    <province_code></province_code>
    <community></community>
    <community_code></community_code>
    <latitude>18.2011</latitude>
    <longitude>-67.1396</longitude>
  </object>
  <object>
    <country_code>PR</country_code>
    <zipcode>00681</zipcode>
    <place>Mayaguez</place>
    <state>Mayaguez</state>
    <state_code>097</state_code>
    <province></province>
    <province_code></province_code>
    <community></community>
    <community_code></community_code>
    <latitude>18.2011</latitude>
    <longitude>-67.1396</longitude>
  </object>
  <object>
    <country_code>PR</country_code>
    <zipcode>00682</zipcode>
    <place>Mayaguez</place>
    <state>Mayaguez</state>
    <state_code>097</state_code>
    <province></province>
    <province_code></province_code>
    <community></community>
    <community_code></community_code>
    <latitude>18.2011</latitude>
    <longitude>-67.1396</longitude>
  </object>
  <object>
    <country_code>PR</country_code>
    <zipcode>00676</zipcode>
    <place>Moca</place>
    <state>Moca</state>
    <state_code>099</state_code>
    <province></province>
    <province_code></province_code>
    <community></community>
    <community_code></community_code>
    <latitude>18.3947</latitude>
    <longitude>-67.1132</longitude>
  </object>
  <object>
    <country_code>PR</country_code>
    <zipcode>00687</zipcode>
    <place>Morovis</place>
    <state>Morovis</state>
    <state_code>101</state_code>
    <province></province>
    <province_code></province_code>
    <community></community>
    <community_code></community_code>
    <latitude>18.3258</latitude>
    <longitude>-66.4066</longitude>
  </object>
  <object>
    <country_code>PR</country_code>
    <zipcode>00718</zipcode>
    <place>Naguabo</place>
    <state>Naguabo</state>
    <state_code>103</state_code>
    <province></province>
    <province_code></province_code>
    <community></community>
    <community_code></community_code>
    <latitude>18.2116</latitude>
    <longitude>-65.7349</longitude>
  </object>
  <object>
    <country_code>PR</country_code>
    <zipcode>00744</zipcode>
    <place>Rio Blanco</place>
    <state>Naguabo</state>
    <state_code>103</state_code>
    <province></province>
    <province_code></province_code>
    <community></community>
    <community_code></community_code>
    <latitude>18.2183</latitude>
    <longitude>-65.7885</longitude>
  </object>
  <object>
    <country_code>PR</country_code>
    <zipcode>00719</zipcode>
    <place>Naranjito</place>
    <state>Naranjito</state>
    <state_code>105</state_code>
    <province></province>
    <province_code></province_code>
    <community></community>
    <community_code></community_code>
    <latitude>18.3008</latitude>
    <longitude>-66.2449</longitude>
  </object>
  <object>
    <country_code>PR</country_code>
    <zipcode>00720</zipcode>
    <place>Orocovis</place>
    <state>Orocovis</state>
    <state_code>107</state_code>
    <province></province>
    <province_code></province_code>
    <community></community>
    <community_code></community_code>
    <latitude>18.2269</latitude>
    <longitude>-66.391</longitude>
  </object>
  <object>
    <country_code>PR</country_code>
    <zipcode>00723</zipcode>
    <place>Patillas</place>
    <state>Patillas</state>
    <state_code>109</state_code>
    <province></province>
    <province_code></province_code>
    <community></community>
    <community_code></community_code>
    <latitude>18.0064</latitude>
    <longitude>-66.0157</longitude>
  </object>
  <object>
    <country_code>PR</country_code>
    <zipcode>00624</zipcode>
    <place>Penuelas</place>
    <state>Penuelas</state>
    <state_code>111</state_code>
    <province></province>
    <province_code></province_code>
    <community></community>
    <community_code></community_code>
    <latitude>18.0564</latitude>
    <longitude>-66.7216</longitude>
  </object>
  <object>
    <country_code>PR</country_code>
    <zipcode>00715</zipcode>
    <place>Mercedita</place>
    <state>Ponce</state>
    <state_code>113</state_code>
    <province></province>
    <province_code></province_code>
    <community></community>
    <community_code></community_code>
    <latitude>18.011</latitude>
    <longitude>-66.5632</longitude>
  </object>
  <object>
    <country_code>PR</country_code>
    <zipcode>00716</zipcode>
    <place>Ponce</place>
    <state>Ponce</state>
    <state_code>113</state_code>
    <province></province>
    <province_code></province_code>
    <community></community>
    <community_code></community_code>
    <latitude>18.0111</latitude>
    <longitude>-66.6141</longitude>
  </object>
  <object>
    <country_code>PR</country_code>
    <zipcode>00717</zipcode>
    <place>Ponce</place>
    <state>Ponce</state>
    <state_code>113</state_code>
    <province></province>
    <province_code></province_code>
    <community></community>
    <community_code></community_code>
    <latitude>18.0111</latitude>
    <longitude>-66.6141</longitude>
  </object>
  <object>
    <country_code>PR</country_code>
    <zipcode>00728</zipcode>
    <place>Ponce</place>
    <state>Ponce</state>
    <state_code>113</state_code>
    <province></province>
    <province_code></province_code>
    <community></community>
    <community_code></community_code>
    <latitude>18.0111</latitude>
    <longitude>-66.6141</longitude>
  </object>
  <object>
    <country_code>PR</country_code>
    <zipcode>00730</zipcode>
    <place>Ponce</place>
    <state>Ponce</state>
    <state_code>113</state_code>
    <province></province>
    <province_code></province_code>
    <community></community>
    <community_code></community_code>
    <latitude>18.0111</latitude>
    <longitude>-66.6141</longitude>
  </object>
  <object>
    <country_code>PR</country_code>
    <zipcode>00731</zipcode>
    <place>Ponce</place>
    <state>Ponce</state>
    <state_code>113</state_code>
    <province></province>
    <province_code></province_code>
    <community></community>
    <community_code></community_code>
    <latitude>18.0111</latitude>
    <longitude>-66.6141</longitude>
  </object>
  <object>
    <country_code>PR</country_code>
    <zipcode>00732</zipcode>
    <place>Ponce</place>
    <state>Ponce</state>
    <state_code>113</state_code>
    <province></province>
    <province_code></province_code>
    <community></community>
    <community_code></community_code>
    <latitude>18.0111</latitude>
    <longitude>-66.6141</longitude>
  </object>
  <object>
    <country_code>PR</country_code>
    <zipcode>00733</zipcode>
    <place>Ponce</place>
    <state>Ponce</state>
    <state_code>113</state_code>
    <province></province>
    <province_code></province_code>
    <community></community>
    <community_code></community_code>
    <latitude>18.0111</latitude>
    <longitude>-66.6141</longitude>
  </object>
  <object>
    <country_code>PR</country_code>
    <zipcode>00734</zipcode>
    <place>Ponce</place>
    <state>Ponce</state>
    <state_code>113</state_code>
    <province></province>
    <province_code></province_code>
    <community></community>
    <community_code></community_code>
    <latitude>18.0111</latitude>
    <longitude>-66.6141</longitude>
  </object>
  <object>
    <country_code>PR</country_code>
    <zipcode>00780</zipcode>
    <place>Coto Laurel</place>
    <state>Ponce</state>
    <state_code>113</state_code>
    <province></province>
    <province_code></province_code>
    <community></community>
    <community_code></community_code>
    <latitude>18.0497</latitude>
    <longitude>-66.5513</longitude>
  </object>
  <object>
    <country_code>PR</country_code>
    <zipcode>00678</zipcode>
    <place>Quebradillas</place>
    <state>Quebradillas</state>
    <state_code>115</state_code>
    <province></province>
    <province_code></province_code>
    <community></community>
    <community_code></community_code>
    <latitude>18.4738</latitude>
    <longitude>-66.9385</longitude>
  </object>
  <object>
    <country_code>PR</country_code>
    <zipcode>00677</zipcode>
    <place>Rincon</place>
    <state>Rincon</state>
    <state_code>117</state_code>
    <province></province>
    <province_code></province_code>
    <community></community>
    <community_code></community_code>
    <latitude>18.3402</latitude>
    <longitude>-67.2499</longitude>
  </object>
  <object>
    <country_code>PR</country_code>
    <zipcode>00721</zipcode>
    <place>Palmer</place>
    <state>Rio Grande</state>
    <state_code>119</state_code>
    <province></province>
    <province_code></province_code>
    <community></community>
    <community_code></community_code>
    <latitude>18.3705</latitude>
    <longitude>-65.7741</longitude>
  </object>
  <object>
    <country_code>PR</country_code>
    <zipcode>00745</zipcode>
    <place>Rio Grande</place>
    <state>Rio Grande</state>
    <state_code>119</state_code>
    <province></province>
    <province_code></province_code>
    <community></community>
    <community_code></community_code>
    <latitude>18.3802</latitude>
    <longitude>-65.8313</longitude>
  </object>
  <object>
    <country_code>PR</country_code>
    <zipcode>00637</zipcode>
    <place>Sabana Grande</place>
    <state>Sabana Grande</state>
    <state_code>121</state_code>
    <province></province>
    <province_code></province_code>
    <community></community>
    <community_code></community_code>
    <latitude>18.0777</latitude>
    <longitude>-66.9605</longitude>
  </object>
  <object>
    <country_code>PR</country_code>
    <zipcode>00751</zipcode>
    <place>Salinas</place>
    <state>Salinas</state>
    <state_code>123</state_code>
    <province></province>
    <province_code></province_code>
    <community></community>
    <community_code></community_code>
    <latitude>17.9775</latitude>
    <longitude>-66.2979</longitude>
  </object>
  <object>
    <country_code>PR</country_code>
    <zipcode>00636</zipcode>
    <place>Rosario</place>
    <state>San German</state>
    <state_code>125</state_code>
    <province></province>
    <province_code></province_code>
    <community></community>
    <community_code></community_code>
    <latitude>18.1625</latitude>
    <longitude>-67.0791</longitude>
  </object>
  <object>
    <country_code>PR</country_code>
    <zipcode>00683</zipcode>
    <place>San German</place>
    <state>San German</state>
    <state_code>125</state_code>
    <province></province>
    <province_code></province_code>
    <community></community>
    <community_code></community_code>
    <latitude>18.0816</latitude>
    <longitude>-67.0449</longitude>
  </object>
  <object>
    <country_code>PR</country_code>
    <zipcode>00901</zipcode>
    <place>San Juan</place>
    <state>San Juan</state>
    <state_code>127</state_code>
    <province></province>
    <province_code></province_code>
    <community></community>
    <community_code></community_code>
    <latitude>18.4663</latitude>
    <longitude>-66.1057</longitude>
  </object>
  <object>
    <country_code>PR</country_code>
    <zipcode>00902</zipcode>
    <place>San Juan</place>
    <state>San Juan</state>
    <state_code>127</state_code>
    <province></province>
    <province_code></province_code>
    <community></community>
    <community_code></community_code>
    <latitude>18.4663</latitude>
    <longitude>-66.1057</longitude>
  </object>
  <object>
    <country_code>PR</country_code>
    <zipcode>00906</zipcode>
    <place>San Juan</place>
    <state>San Juan</state>
    <state_code>127</state_code>
    <province></province>
    <province_code></province_code>
    <community></community>
    <community_code></community_code>
    <latitude>18.4663</latitude>
    <longitude>-66.1057</longitude>
  </object>
  <object>
    <country_code>PR</country_code>
    <zipcode>00907</zipcode>
    <place>San Juan</place>
    <state>San Juan</state>
    <state_code>127</state_code>
    <province></province>
    <province_code></province_code>
    <community></community>
    <community_code></community_code>
    <latitude>18.4663</latitude>
    <longitude>-66.1057</longitude>
  </object>
  <object>
    <country_code>PR</country_code>
    <zipcode>00908</zipcode>
    <place>San Juan</place>
    <state>San Juan</state>
    <state_code>127</state_code>
    <province></province>
    <province_code></province_code>
    <community></community>
    <community_code></community_code>
    <latitude>18.4663</latitude>
    <longitude>-66.1057</longitude>
  </object>
  <object>
    <country_code>PR</country_code>
    <zipcode>00909</zipcode>
    <place>San Juan</place>
    <state>San Juan</state>
    <state_code>127</state_code>
    <province></province>
    <province_code></province_code>
    <community></community>
    <community_code></community_code>
    <latitude>18.4663</latitude>
    <longitude>-66.1057</longitude>
  </object>
  <object>
    <country_code>PR</country_code>
    <zipcode>00910</zipcode>
    <place>San Juan</place>
    <state>San Juan</state>
    <state_code>127</state_code>
    <province></province>
    <province_code></province_code>
    <community></community>
    <community_code></community_code>
    <latitude>18.4663</latitude>
    <longitude>-66.1057</longitude>
  </object>
  <object>
    <country_code>PR</country_code>
    <zipcode>00911</zipcode>
    <place>San Juan</place>
    <state>San Juan</state>
    <state_code>127</state_code>
    <province></province>
    <province_code></province_code>
    <community></community>
    <community_code></community_code>
    <latitude>18.4663</latitude>
    <longitude>-66.1057</longitude>
  </object>
  <object>
    <country_code>PR</country_code>
    <zipcode>00912</zipcode>
    <place>San Juan</place>
    <state>San Juan</state>
    <state_code>127</state_code>
    <province></province>
    <province_code></province_code>
    <community></community>
    <community_code></community_code>
    <latitude>18.4663</latitude>
    <longitude>-66.1057</longitude>
  </object>
  <object>
    <country_code>PR</country_code>
    <zipcode>00913</zipcode>
    <place>San Juan</place>
    <state>San Juan</state>
    <state_code>127</state_code>
    <province></province>
    <province_code></province_code>
    <community></community>
    <community_code></community_code>
    <latitude>18.4663</latitude>
    <longitude>-66.1057</longitude>
  </object>
  <object>
    <country_code>PR</country_code>
    <zipcode>00914</zipcode>
    <place>San Juan</place>
    <state>San Juan</state>
    <state_code>127</state_code>
    <province></province>
    <province_code></province_code>
    <community></community>
    <community_code></community_code>
    <latitude>18.4663</latitude>
    <longitude>-66.1057</longitude>
  </object>
  <object>
    <country_code>PR</country_code>
    <zipcode>00915</zipcode>
    <place>San Juan</place>
    <state>San Juan</state>
    <state_code>127</state_code>
    <province></province>
    <province_code></province_code>
    <community></community>
    <community_code></community_code>
    <latitude>18.4663</latitude>
    <longitude>-66.1057</longitude>
  </object>
  <object>
    <country_code>PR</country_code>
    <zipcode>00916</zipcode>
    <place>San Juan</place>
    <state>San Juan</state>
    <state_code>127</state_code>
    <province></province>
    <province_code></province_code>
    <community></community>
    <community_code></community_code>
    <latitude>18.4663</latitude>
    <longitude>-66.1057</longitude>
  </object>
  <object>
    <country_code>PR</country_code>
    <zipcode>00917</zipcode>
    <place>San Juan</place>
    <state>San Juan</state>
    <state_code>127</state_code>
    <province></province>
    <province_code></province_code>
    <community></community>
    <community_code></community_code>
    <latitude>18.4663</latitude>
    <longitude>-66.1057</longitude>
  </object>
  <object>
    <country_code>PR</country_code>
    <zipcode>00918</zipcode>
    <place>San Juan</place>
    <state>San Juan</state>
    <state_code>127</state_code>
    <province></province>
    <province_code></province_code>
    <community></community>
    <community_code></community_code>
    <latitude>18.4663</latitude>
    <longitude>-66.1057</longitude>
  </object>
  <object>
    <country_code>PR</country_code>
    <zipcode>00919</zipcode>
    <place>San Juan</place>
    <state>San Juan</state>
    <state_code>127</state_code>
    <province></province>
    <province_code></province_code>
    <community></community>
    <community_code></community_code>
    <latitude>18.4663</latitude>
    <longitude>-66.1057</longitude>
  </object>
  <object>
    <country_code>PR</country_code>
    <zipcode>00920</zipcode>
    <place>San Juan</place>
    <state>San Juan</state>
    <state_code>127</state_code>
    <province></province>
    <province_code></province_code>
    <community></community>
    <community_code></community_code>
    <latitude>18.4663</latitude>
    <longitude>-66.1057</longitude>
  </object>
  <object>
    <country_code>PR</country_code>
    <zipcode>00921</zipcode>
    <place>San Juan</place>
    <state>San Juan</state>
    <state_code>127</state_code>
    <province></province>
    <province_code></province_code>
    <community></community>
    <community_code></community_code>
    <latitude>18.4663</latitude>
    <longitude>-66.1057</longitude>
  </object>
  <object>
    <country_code>PR</country_code>
    <zipcode>00922</zipcode>
    <place>San Juan</place>
    <state>San Juan</state>
    <state_code>127</state_code>
    <province></province>
    <province_code></province_code>
    <community></community>
    <community_code></community_code>
    <latitude>18.4663</latitude>
    <longitude>-66.1057</longitude>
  </object>
  <object>
    <country_code>PR</country_code>
    <zipcode>00923</zipcode>
    <place>San Juan</place>
    <state>San Juan</state>
    <state_code>127</state_code>
    <province></province>
    <province_code></province_code>
    <community></community>
    <community_code></community_code>
    <latitude>18.4663</latitude>
    <longitude>-66.1057</longitude>
  </object>
  <object>
    <country_code>PR</country_code>
    <zipcode>00924</zipcode>
    <place>San Juan</place>
    <state>San Juan</state>
    <state_code>127</state_code>
    <province></province>
    <province_code></province_code>
    <community></community>
    <community_code></community_code>
    <latitude>18.4663</latitude>
    <longitude>-66.1057</longitude>
  </object>
  <object>
    <country_code>PR</country_code>
    <zipcode>00925</zipcode>
    <place>San Juan</place>
    <state>San Juan</state>
    <state_code>127</state_code>
    <province></province>
    <province_code></province_code>
    <community></community>
    <community_code></community_code>
    <latitude>18.4663</latitude>
    <longitude>-66.1057</longitude>
  </object>
  <object>
    <country_code>PR</country_code>
    <zipcode>00926</zipcode>
    <place>San Juan</place>
    <state>San Juan</state>
    <state_code>127</state_code>
    <province></province>
    <province_code></province_code>
    <community></community>
    <community_code></community_code>
    <latitude>18.4663</latitude>
    <longitude>-66.1057</longitude>
  </object>
  <object>
    <country_code>PR</country_code>
    <zipcode>00927</zipcode>
    <place>San Juan</place>
    <state>San Juan</state>
    <state_code>127</state_code>
    <province></province>
    <province_code></province_code>
    <community></community>
    <community_code></community_code>
    <latitude>18.4663</latitude>
    <longitude>-66.1057</longitude>
  </object>
  <object>
    <country_code>PR</country_code>
    <zipcode>00928</zipcode>
    <place>San Juan</place>
    <state>San Juan</state>
    <state_code>127</state_code>
    <province></province>
    <province_code></province_code>
    <community></community>
    <community_code></community_code>
    <latitude>18.4663</latitude>
    <longitude>-66.1057</longitude>
  </object>
  <object>
    <country_code>PR</country_code>
    <zipcode>00929</zipcode>
    <place>San Juan</place>
    <state>San Juan</state>
    <state_code>127</state_code>
    <province></province>
    <province_code></province_code>
    <community></community>
    <community_code></community_code>
    <latitude>18.4663</latitude>
    <longitude>-66.1057</longitude>
  </object>
  <object>
    <country_code>PR</country_code>
    <zipcode>00930</zipcode>
    <place>San Juan</place>
    <state>San Juan</state>
    <state_code>127</state_code>
    <province></province>
    <province_code></province_code>
    <community></community>
    <community_code></community_code>
    <latitude>18.4663</latitude>
    <longitude>-66.1057</longitude>
  </object>
  <object>
    <country_code>PR</country_code>
    <zipcode>00931</zipcode>
    <place>San Juan</place>
    <state>San Juan</state>
    <state_code>127</state_code>
    <province></province>
    <province_code></province_code>
    <community></community>
    <community_code></community_code>
    <latitude>18.4663</latitude>
    <longitude>-66.1057</longitude>
  </object>
  <object>
    <country_code>PR</country_code>
    <zipcode>00933</zipcode>
    <place>San Juan</place>
    <state>San Juan</state>
    <state_code>127</state_code>
    <province></province>
    <province_code></province_code>
    <community></community>
    <community_code></community_code>
    <latitude>18.4663</latitude>
    <longitude>-66.1057</longitude>
  </object>
  <object>
    <country_code>PR</country_code>
    <zipcode>00935</zipcode>
    <place>San Juan</place>
    <state>San Juan</state>
    <state_code>127</state_code>
    <province></province>
    <province_code></province_code>
    <community></community>
    <community_code></community_code>
    <latitude>18.4663</latitude>
    <longitude>-66.1057</longitude>
  </object>
  <object>
    <country_code>PR</country_code>
    <zipcode>00936</zipcode>
    <place>San Juan</place>
    <state>San Juan</state>
    <state_code>127</state_code>
    <province></province>
    <province_code></province_code>
    <community></community>
    <community_code></community_code>
    <latitude>18.4663</latitude>
    <longitude>-66.1057</longitude>
  </object>
  <object>
    <country_code>PR</country_code>
    <zipcode>00937</zipcode>
    <place>San Juan</place>
    <state>San Juan</state>
    <state_code>127</state_code>
    <province></province>
    <province_code></province_code>
    <community></community>
    <community_code></community_code>
    <latitude>18.4663</latitude>
    <longitude>-66.1057</longitude>
  </object>
  <object>
    <country_code>PR</country_code>
    <zipcode>00938</zipcode>
    <place>San Juan</place>
    <state>San Juan</state>
    <state_code>127</state_code>
    <province></province>
    <province_code></province_code>
    <community></community>
    <community_code></community_code>
    <latitude>18.4663</latitude>
    <longitude>-66.1057</longitude>
  </object>
  <object>
    <country_code>PR</country_code>
    <zipcode>00939</zipcode>
    <place>San Juan</place>
    <state>San Juan</state>
    <state_code>127</state_code>
    <province></province>
    <province_code></province_code>
    <community></community>
    <community_code></community_code>
    <latitude>18.4663</latitude>
    <longitude>-66.1057</longitude>
  </object>
  <object>
    <country_code>PR</country_code>
    <zipcode>00940</zipcode>
    <place>San Juan</place>
    <state>San Juan</state>
    <state_code>127</state_code>
    <province></province>
    <province_code></province_code>
    <community></community>
    <community_code></community_code>
    <latitude>18.4663</latitude>
    <longitude>-66.1057</longitude>
  </object>
  <object>
    <country_code>PR</country_code>
    <zipcode>00955</zipcode>
    <place>San Juan</place>
    <state>San Juan</state>
    <state_code>127</state_code>
    <province></province>
    <province_code></province_code>
    <community></community>
    <community_code></community_code>
    <latitude>18.4663</latitude>
    <longitude>-66.1057</longitude>
  </object>
  <object>
    <country_code>PR</country_code>
    <zipcode>00968</zipcode>
    <place>Guaynabo</place>
    <state>San Juan</state>
    <state_code>127</state_code>
    <province></province>
    <province_code></province_code>
    <community></community>
    <community_code></community_code>
    <latitude>18.3575</latitude>
    <longitude>-66.111</longitude>
  </object>
  <object>
    <country_code>PR</country_code>
    <zipcode>00975</zipcode>
    <place>San Juan</place>
    <state>San Juan</state>
    <state_code>127</state_code>
    <province></province>
    <province_code></province_code>
    <community></community>
    <community_code></community_code>
    <latitude>18.4663</latitude>
    <longitude>-66.1057</longitude>
  </object>
  <object>
    <country_code>PR</country_code>
    <zipcode>00979</zipcode>
    <place>Carolina</place>
    <state>San Juan</state>
    <state_code>127</state_code>
    <province></province>
    <province_code></province_code>
    <community></community>
    <community_code></community_code>
    <latitude>18.3808</latitude>
    <longitude>-65.9574</longitude>
  </object>
  <object>
    <country_code>PR</country_code>
    <zipcode>00981</zipcode>
    <place>Carolina</place>
    <state>San Juan</state>
    <state_code>127</state_code>
    <province></province>
    <province_code></province_code>
    <community></community>
    <community_code></community_code>
    <latitude>18.3808</latitude>
    <longitude>-65.9574</longitude>
  </object>
  <object>
    <country_code>PR</country_code>
    <zipcode>00982</zipcode>
    <place>Carolina</place>
    <state>San Juan</state>
    <state_code>127</state_code>
    <province></province>
    <province_code></province_code>
    <community></community>
    <community_code></community_code>
    <latitude>18.3808</latitude>
    <longitude>-65.9574</longitude>
  </object>
  <object>
    <country_code>PR</country_code>
    <zipcode>00754</zipcode>
    <place>San Lorenzo</place>
    <state>San Lorenzo</state>
    <state_code>129</state_code>
    <province></province>
    <province_code></province_code>
    <community></community>
    <community_code></community_code>
    <latitude>18.1894</latitude>
    <longitude>-65.961</longitude>
  </object>
  <object>
    <country_code>PR</country_code>
    <zipcode>00685</zipcode>
    <place>San Sebastian</place>
    <state>San Sebastian</state>
    <state_code>131</state_code>
    <province></province>
    <province_code></province_code>
    <community></community>
    <community_code></community_code>
    <latitude>18.3366</latitude>
    <longitude>-66.9902</longitude>
  </object>
  <object>
    <country_code>PR</country_code>
    <zipcode>00757</zipcode>
    <place>Santa Isabel</place>
    <state>Santa Isabel</state>
    <state_code>133</state_code>
    <province></province>
    <province_code></province_code>
    <community></community>
    <community_code></community_code>
    <latitude>17.9661</latitude>
    <longitude>-66.4049</longitude>
  </object>
  <object>
    <country_code>PR</country_code>
    <zipcode>00953</zipcode>
    <place>Toa Alta</place>
    <state>Toa Alta</state>
    <state_code>135</state_code>
    <province></province>
    <province_code></province_code>
    <community></community>
    <community_code></community_code>
    <latitude>18.3883</latitude>
    <longitude>-66.2482</longitude>
  </object>
  <object>
    <country_code>PR</country_code>
    <zipcode>00954</zipcode>
    <place>Toa Alta</place>
    <state>Toa Alta</state>
    <state_code>135</state_code>
    <province></province>
    <province_code></province_code>
    <community></community>
    <community_code></community_code>
    <latitude>18.3883</latitude>
    <longitude>-66.2482</longitude>
  </object>
  <object>
    <country_code>PR</country_code>
    <zipcode>00949</zipcode>
    <place>Toa Baja</place>
    <state>Toa Baja</state>
    <state_code>137</state_code>
    <province></province>
    <province_code></province_code>
    <community></community>
    <community_code></community_code>
    <latitude>18.4438</latitude>
    <longitude>-66.2596</longitude>
  </object>
  <object>
    <country_code>PR</country_code>
    <zipcode>00950</zipcode>
    <place>Toa Baja</place>
    <state>Toa Baja</state>
    <state_code>137</state_code>
    <province></province>
    <province_code></province_code>
    <community></community>
    <community_code></community_code>
    <latitude>18.4438</latitude>
    <longitude>-66.2596</longitude>
  </object>
  <object>
    <country_code>PR</country_code>
    <zipcode>00951</zipcode>
    <place>Toa Baja</place>
    <state>Toa Baja</state>
    <state_code>137</state_code>
    <province></province>
    <province_code></province_code>
    <community></community>
    <community_code></community_code>
    <latitude>18.4438</latitude>
    <longitude>-66.2596</longitude>
  </object>
  <object>
    <country_code>PR</country_code>
    <zipcode>00952</zipcode>
    <place>Sabana Seca</place>
    <state>Toa Baja</state>
    <state_code>137</state_code>
    <province></province>
    <province_code></province_code>
    <community></community>
    <community_code></community_code>
    <latitude>18.4269</latitude>
    <longitude>-66.1846</longitude>
  </object>
  <object>
    <country_code>PR</country_code>
    <zipcode>00976</zipcode>
    <place>Trujillo Alto</place>
    <state>Trujillo Alto</state>
    <state_code>139</state_code>
    <province></province>
    <province_code></province_code>
    <community></community>
    <community_code></community_code>
    <latitude>18.3547</latitude>
    <longitude>-66.0074</longitude>
  </object>
  <object>
    <country_code>PR</country_code>
    <zipcode>00977</zipcode>
    <place>Trujillo Alto</place>
    <state>Trujillo Alto</state>
    <state_code>139</state_code>
    <province></province>
    <province_code></province_code>
    <community></community>
    <community_code></community_code>
    <latitude>18.3547</latitude>
    <longitude>-66.0074</longitude>
  </object>
  <object>
    <country_code>PR</country_code>
    <zipcode>00978</zipcode>
    <place>St Just</place>
    <state>Trujillo Alto</state>
    <state_code>139</state_code>
    <province></province>
    <province_code></province_code>
    <community></community>
    <community_code></community_code>
    <latitude>18.3786</latitude>
    <longitude>-66.05</longitude>
  </object>
  <object>
    <country_code>PR</country_code>
    <zipcode>00611</zipcode>
    <place>Angeles</place>
    <state>Utuado</state>
    <state_code>141</state_code>
    <province></province>
    <province_code></province_code>
    <community></community>
    <community_code></community_code>
    <latitude>18.285</latitude>
    <longitude>-66.7993</longitude>
  </object>
  <object>
    <country_code>PR</country_code>
    <zipcode>00641</zipcode>
    <place>Utuado</place>
    <state>Utuado</state>
    <state_code>141</state_code>
    <province></province>
    <province_code></province_code>
    <community></community>
    <community_code></community_code>
    <latitude>18.2655</latitude>
    <longitude>-66.7005</longitude>
  </object>
  <object>
    <country_code>PR</country_code>
    <zipcode>00692</zipcode>
    <place>Vega Alta</place>
    <state>Vega Alta</state>
    <state_code>143</state_code>
    <province></province>
    <province_code></province_code>
    <community></community>
    <community_code></community_code>
    <latitude>18.4122</latitude>
    <longitude>-66.3313</longitude>
  </object>
  <object>
    <country_code>PR</country_code>
    <zipcode>00693</zipcode>
    <place>Vega Baja</place>
    <state>Vega Baja</state>
    <state_code>145</state_code>
    <province></province>
    <province_code></province_code>
    <community></community>
    <community_code></community_code>
    <latitude>18.4444</latitude>
    <longitude>-66.3877</longitude>
  </object>
  <object>
    <country_code>PR</country_code>
    <zipcode>00694</zipcode>
    <place>Vega Baja</place>
    <state>Vega Baja</state>
    <state_code>145</state_code>
    <province></province>
    <province_code></province_code>
    <community></community>
    <community_code></community_code>
    <latitude>18.4444</latitude>
    <longitude>-66.3877</longitude>
  </object>
  <object>
    <country_code>PR</country_code>
    <zipcode>00765</zipcode>
    <place>Vieques</place>
    <state>Vieques</state>
    <state_code>147</state_code>
    <province></province>
    <province_code></province_code>
    <community></community>
    <community_code></community_code>
    <latitude>18.0859</latitude>
    <longitude>-66.2431</longitude>
  </object>
  <object>
    <country_code>PR</country_code>
    <zipcode>00766</zipcode>
    <place>Villalba</place>
    <state>Villalba</state>
    <state_code>149</state_code>
    <province></province>
    <province_code></province_code>
    <community></community>
    <community_code></community_code>
    <latitude>18.1272</latitude>
    <longitude>-66.4921</longitude>
  </object>
  <object>
    <country_code>PR</country_code>
    <zipcode>00767</zipcode>
    <place>Yabucoa</place>
    <state>Yabucoa</state>
    <state_code>151</state_code>
    <province></province>
    <province_code></province_code>
    <community></community>
    <community_code></community_code>
    <latitude>18.0505</latitude>
    <longitude>-65.8793</longitude>
  </object>
  <object>
    <country_code>PR</country_code>
    <zipcode>00698</zipcode>
    <place>Yauco</place>
    <state>Yauco</state>
    <state_code>153</state_code>
    <province></province>
    <province_code></province_code>
    <community></community>
    <community_code></community_code>
    <latitude>18.035</latitude>
    <longitude>-66.8499</longitude>
  </object>
</zipcodes>
<to_s/>
