[
  {
    "country_code": "CY",
    "zipcode": "5280",
    "place": "Paralimni",
    "state": "Ammochostos",
    "state_code": "01",
    "province": "",
    "province_code": "",
    "community": "",
    "community_code": "",
    "latitude": "35.0395",
    "longitude": "33.9818"
  },
  {
    "country_code": "CY",
    "zipcode": "5281",
    "place": "Paralimni",
    "state": "Ammochostos",
    "state_code": "01",
    "province": "",
    "province_code": "",
    "community": "",
    "community_code": "",
    "latitude": "35.0395",
    "longitude": "33.9818"
  },
  {
    "country_code": "CY",
    "zipcode": "5282",
    "place": "Paralimni",
    "state": "Ammochostos",
    "state_code": "01",
    "province": "",
    "province_code": "",
    "community": "",
    "community_code": "",
    "latitude": "35.0395",
    "longitude": "33.9818"
  },
  {
    "country_code": "CY",
    "zipcode": "5283",
    "place": "Paralimni",
    "state": "Ammochostos",
    "state_code": "01",
    "province": "",
    "province_code": "",
    "community": "",
    "community_code": "",
    "latitude": "35.0395",
    "longitude": "33.9818"
  },
  {
    "country_code": "CY",
    "zipcode": "5284",
    "place": "Paralimni",
    "state": "Ammochostos",
    "state_code": "01",
    "province": "",
    "province_code": "",
    "community": "",
    "community_code": "",
    "latitude": "35.0395",
    "longitude": "33.9818"
  },
  {
    "country_code": "CY",
    "zipcode": "5285",
    "place": "Paralimni",
    "state": "Ammochostos",
    "state_code": "01",
    "province": "",
    "province_code": "",
    "community": "",
    "community_code": "",
    "latitude": "35.0395",
    "longitude": "33.9818"
  },
  {
    "country_code": "CY",
    "zipcode": "5286",
    "place": "Paralimni",
    "state": "Ammochostos",
    "state_code": "01",
    "province": "",
    "province_code": "",
    "community": "",
    "community_code": "",
    "latitude": "35.0395",
    "longitude": "33.9818"
  },
  {
    "country_code": "CY",
    "zipcode": "5288",
    "place": "Paralimni",
    "state": "Ammochostos",
    "state_code": "01",
    "province": "",
    "province_code": "",
    "community": "",
    "community_code": "",
    "latitude": "35.0395",
    "longitude": "33.9818"
  },
  {
    "country_code": "CY",
    "zipcode": "5289",
    "place": "Paralimni",
    "state": "Ammochostos",
    "state_code": "01",
    "province": "",
    "province_code": "",
    "community": "",
    "community_code": "",
    "latitude": "35.0395",
    "longitude": "33.9818"
  },
  {
    "country_code": "CY",
    "zipcode": "5290",
    "place": "Paralimni",
    "state": "Ammochostos",
    "state_code": "01",
    "province": "",
    "province_code": "",
    "community": "",
    "community_code": "",
    "latitude": "35.0395",
    "longitude": "33.9818"
  },
  {
    "country_code": "CY",
    "zipcode": "5291",
    "place": "Paralimni",
    "state": "Ammochostos",
    "state_code": "01",
    "province": "",
    "province_code": "",
    "community": "",
    "community_code": "",
    "latitude": "35.0395",
    "longitude": "33.9818"
  },
  {
    "country_code": "CY",
    "zipcode": "5292",
    "place": "Paralimni",
    "state": "Ammochostos",
    "state_code": "01",
    "province": "",
    "province_code": "",
    "community": "",
    "community_code": "",
    "latitude": "35.0395",
    "longitude": "33.9818"
  },
  {
    "country_code": "CY",
    "zipcode": "5295",
    "place": "Paralimni",
    "state": "Ammochostos",
    "state_code": "01",
    "province": "",
    "province_code": "",
    "community": "",
    "community_code": "",
    "latitude": "35.0395",
    "longitude": "33.9818"
  },
  {
    "country_code": "CY",
    "zipcode": "5296",
    "place": "Paralimni",
    "state": "Ammochostos",
    "state_code": "01",
    "province": "",
    "province_code": "",
    "community": "",
    "community_code": "",
    "latitude": "35.0395",
    "longitude": "33.9818"
  },
  {
    "country_code": "CY",
    "zipcode": "5297",
    "place": "Paralimni",
    "state": "Ammochostos",
    "state_code": "01",
    "province": "",
    "province_code": "",
    "community": "",
    "community_code": "",
    "latitude": "35.0395",
    "longitude": "33.9818"
  },
  {
    "country_code": "CY",
    "zipcode": "5320",
    "place": "Liopetri",
    "state": "Ammochostos",
    "state_code": "01",
    "province": "",
    "province_code": "",
    "community": "",
    "community_code": "",
    "latitude": "35.0088",
    "longitude": "33.8926"
  },
  {
    "country_code": "CY",
    "zipcode": "5330",
    "place": "Agia Napa",
    "state": "Ammochostos",
    "state_code": "01",
    "province": "",
    "province_code": "",
    "community": "",
    "community_code": "",
    "latitude": "34.9821",
    "longitude": "34.0018"
  },
  {
    "country_code": "CY",
    "zipcode": "5350",
    "place": "Frenaros",
    "state": "Ammochostos",
    "state_code": "01",
    "province": "",
    "province_code": "",
    "community": "",
    "community_code": "",
    "latitude": "35.0412",
    "longitude": "33.9224"
  },
  {
    "country_code": "CY",
    "zipcode": "5370",
    "place": "Kato Deryneia",
    "state": "Ammochostos",
    "state_code": "01",
    "province": "",
    "province_code": "",
    "community": "",
    "community_code": "",
    "latitude": "35.0246",
    "longitude": "33.9459"
  },
  {
    "country_code": "CY",
    "zipcode": "5380",
    "place": "Deryneia",
    "state": "Ammochostos",
    "state_code": "01",
    "province": "",
    "province_code": "",
    "community": "",
    "community_code": "",
    "latitude": "35.0648",
    "longitude": "33.9608"
  },
  {
    "country_code": "CY",
    "zipcode": "5390",
    "place": "Sotira Ammochostou",
    "state": "Ammochostos",
    "state_code": "01",
    "province": "",
    "province_code": "",
    "community": "",
    "community_code": "",
    "latitude": "35.0262",
    "longitude": "33.9518"
  },
  {
    "country_code": "CY",
    "zipcode": "5391",
    "place": "Agia Thekla",
    "state": "Ammochostos",
    "state_code": "01",
    "province": "",
    "province_code": "",
    "community": "",
    "community_code": "",
    "latitude": "35.0262",
    "longitude": "33.9518"
  },
  {
    "country_code": "CY",
    "zipcode": "5500",
    "place": "Achna",
    "state": "Ammochostos",
    "state_code": "01",
    "province": "",
    "province_code": "",
    "community": "",
    "community_code": "",
    "latitude": "35.0552",
    "longitude": "33.7839"
  },
  {
    "country_code": "CY",
    "zipcode": "5510",
    "place": "Avgorou",
    "state": "Ammochostos",
    "state_code": "01",
    "province": "",
    "province_code": "",
    "community": "",
    "community_code": "",
    "latitude": "35.0362",
    "longitude": "33.8392"
  },
  {
    "country_code": "CY",
    "zipcode": "5520",
    "place": "Agios Georgios Acheritou",
    "state": "Ammochostos",
    "state_code": "01",
    "province": "",
    "province_code": "",
    "community": "",
    "community_code": "",
    "latitude": "35.1002",
    "longitude": "33.8615"
  },
  {
    "country_code": "CY",
    "zipcode": "5521",
    "place": "Acheritou",
    "state": "Ammochostos",
    "state_code": "01",
    "province": "",
    "province_code": "",
    "community": "",
    "community_code": "",
    "latitude": "35.1002",
    "longitude": "33.8615"
  },
  {
    "country_code": "CY",
    "zipcode": "5522",
    "place": "Vrysoules",
    "state": "Ammochostos",
    "state_code": "01",
    "province": "",
    "province_code": "",
    "community": "",
    "community_code": "",
    "latitude": "35.1002",
    "longitude": "33.8615"
  },
  {
    "country_code": "CY",
    "zipcode": "5523",
    "place": "Dasaki Achnas",
    "state": "Ammochostos",
    "state_code": "01",
    "province": "",
    "province_code": "",
    "community": "",
    "community_code": "",
    "latitude": "35.1002",
    "longitude": "33.8615"
  },
  {
    "country_code": "CY",
    "zipcode": "5524",
    "place": "Moni Agiou Kendeou",
    "state": "Ammochostos",
    "state_code": "01",
    "province": "",
    "province_code": "",
    "community": "",
    "community_code": "",
    "latitude": "35.1002",
    "longitude": "33.8615"
  },
  {
    "country_code": "CY",
    "zipcode": "5525",
    "place": "Strovili",
    "state": "Ammochostos",
    "state_code": "01",
    "province": "",
    "province_code": "",
    "community": "",
    "community_code": "",
    "latitude": "35.1002",
    "longitude": "33.8615"
  },
  {
    "country_code": "CY",
    "zipcode": "5540",
    "place": "Lysi",
    "state": "Ammochostos",
    "state_code": "01",
    "province": "",
    "province_code": "",
    "community": "",
    "community_code": "",
    "latitude": "35.1047",
    "longitude": "33.681"
  },
  {
    "country_code": "CY",
    "zipcode": "5560",
    "place": "Afanteia - Ornithi",
    "state": "Ammochostos",
    "state_code": "01",
    "province": "",
    "province_code": "",
    "community": "",
    "community_code": "",
    "latitude": "35.1198",
    "longitude": "33.717"
  },
  {
    "country_code": "CY",
    "zipcode": "5561",
    "place": "Asseia (Askeia)",
    "state": "Ammochostos",
    "state_code": "01",
    "province": "",
    "province_code": "",
    "community": "",
    "community_code": "",
    "latitude": "35.1198",
    "longitude": "33.717"
  },
  {
    "country_code": "CY",
    "zipcode": "5562",
    "place": "Vatili",
    "state": "Ammochostos",
    "state_code": "01",
    "province": "",
    "province_code": "",
    "community": "",
    "community_code": "",
    "latitude": "35.1334",
    "longitude": "33.6556"
  },
  {
    "country_code": "CY",
    "zipcode": "5563",
    "place": "Kalopsida",
    "state": "Ammochostos",
    "state_code": "01",
    "province": "",
    "province_code": "",
    "community": "",
    "community_code": "",
    "latitude": "35.0964",
    "longitude": "33.794"
  },
  {
    "country_code": "CY",
    "zipcode": "5564",
    "place": "Kontea",
    "state": "Ammochostos",
    "state_code": "01",
    "province": "",
    "province_code": "",
    "community": "",
    "community_code": "",
    "latitude": "35.1027",
    "longitude": "33.7158"
  },
  {
    "country_code": "CY",
    "zipcode": "5565",
    "place": "Kouklia Ammochostou",
    "state": "Ammochostos",
    "state_code": "01",
    "province": "",
    "province_code": "",
    "community": "",
    "community_code": "",
    "latitude": "35.1085",
    "longitude": "33.7507"
  },
  {
    "country_code": "CY",
    "zipcode": "5566",
    "place": "Makrasyka",
    "state": "Ammochostos",
    "state_code": "01",
    "province": "",
    "province_code": "",
    "community": "",
    "community_code": "",
    "latitude": "35.074",
    "longitude": "33.7622"
  },
  {
    "country_code": "CY",
    "zipcode": "5567",
    "place": "Sinta",
    "state": "Ammochostos",
    "state_code": "01",
    "province": "",
    "province_code": "",
    "community": "",
    "community_code": "",
    "latitude": "35.1571",
    "longitude": "33.7011"
  },
  {
    "country_code": "CY",
    "zipcode": "5568",
    "place": "Strongylos",
    "state": "Ammochostos",
    "state_code": "01",
    "province": "",
    "province_code": "",
    "community": "",
    "community_code": "",
    "latitude": "35.1664",
    "longitude": "33.6392"
  },
  {
    "country_code": "CY",
    "zipcode": "5600",
    "place": "Lefkonoiko",
    "state": "Ammochostos",
    "state_code": "01",
    "province": "",
    "province_code": "",
    "community": "",
    "community_code": "",
    "latitude": "35.2598",
    "longitude": "33.7319"
  },
  {
    "country_code": "CY",
    "zipcode": "5620",
    "place": "Agios Nikolaos Ammochostou",
    "state": "Ammochostos",
    "state_code": "01",
    "province": "",
    "province_code": "",
    "community": "",
    "community_code": "",
    "latitude": "35.2305",
    "longitude": "33.8005"
  },
  {
    "country_code": "CY",
    "zipcode": "5621",
    "place": "Agios Sergios",
    "state": "Ammochostos",
    "state_code": "01",
    "province": "",
    "province_code": "",
    "community": "",
    "community_code": "",
    "latitude": "35.1964",
    "longitude": "33.8742"
  },
  {
    "country_code": "CY",
    "zipcode": "5622",
    "place": "Artemi",
    "state": "Ammochostos",
    "state_code": "01",
    "province": "",
    "province_code": "",
    "community": "",
    "community_code": "",
    "latitude": "35.3206",
    "longitude": "33.7105"
  },
  {
    "country_code": "CY",
    "zipcode": "5623",
    "place": "Aloda",
    "state": "Ammochostos",
    "state_code": "01",
    "province": "",
    "province_code": "",
    "community": "",
    "community_code": "",
    "latitude": "35.2107",
    "longitude": "33.8266"
  },
  {
    "country_code": "CY",
    "zipcode": "5624",
    "place": "Gaidouras (Nea Sparti)",
    "state": "Ammochostos",
    "state_code": "01",
    "province": "",
    "province_code": "",
    "community": "",
    "community_code": "",
    "latitude": "35.2305",
    "longitude": "33.8005"
  },
  {
    "country_code": "CY",
    "zipcode": "5625",
    "place": "Goufes",
    "state": "Ammochostos",
    "state_code": "01",
    "province": "",
    "province_code": "",
    "community": "",
    "community_code": "",
    "latitude": "35.2826",
    "longitude": "33.6878"
  },
  {
    "country_code": "CY",
    "zipcode": "5626",
    "place": "Gypsou",
    "state": "Ammochostos",
    "state_code": "01",
    "province": "",
    "province_code": "",
    "community": "",
    "community_code": "",
    "latitude": "35.2598",
    "longitude": "33.7863"
  },
  {
    "country_code": "CY",
    "zipcode": "5627",
    "place": "Egkomi Ammochostou",
    "state": "Ammochostos",
    "state_code": "01",
    "province": "",
    "province_code": "",
    "community": "",
    "community_code": "",
    "latitude": "35.1627",
    "longitude": "33.8832"
  },
  {
    "country_code": "CY",
    "zipcode": "5628",
    "place": "Limnia",
    "state": "Ammochostos",
    "state_code": "01",
    "province": "",
    "province_code": "",
    "community": "",
    "community_code": "",
    "latitude": "35.1996",
    "longitude": "33.8586"
  },
  {
    "country_code": "CY",
    "zipcode": "5629",
    "place": "Maratha",
    "state": "Ammochostos",
    "state_code": "01",
    "province": "",
    "province_code": "",
    "community": "",
    "community_code": "",
    "latitude": "35.2118",
    "longitude": "33.7769"
  },
  {
    "country_code": "CY",
    "zipcode": "5630",
    "place": "Melounta",
    "state": "Ammochostos",
    "state_code": "01",
    "province": "",
    "province_code": "",
    "community": "",
    "community_code": "",
    "latitude": "35.3326",
    "longitude": "33.6893"
  },
  {
    "country_code": "CY",
    "zipcode": "5631",
    "place": "Milia Ammochostou",
    "state": "Ammochostos",
    "state_code": "01",
    "province": "",
    "province_code": "",
    "community": "",
    "community_code": "",
    "latitude": "35.2401",
    "longitude": "33.7802"
  },
  {
    "country_code": "CY",
    "zipcode": "5632",
    "place": "Moni Apostolou Varnava",
    "state": "Ammochostos",
    "state_code": "01",
    "province": "",
    "province_code": "",
    "community": "",
    "community_code": "",
    "latitude": "35.225",
    "longitude": "33.7689"
  },
  {
    "country_code": "CY",
    "zipcode": "5633",
    "place": "Peristerona Ammochostou",
    "state": "Ammochostos",
    "state_code": "01",
    "province": "",
    "province_code": "",
    "community": "",
    "community_code": "",
    "latitude": "35.2178",
    "longitude": "33.761"
  },
  {
    "country_code": "CY",
    "zipcode": "5634",
    "place": "Pigi",
    "state": "Ammochostos",
    "state_code": "01",
    "province": "",
    "province_code": "",
    "community": "",
    "community_code": "",
    "latitude": "35.2267",
    "longitude": "33.7596"
  },
  {
    "country_code": "CY",
    "zipcode": "5635",
    "place": "Prastio Ammochostou",
    "state": "Ammochostos",
    "state_code": "01",
    "province": "",
    "province_code": "",
    "community": "",
    "community_code": "",
    "latitude": "35.1754",
    "longitude": "33.7577"
  },
  {
    "country_code": "CY",
    "zipcode": "5636",
    "place": "Salamina",
    "state": "Ammochostos",
    "state_code": "01",
    "province": "",
    "province_code": "",
    "community": "",
    "community_code": "",
    "latitude": "35.225",
    "longitude": "33.7689"
  },
  {
    "country_code": "CY",
    "zipcode": "5637",
    "place": "Santalaris",
    "state": "Ammochostos",
    "state_code": "01",
    "province": "",
    "province_code": "",
    "community": "",
    "community_code": "",
    "latitude": "35.2104",
    "longitude": "33.8007"
  },
  {
    "country_code": "CY",
    "zipcode": "5638",
    "place": "Stylloi",
    "state": "Ammochostos",
    "state_code": "01",
    "province": "",
    "province_code": "",
    "community": "",
    "community_code": "",
    "latitude": "35.1721",
    "longitude": "33.8337"
  },
  {
    "country_code": "CY",
    "zipcode": "5650",
    "place": "Marathovounos",
    "state": "Ammochostos",
    "state_code": "01",
    "province": "",
    "province_code": "",
    "community": "",
    "community_code": "",
    "latitude": "35.2229",
    "longitude": "33.6178"
  },
  {
    "country_code": "CY",
    "zipcode": "5651",
    "place": "Agios Chariton",
    "state": "Ammochostos",
    "state_code": "01",
    "province": "",
    "province_code": "",
    "community": "",
    "community_code": "",
    "latitude": "35.3053",
    "longitude": "33.6046"
  },
  {
    "country_code": "CY",
    "zipcode": "5652",
    "place": "Angastina",
    "state": "Ammochostos",
    "state_code": "01",
    "province": "",
    "province_code": "",
    "community": "",
    "community_code": "",
    "latitude": "35.2033",
    "longitude": "33.5878"
  },
  {
    "country_code": "CY",
    "zipcode": "5653",
    "place": "Vitsada",
    "state": "Ammochostos",
    "state_code": "01",
    "province": "",
    "province_code": "",
    "community": "",
    "community_code": "",
    "latitude": "35.2443",
    "longitude": "33.6466"
  },
  {
    "country_code": "CY",
    "zipcode": "5654",
    "place": "Kiados",
    "state": "Ammochostos",
    "state_code": "01",
    "province": "",
    "province_code": "",
    "community": "",
    "community_code": "",
    "latitude": "35.2547",
    "longitude": "33.6012"
  },
  {
    "country_code": "CY",
    "zipcode": "5655",
    "place": "Genagra",
    "state": "Ammochostos",
    "state_code": "01",
    "province": "",
    "province_code": "",
    "community": "",
    "community_code": "",
    "latitude": "35.2174",
    "longitude": "33.6981"
  },
  {
    "country_code": "CY",
    "zipcode": "5656",
    "place": "Knodara",
    "state": "Ammochostos",
    "state_code": "01",
    "province": "",
    "province_code": "",
    "community": "",
    "community_code": "",
    "latitude": "35.2648",
    "longitude": "33.6604"
  },
  {
    "country_code": "CY",
    "zipcode": "5657",
    "place": "Kornokipos",
    "state": "Ammochostos",
    "state_code": "01",
    "province": "",
    "province_code": "",
    "community": "",
    "community_code": "",
    "latitude": "35.2828",
    "longitude": "33.573"
  },
  {
    "country_code": "CY",
    "zipcode": "5658",
    "place": "Mousoulita",
    "state": "Ammochostos",
    "state_code": "01",
    "province": "",
    "province_code": "",
    "community": "",
    "community_code": "",
    "latitude": "35.193",
    "longitude": "33.6406"
  },
  {
    "country_code": "CY",
    "zipcode": "5659",
    "place": "Pyrga Ammochostou",
    "state": "Ammochostos",
    "state_code": "01",
    "province": "",
    "province_code": "",
    "community": "",
    "community_code": "",
    "latitude": "35.1827",
    "longitude": "33.7267"
  },
  {
    "country_code": "CY",
    "zipcode": "5660",
    "place": "Trypimeni",
    "state": "Ammochostos",
    "state_code": "01",
    "province": "",
    "province_code": "",
    "community": "",
    "community_code": "",
    "latitude": "35.31",
    "longitude": "33.6336"
  },
  {
    "country_code": "CY",
    "zipcode": "5661",
    "place": "Psyllatos",
    "state": "Ammochostos",
    "state_code": "01",
    "province": "",
    "province_code": "",
    "community": "",
    "community_code": "",
    "latitude": "35.2538",
    "longitude": "33.6873"
  },
  {
    "country_code": "CY",
    "zipcode": "5700",
    "place": "Trikomo",
    "state": "Ammochostos",
    "state_code": "01",
    "province": "",
    "province_code": "",
    "community": "",
    "community_code": "",
    "latitude": "35.2863",
    "longitude": "33.8917"
  },
  {
    "country_code": "CY",
    "zipcode": "5720",
    "place": "Agios Georgios Ammochostou",
    "state": "Ammochostos",
    "state_code": "01",
    "province": "",
    "province_code": "",
    "community": "",
    "community_code": "",
    "latitude": "35.3408",
    "longitude": "33.9686"
  },
  {
    "country_code": "CY",
    "zipcode": "5721",
    "place": "Agios Efstathios",
    "state": "Ammochostos",
    "state_code": "01",
    "province": "",
    "province_code": "",
    "community": "",
    "community_code": "",
    "latitude": "35.3893",
    "longitude": "34.0147"
  },
  {
    "country_code": "CY",
    "zipcode": "5722",
    "place": "Agios Ilias",
    "state": "Ammochostos",
    "state_code": "01",
    "province": "",
    "province_code": "",
    "community": "",
    "community_code": "",
    "latitude": "35.3288",
    "longitude": "33.9282"
  },
  {
    "country_code": "CY",
    "zipcode": "5723",
    "place": "Agios Theodoros Ammochostou",
    "state": "Ammochostos",
    "state_code": "01",
    "province": "",
    "province_code": "",
    "community": "",
    "community_code": "",
    "latitude": "35.366",
    "longitude": "34.0288"
  },
  {
    "country_code": "CY",
    "zipcode": "5724",
    "place": "Arnadi",
    "state": "Ammochostos",
    "state_code": "01",
    "province": "",
    "province_code": "",
    "community": "",
    "community_code": "",
    "latitude": "35.2366",
    "longitude": "33.8605"
  },
  {
    "country_code": "CY",
    "zipcode": "5725",
    "place": "Avgolida",
    "state": "Ammochostos",
    "state_code": "01",
    "province": "",
    "province_code": "",
    "community": "",
    "community_code": "",
    "latitude": "35.3548",
    "longitude": "33.9627"
  },
  {
    "country_code": "CY",
    "zipcode": "5726",
    "place": "Vokolida",
    "state": "Ammochostos",
    "state_code": "01",
    "province": "",
    "province_code": "",
    "community": "",
    "community_code": "",
    "latitude": "35.3796",
    "longitude": "34.0714"
  },
  {
    "country_code": "CY",
    "zipcode": "5727",
    "place": "Gastria",
    "state": "Ammochostos",
    "state_code": "01",
    "province": "",
    "province_code": "",
    "community": "",
    "community_code": "",
    "latitude": "35.3427",
    "longitude": "33.9999"
  },
  {
    "country_code": "CY",
    "zipcode": "5728",
    "place": "Lapathos",
    "state": "Ammochostos",
    "state_code": "01",
    "province": "",
    "province_code": "",
    "community": "",
    "community_code": "",
    "latitude": "35.27",
    "longitude": "33.8259"
  },
  {
    "country_code": "CY",
    "zipcode": "5729",
    "place": "Livadia Ammochostou",
    "state": "Ammochostos",
    "state_code": "01",
    "province": "",
    "province_code": "",
    "community": "",
    "community_code": "",
    "latitude": "35.3988",
    "longitude": "34.0255"
  },
  {
    "country_code": "CY",
    "zipcode": "5730",
    "place": "Monarga",
    "state": "Ammochostos",
    "state_code": "01",
    "province": "",
    "province_code": "",
    "community": "",
    "community_code": "",
    "latitude": "35.3135",
    "longitude": "33.9476"
  },
  {
    "country_code": "CY",
    "zipcode": "5731",
    "place": "Bogazi",
    "state": "Ammochostos",
    "state_code": "01",
    "province": "",
    "province_code": "",
    "community": "",
    "community_code": "",
    "latitude": "35.3136",
    "longitude": "33.9525"
  },
  {
    "country_code": "CY",
    "zipcode": "5732",
    "place": "Patriki",
    "state": "Ammochostos",
    "state_code": "01",
    "province": "",
    "province_code": "",
    "community": "",
    "community_code": "",
    "latitude": "35.3632",
    "longitude": "33.9965"
  },
  {
    "country_code": "CY",
    "zipcode": "5733",
    "place": "Perivolia Trikomou",
    "state": "Ammochostos",
    "state_code": "01",
    "province": "",
    "province_code": "",
    "community": "",
    "community_code": "",
    "latitude": "35.2862",
    "longitude": "33.9101"
  },
  {
    "country_code": "CY",
    "zipcode": "5734",
    "place": "Spathariko",
    "state": "Ammochostos",
    "state_code": "01",
    "province": "",
    "province_code": "",
    "community": "",
    "community_code": "",
    "latitude": "35.2365",
    "longitude": "33.8718"
  },
  {
    "country_code": "CY",
    "zipcode": "5735",
    "place": "Sygkrasi",
    "state": "Ammochostos",
    "state_code": "01",
    "province": "",
    "province_code": "",
    "community": "",
    "community_code": "",
    "latitude": "35.2729",
    "longitude": "33.8523"
  },
  {
    "country_code": "CY",
    "zipcode": "5750",
    "place": "Akanthou",
    "state": "Ammochostos",
    "state_code": "01",
    "province": "",
    "province_code": "",
    "community": "",
    "community_code": "",
    "latitude": "35.3739",
    "longitude": "33.753"
  },
  {
    "country_code": "CY",
    "zipcode": "5761",
    "place": "Agios Andronikos Trikomou",
    "state": "Ammochostos",
    "state_code": "01",
    "province": "",
    "province_code": "",
    "community": "",
    "community_code": "",
    "latitude": "35.3702",
    "longitude": "33.8922"
  },
  {
    "country_code": "CY",
    "zipcode": "5762",
    "place": "Agios Iakovos",
    "state": "Ammochostos",
    "state_code": "01",
    "province": "",
    "province_code": "",
    "community": "",
    "community_code": "",
    "latitude": "35.327",
    "longitude": "33.8151"
  },
  {
    "country_code": "CY",
    "zipcode": "5763",
    "place": "Ardana",
    "state": "Ammochostos",
    "state_code": "01",
    "province": "",
    "province_code": "",
    "community": "",
    "community_code": "",
    "latitude": "35.3566",
    "longitude": "33.8859"
  },
  {
    "country_code": "CY",
    "zipcode": "5764",
    "place": "Gerani",
    "state": "Ammochostos",
    "state_code": "01",
    "province": "",
    "province_code": "",
    "community": "",
    "community_code": "",
    "latitude": "35.3592",
    "longitude": "33.9223"
  },
  {
    "country_code": "CY",
    "zipcode": "5765",
    "place": "Davlos",
    "state": "Ammochostos",
    "state_code": "01",
    "province": "",
    "province_code": "",
    "community": "",
    "community_code": "",
    "latitude": "35.4215",
    "longitude": "33.9052"
  },
  {
    "country_code": "CY",
    "zipcode": "5766",
    "place": "Kantara",
    "state": "Ammochostos",
    "state_code": "01",
    "province": "",
    "province_code": "",
    "community": "",
    "community_code": "",
    "latitude": "35.3885",
    "longitude": "33.8988"
  },
  {
    "country_code": "CY",
    "zipcode": "5767",
    "place": "Krideia",
    "state": "Ammochostos",
    "state_code": "01",
    "province": "",
    "province_code": "",
    "community": "",
    "community_code": "",
    "latitude": "35.3953",
    "longitude": "33.9729"
  },
  {
    "country_code": "CY",
    "zipcode": "5768",
    "place": "Mandres Ammochostou",
    "state": "Ammochostos",
    "state_code": "01",
    "province": "",
    "province_code": "",
    "community": "",
    "community_code": "",
    "latitude": "35.3471",
    "longitude": "33.7992"
  },
  {
    "country_code": "CY",
    "zipcode": "5769",
    "place": "Ovgoros",
    "state": "Ammochostos",
    "state_code": "01",
    "province": "",
    "province_code": "",
    "community": "",
    "community_code": "",
    "latitude": "35.3659",
    "longitude": "33.9384"
  },
  {
    "country_code": "CY",
    "zipcode": "5770",
    "place": "Platani",
    "state": "Ammochostos",
    "state_code": "01",
    "province": "",
    "province_code": "",
    "community": "",
    "community_code": "",
    "latitude": "35.333",
    "longitude": "33.7518"
  },
  {
    "country_code": "CY",
    "zipcode": "5771",
    "place": "Flamoudi",
    "state": "Ammochostos",
    "state_code": "01",
    "province": "",
    "province_code": "",
    "community": "",
    "community_code": "",
    "latitude": "35.3966",
    "longitude": "33.8571"
  },
  {
    "country_code": "CY",
    "zipcode": "5800",
    "place": "Aigialousa",
    "state": "Ammochostos",
    "state_code": "01",
    "province": "",
    "province_code": "",
    "community": "",
    "community_code": "",
    "latitude": "35.5351",
    "longitude": "34.1894"
  },
  {
    "country_code": "CY",
    "zipcode": "5820",
    "place": "Agios Andronikos Karpasias",
    "state": "Ammochostos",
    "state_code": "01",
    "province": "",
    "province_code": "",
    "community": "",
    "community_code": "",
    "latitude": "35.4571",
    "longitude": "34.1186"
  },
  {
    "country_code": "CY",
    "zipcode": "5821",
    "place": "Agios Symeon",
    "state": "Ammochostos",
    "state_code": "01",
    "province": "",
    "province_code": "",
    "community": "",
    "community_code": "",
    "latitude": "35.491",
    "longitude": "34.2185"
  },
  {
    "country_code": "CY",
    "zipcode": "5822",
    "place": "Vothylakas",
    "state": "Ammochostos",
    "state_code": "01",
    "province": "",
    "province_code": "",
    "community": "",
    "community_code": "",
    "latitude": "35.4834",
    "longitude": "34.1871"
  },
  {
    "country_code": "CY",
    "zipcode": "5823",
    "place": "Vasili",
    "state": "Ammochostos",
    "state_code": "01",
    "province": "",
    "province_code": "",
    "community": "",
    "community_code": "",
    "latitude": "35.4728",
    "longitude": "34.1506"
  },
  {
    "country_code": "CY",
    "zipcode": "5824",
    "place": "Eptakomi",
    "state": "Ammochostos",
    "state_code": "01",
    "province": "",
    "province_code": "",
    "community": "",
    "community_code": "",
    "latitude": "35.4465",
    "longitude": "34.0318"
  },
  {
    "country_code": "CY",
    "zipcode": "5825",
    "place": "Galateia",
    "state": "Ammochostos",
    "state_code": "01",
    "province": "",
    "province_code": "",
    "community": "",
    "community_code": "",
    "latitude": "35.4227",
    "longitude": "34.0713"
  },
  {
    "country_code": "CY",
    "zipcode": "5826",
    "place": "Koilanemos",
    "state": "Ammochostos",
    "state_code": "01",
    "province": "",
    "province_code": "",
    "community": "",
    "community_code": "",
    "latitude": "35.4908",
    "longitude": "34.142"
  },
  {
    "country_code": "CY",
    "zipcode": "5827",
    "place": "Koma Tou Gialou",
    "state": "Ammochostos",
    "state_code": "01",
    "province": "",
    "province_code": "",
    "community": "",
    "community_code": "",
    "latitude": "35.4275",
    "longitude": "34.131"
  },
  {
    "country_code": "CY",
    "zipcode": "5828",
    "place": "Komi",
    "state": "Ammochostos",
    "state_code": "01",
    "province": "",
    "province_code": "",
    "community": "",
    "community_code": "",
    "latitude": "35.4105",
    "longitude": "33.9962"
  },
  {
    "country_code": "CY",
    "zipcode": "5829",
    "place": "Leonarisso",
    "state": "Ammochostos",
    "state_code": "01",
    "province": "",
    "province_code": "",
    "community": "",
    "community_code": "",
    "latitude": "35.4689",
    "longitude": "34.1389"
  },
  {
    "country_code": "CY",
    "zipcode": "5830",
    "place": "Lythragkomi",
    "state": "Ammochostos",
    "state_code": "01",
    "province": "",
    "province_code": "",
    "community": "",
    "community_code": "",
    "latitude": "35.48",
    "longitude": "34.1714"
  },
  {
    "country_code": "CY",
    "zipcode": "5831",
    "place": "Melanarga",
    "state": "Ammochostos",
    "state_code": "01",
    "province": "",
    "province_code": "",
    "community": "",
    "community_code": "",
    "latitude": "35.5147",
    "longitude": "34.1968"
  },
  {
    "country_code": "CY",
    "zipcode": "5832",
    "place": "Neta",
    "state": "Ammochostos",
    "state_code": "01",
    "province": "",
    "province_code": "",
    "community": "",
    "community_code": "",
    "latitude": "35.4696",
    "longitude": "34.2146"
  },
  {
    "country_code": "CY",
    "zipcode": "5833",
    "place": "Platanissos",
    "state": "Ammochostos",
    "state_code": "01",
    "province": "",
    "province_code": "",
    "community": "",
    "community_code": "",
    "latitude": "35.4787",
    "longitude": "34.1068"
  },
  {
    "country_code": "CY",
    "zipcode": "5834",
    "place": "Tavrou",
    "state": "Ammochostos",
    "state_code": "01",
    "province": "",
    "province_code": "",
    "community": "",
    "community_code": "",
    "latitude": "35.3966",
    "longitude": "34.0765"
  },
  {
    "country_code": "CY",
    "zipcode": "5850",
    "place": "Rizokarpaso",
    "state": "Ammochostos",
    "state_code": "01",
    "province": "",
    "province_code": "",
    "community": "",
    "community_code": "",
    "latitude": "35.5972",
    "longitude": "34.3792"
  },
  {
    "country_code": "CY",
    "zipcode": "5870",
    "place": "Agia Trias",
    "state": "Ammochostos",
    "state_code": "01",
    "province": "",
    "province_code": "",
    "community": "",
    "community_code": "",
    "latitude": "35.5387",
    "longitude": "34.216"
  },
  {
    "country_code": "CY",
    "zipcode": "5871",
    "place": "Agios Therissos",
    "state": "Ammochostos",
    "state_code": "01",
    "province": "",
    "province_code": "",
    "community": "",
    "community_code": "",
    "latitude": "35.5241",
    "longitude": "34.2639"
  },
  {
    "country_code": "CY",
    "zipcode": "5872",
    "place": "Agios Filon",
    "state": "Ammochostos",
    "state_code": "01",
    "province": "",
    "province_code": "",
    "community": "",
    "community_code": "",
    "latitude": "35.5241",
    "longitude": "34.2639"
  },
  {
    "country_code": "CY",
    "zipcode": "5873",
    "place": "Moni Apostolou Andreou",
    "state": "Ammochostos",
    "state_code": "01",
    "province": "",
    "province_code": "",
    "community": "",
    "community_code": "",
    "latitude": "35.5241",
    "longitude": "34.2639"
  },
  {
    "country_code": "CY",
    "zipcode": "5874",
    "place": "Galinoporni",
    "state": "Ammochostos",
    "state_code": "01",
    "province": "",
    "province_code": "",
    "community": "",
    "community_code": "",
    "latitude": "35.5223",
    "longitude": "34.3018"
  },
  {
    "country_code": "CY",
    "zipcode": "5875",
    "place": "Koroveia",
    "state": "Ammochostos",
    "state_code": "01",
    "province": "",
    "province_code": "",
    "community": "",
    "community_code": "",
    "latitude": "35.5113",
    "longitude": "34.274"
  },
  {
    "country_code": "CY",
    "zipcode": "5876",
    "place": "Stathmos Koroveias",
    "state": "Ammochostos",
    "state_code": "01",
    "province": "",
    "province_code": "",
    "community": "",
    "community_code": "",
    "latitude": "35.5241",
    "longitude": "34.2639"
  },
  {
    "country_code": "CY",
    "zipcode": "5877",
    "place": "Moni Panagias Eleousas",
    "state": "Ammochostos",
    "state_code": "01",
    "province": "",
    "province_code": "",
    "community": "",
    "community_code": "",
    "latitude": "35.5241",
    "longitude": "34.2639"
  },
  {
    "country_code": "CY",
    "zipcode": "5878",
    "place": "Chelones",
    "state": "Ammochostos",
    "state_code": "01",
    "province": "",
    "province_code": "",
    "community": "",
    "community_code": "",
    "latitude": "35.5241",
    "longitude": "34.2639"
  },
  {
    "country_code": "CY",
    "zipcode": "9000",
    "place": "Keryneia",
    "state": "Keryneia",
    "state_code": "02",
    "province": "",
    "province_code": "",
    "community": "",
    "community_code": "",
    "latitude": "35.3363",
    "longitude": "33.3173"
  },
  {
    "country_code": "CY",
    "zipcode": "9200",
    "place": "Karavas",
    "state": "Keryneia",
    "state_code": "02",
    "province": "",
    "province_code": "",
    "community": "",
    "community_code": "",
    "latitude": "35.3414",
    "longitude": "33.1959"
  },
  {
    "country_code": "CY",
    "zipcode": "9300",
    "place": "Lapithos",
    "state": "Keryneia",
    "state_code": "02",
    "province": "",
    "province_code": "",
    "community": "",
    "community_code": "",
    "latitude": "35.3382",
    "longitude": "33.1737"
  },
  {
    "country_code": "CY",
    "zipcode": "9390",
    "place": "Agios Georgios Keryneias",
    "state": "Keryneia",
    "state_code": "02",
    "province": "",
    "province_code": "",
    "community": "",
    "community_code": "",
    "latitude": "35.3422",
    "longitude": "33.2753"
  },
  {
    "country_code": "CY",
    "zipcode": "9500",
    "place": "Agios Epiktitos",
    "state": "Keryneia",
    "state_code": "02",
    "province": "",
    "province_code": "",
    "community": "",
    "community_code": "",
    "latitude": "35.3207",
    "longitude": "33.3903"
  },
  {
    "country_code": "CY",
    "zipcode": "9510",
    "place": "Thermeia",
    "state": "Keryneia",
    "state_code": "02",
    "province": "",
    "province_code": "",
    "community": "",
    "community_code": "",
    "latitude": "35.3276",
    "longitude": "33.327"
  },
  {
    "country_code": "CY",
    "zipcode": "9511",
    "place": "Kazafani",
    "state": "Keryneia",
    "state_code": "02",
    "province": "",
    "province_code": "",
    "community": "",
    "community_code": "",
    "latitude": "35.3167",
    "longitude": "33.35"
  },
  {
    "country_code": "CY",
    "zipcode": "9512",
    "place": "Karakoumi",
    "state": "Keryneia",
    "state_code": "02",
    "province": "",
    "province_code": "",
    "community": "",
    "community_code": "",
    "latitude": "35.334",
    "longitude": "33.3478"
  },
  {
    "country_code": "CY",
    "zipcode": "9513",
    "place": "Karmi",
    "state": "Keryneia",
    "state_code": "02",
    "province": "",
    "province_code": "",
    "community": "",
    "community_code": "",
    "latitude": "35.3182",
    "longitude": "33.2556"
  },
  {
    "country_code": "CY",
    "zipcode": "9514",
    "place": "Belapais",
    "state": "Keryneia",
    "state_code": "02",
    "province": "",
    "province_code": "",
    "community": "",
    "community_code": "",
    "latitude": "35.3058",
    "longitude": "33.3556"
  },
  {
    "country_code": "CY",
    "zipcode": "9515",
    "place": "Templos",
    "state": "Keryneia",
    "state_code": "02",
    "province": "",
    "province_code": "",
    "community": "",
    "community_code": "",
    "latitude": "35.3317",
    "longitude": "33.295"
  },
  {
    "country_code": "CY",
    "zipcode": "9516",
    "place": "Trimithi",
    "state": "Keryneia",
    "state_code": "02",
    "province": "",
    "province_code": "",
    "community": "",
    "community_code": "",
    "latitude": "35.3288",
    "longitude": "33.2598"
  },
  {
    "country_code": "CY",
    "zipcode": "9530",
    "place": "Kato Dikomo",
    "state": "Keryneia",
    "state_code": "02",
    "province": "",
    "province_code": "",
    "community": "",
    "community_code": "",
    "latitude": "35.2675",
    "longitude": "33.3247"
  },
  {
    "country_code": "CY",
    "zipcode": "9540",
    "place": "Pano Dikomo",
    "state": "Keryneia",
    "state_code": "02",
    "province": "",
    "province_code": "",
    "community": "",
    "community_code": "",
    "latitude": "35.2777",
    "longitude": "33.3218"
  },
  {
    "country_code": "CY",
    "zipcode": "9541",
    "place": "Agirda",
    "state": "Keryneia",
    "state_code": "02",
    "province": "",
    "province_code": "",
    "community": "",
    "community_code": "",
    "latitude": "35.2974",
    "longitude": "33.2681"
  },
  {
    "country_code": "CY",
    "zipcode": "9542",
    "place": "Vouno",
    "state": "Keryneia",
    "state_code": "02",
    "province": "",
    "province_code": "",
    "community": "",
    "community_code": "",
    "latitude": "35.271",
    "longitude": "33.391"
  },
  {
    "country_code": "CY",
    "zipcode": "9543",
    "place": "Kiomourtzou",
    "state": "Keryneia",
    "state_code": "02",
    "province": "",
    "province_code": "",
    "community": "",
    "community_code": "",
    "latitude": "35.2934",
    "longitude": "33.2564"
  },
  {
    "country_code": "CY",
    "zipcode": "9544",
    "place": "Koutsoventis",
    "state": "Keryneia",
    "state_code": "02",
    "province": "",
    "province_code": "",
    "community": "",
    "community_code": "",
    "latitude": "35.2631",
    "longitude": "33.4208"
  },
  {
    "country_code": "CY",
    "zipcode": "9545",
    "place": "Krini",
    "state": "Keryneia",
    "state_code": "02",
    "province": "",
    "province_code": "",
    "community": "",
    "community_code": "",
    "latitude": "35.288",
    "longitude": "33.2375"
  },
  {
    "country_code": "CY",
    "zipcode": "9546",
    "place": "Moni Agiou Chrysostomou",
    "state": "Keryneia",
    "state_code": "02",
    "province": "",
    "province_code": "",
    "community": "",
    "community_code": "",
    "latitude": "35.2823",
    "longitude": "33.3118"
  },
  {
    "country_code": "CY",
    "zipcode": "9547",
    "place": "Onisia",
    "state": "Keryneia",
    "state_code": "02",
    "province": "",
    "province_code": "",
    "community": "",
    "community_code": "",
    "latitude": "35.2823",
    "longitude": "33.3118"
  },
  {
    "country_code": "CY",
    "zipcode": "9548",
    "place": "Pileri",
    "state": "Keryneia",
    "state_code": "02",
    "province": "",
    "province_code": "",
    "community": "",
    "community_code": "",
    "latitude": "35.291",
    "longitude": "33.2179"
  },
  {
    "country_code": "CY",
    "zipcode": "9549",
    "place": "Sichari",
    "state": "Keryneia",
    "state_code": "02",
    "province": "",
    "province_code": "",
    "community": "",
    "community_code": "",
    "latitude": "35.2764",
    "longitude": "33.3812"
  },
  {
    "country_code": "CY",
    "zipcode": "9550",
    "place": "Stathmos Bogaziou",
    "state": "Keryneia",
    "state_code": "02",
    "province": "",
    "province_code": "",
    "community": "",
    "community_code": "",
    "latitude": "35.2641",
    "longitude": "33.2225"
  },
  {
    "country_code": "CY",
    "zipcode": "9551",
    "place": "Fota",
    "state": "Keryneia",
    "state_code": "02",
    "province": "",
    "province_code": "",
    "community": "",
    "community_code": "",
    "latitude": "35.2641",
    "longitude": "33.2225"
  },
  {
    "country_code": "CY",
    "zipcode": "9560",
    "place": "Agios Amvrosios Keryneias",
    "state": "Keryneia",
    "state_code": "02",
    "province": "",
    "province_code": "",
    "community": "",
    "community_code": "",
    "latitude": "35.339",
    "longitude": "33.5826"
  },
  {
    "country_code": "CY",
    "zipcode": "9570",
    "place": "Armenomonastiro",
    "state": "Keryneia",
    "state_code": "02",
    "province": "",
    "province_code": "",
    "community": "",
    "community_code": "",
    "latitude": "35.3175",
    "longitude": "33.5118"
  },
  {
    "country_code": "CY",
    "zipcode": "9571",
    "place": "Kalograia",
    "state": "Keryneia",
    "state_code": "02",
    "province": "",
    "province_code": "",
    "community": "",
    "community_code": "",
    "latitude": "35.3379",
    "longitude": "33.6306"
  },
  {
    "country_code": "CY",
    "zipcode": "9572",
    "place": "Klepini",
    "state": "Keryneia",
    "state_code": "02",
    "province": "",
    "province_code": "",
    "community": "",
    "community_code": "",
    "latitude": "35.3065",
    "longitude": "33.4353"
  },
  {
    "country_code": "CY",
    "zipcode": "9573",
    "place": "Moni Archangelou Antifonitou",
    "state": "Keryneia",
    "state_code": "02",
    "province": "",
    "province_code": "",
    "community": "",
    "community_code": "",
    "latitude": "35.3175",
    "longitude": "33.5118"
  },
  {
    "country_code": "CY",
    "zipcode": "9574",
    "place": "Moni Panagias Melandrinas",
    "state": "Keryneia",
    "state_code": "02",
    "province": "",
    "province_code": "",
    "community": "",
    "community_code": "",
    "latitude": "35.3175",
    "longitude": "33.5118"
  },
  {
    "country_code": "CY",
    "zipcode": "9575",
    "place": "Trapeza",
    "state": "Keryneia",
    "state_code": "02",
    "province": "",
    "province_code": "",
    "community": "",
    "community_code": "",
    "latitude": "35.3082",
    "longitude": "33.4696"
  },
  {
    "country_code": "CY",
    "zipcode": "9576",
    "place": "Chalefka",
    "state": "Keryneia",
    "state_code": "02",
    "province": "",
    "province_code": "",
    "community": "",
    "community_code": "",
    "latitude": "35.3175",
    "longitude": "33.5118"
  },
  {
    "country_code": "CY",
    "zipcode": "9577",
    "place": "Charkeia (Chartzeia)",
    "state": "Keryneia",
    "state_code": "02",
    "province": "",
    "province_code": "",
    "community": "",
    "community_code": "",
    "latitude": "35.3175",
    "longitude": "33.5118"
  },
  {
    "country_code": "CY",
    "zipcode": "9600",
    "place": "Myrtou",
    "state": "Keryneia",
    "state_code": "02",
    "province": "",
    "province_code": "",
    "community": "",
    "community_code": "",
    "latitude": "35.3073",
    "longitude": "33.071"
  },
  {
    "country_code": "CY",
    "zipcode": "9610",
    "place": "Agia Eirini Keryneias",
    "state": "Keryneia",
    "state_code": "02",
    "province": "",
    "province_code": "",
    "community": "",
    "community_code": "",
    "latitude": "35.2989",
    "longitude": "32.9634"
  },
  {
    "country_code": "CY",
    "zipcode": "9611",
    "place": "Agios Ermolaos",
    "state": "Keryneia",
    "state_code": "02",
    "province": "",
    "province_code": "",
    "community": "",
    "community_code": "",
    "latitude": "35.2781",
    "longitude": "33.1725"
  },
  {
    "country_code": "CY",
    "zipcode": "9612",
    "place": "Agridaki",
    "state": "Keryneia",
    "state_code": "02",
    "province": "",
    "province_code": "",
    "community": "",
    "community_code": "",
    "latitude": "35.3072",
    "longitude": "33.1511"
  },
  {
    "country_code": "CY",
    "zipcode": "9613",
    "place": "Asomatos Keryneias",
    "state": "Keryneia",
    "state_code": "02",
    "province": "",
    "province_code": "",
    "community": "",
    "community_code": "",
    "latitude": "35.2755",
    "longitude": "33.1075"
  },
  {
    "country_code": "CY",
    "zipcode": "9614",
    "place": "Diorios",
    "state": "Keryneia",
    "state_code": "02",
    "province": "",
    "province_code": "",
    "community": "",
    "community_code": "",
    "latitude": "35.3057",
    "longitude": "33.0548"
  },
  {
    "country_code": "CY",
    "zipcode": "9615",
    "place": "Kampyli",
    "state": "Keryneia",
    "state_code": "02",
    "province": "",
    "province_code": "",
    "community": "",
    "community_code": "",
    "latitude": "35.3014",
    "longitude": "33.1075"
  },
  {
    "country_code": "CY",
    "zipcode": "9616",
    "place": "Karpaseia",
    "state": "Keryneia",
    "state_code": "02",
    "province": "",
    "province_code": "",
    "community": "",
    "community_code": "",
    "latitude": "35.2978",
    "longitude": "33.07"
  },
  {
    "country_code": "CY",
    "zipcode": "9617",
    "place": "Kontemenos",
    "state": "Keryneia",
    "state_code": "02",
    "province": "",
    "province_code": "",
    "community": "",
    "community_code": "",
    "latitude": "35.2686",
    "longitude": "33.1247"
  },
  {
    "country_code": "CY",
    "zipcode": "9618",
    "place": "Kormakitis",
    "state": "Keryneia",
    "state_code": "02",
    "province": "",
    "province_code": "",
    "community": "",
    "community_code": "",
    "latitude": "35.343",
    "longitude": "33.01"
  },
  {
    "country_code": "CY",
    "zipcode": "9619",
    "place": "Larnakas Lapithou",
    "state": "Keryneia",
    "state_code": "02",
    "province": "",
    "province_code": "",
    "community": "",
    "community_code": "",
    "latitude": "35.3125",
    "longitude": "33.1417"
  },
  {
    "country_code": "CY",
    "zipcode": "9620",
    "place": "Sysklipos",
    "state": "Keryneia",
    "state_code": "02",
    "province": "",
    "province_code": "",
    "community": "",
    "community_code": "",
    "latitude": "35.3004",
    "longitude": "33.1737"
  },
  {
    "country_code": "CY",
    "zipcode": "9621",
    "place": "Moni Agiou Panteleimonos",
    "state": "Keryneia",
    "state_code": "02",
    "province": "",
    "province_code": "",
    "community": "",
    "community_code": "",
    "latitude": "35.3004",
    "longitude": "33.1737"
  },
  {
    "country_code": "CY",
    "zipcode": "9630",
    "place": "Vavylas",
    "state": "Keryneia",
    "state_code": "02",
    "province": "",
    "province_code": "",
    "community": "",
    "community_code": "",
    "latitude": "35.342",
    "longitude": "33.1292"
  },
  {
    "country_code": "CY",
    "zipcode": "9631",
    "place": "Vasileia",
    "state": "Keryneia",
    "state_code": "02",
    "province": "",
    "province_code": "",
    "community": "",
    "community_code": "",
    "latitude": "35.3449",
    "longitude": "33.1242"
  },
  {
    "country_code": "CY",
    "zipcode": "9632",
    "place": "Elia Keryneias",
    "state": "Keryneia",
    "state_code": "02",
    "province": "",
    "province_code": "",
    "community": "",
    "community_code": "",
    "latitude": "35.3322",
    "longitude": "33.2193"
  },
  {
    "country_code": "CY",
    "zipcode": "9633",
    "place": "Livera",
    "state": "Keryneia",
    "state_code": "02",
    "province": "",
    "province_code": "",
    "community": "",
    "community_code": "",
    "latitude": "35.3833",
    "longitude": "32.9526"
  },
  {
    "country_code": "CY",
    "zipcode": "9634",
    "place": "Moni Acheiropoiitou",
    "state": "Keryneia",
    "state_code": "02",
    "province": "",
    "province_code": "",
    "community": "",
    "community_code": "",
    "latitude": "35.342",
    "longitude": "33.1292"
  },
  {
    "country_code": "CY",
    "zipcode": "9635",
    "place": "Motides",
    "state": "Keryneia",
    "state_code": "02",
    "province": "",
    "province_code": "",
    "community": "",
    "community_code": "",
    "latitude": "35.3349",
    "longitude": "33.2073"
  },
  {
    "country_code": "CY",
    "zipcode": "9636",
    "place": "Orga",
    "state": "Keryneia",
    "state_code": "02",
    "province": "",
    "province_code": "",
    "community": "",
    "community_code": "",
    "latitude": "35.3582",
    "longitude": "33.0332"
  },
  {
    "country_code": "CY",
    "zipcode": "9637",
    "place": "Palaiosofos",
    "state": "Keryneia",
    "state_code": "02",
    "province": "",
    "province_code": "",
    "community": "",
    "community_code": "",
    "latitude": "35.3256",
    "longitude": "33.2071"
  },
  {
    "country_code": "CY",
    "zipcode": "9638",
    "place": "Panagra",
    "state": "Keryneia",
    "state_code": "02",
    "province": "",
    "province_code": "",
    "community": "",
    "community_code": "",
    "latitude": "35.334",
    "longitude": "33.0685"
  },
  {
    "country_code": "CY",
    "zipcode": "9639",
    "place": "Ftericha",
    "state": "Keryneia",
    "state_code": "02",
    "province": "",
    "province_code": "",
    "community": "",
    "community_code": "",
    "latitude": "35.3228",
    "longitude": "33.2212"
  },
  {
    "country_code": "CY",
    "zipcode": "6010",
    "place": "Larnaka",
    "state": "Larnaka",
    "state_code": "03",
    "province": "",
    "province_code": "",
    "community": "",
    "community_code": "",
    "latitude": "34.9229",
    "longitude": "33.6233"
  },
  {
    "country_code": "CY",
    "zipcode": "6011",
    "place": "Larnaka",
    "state": "Larnaka",
    "state_code": "03",
    "province": "",
    "province_code": "",
    "community": "",
    "community_code": "",
    "latitude": "34.9229",
    "longitude": "33.6233"
  },
  {
    "country_code": "CY",
    "zipcode": "6012",
    "place": "Larnaka",
    "state": "Larnaka",
    "state_code": "03",
    "province": "",
    "province_code": "",
    "community": "",
    "community_code": "",
    "latitude": "34.9229",
    "longitude": "33.6233"
  },
  {
    "country_code": "CY",
    "zipcode": "6013",
    "place": "Larnaka",
    "state": "Larnaka",
    "state_code": "03",
    "province": "",
    "province_code": "",
    "community": "",
    "community_code": "",
    "latitude": "34.9229",
    "longitude": "33.6233"
  },
  {
    "country_code": "CY",
    "zipcode": "6015",
    "place": "Larnaka",
    "state": "Larnaka",
    "state_code": "03",
    "province": "",
    "province_code": "",
    "community": "",
    "community_code": "",
    "latitude": "34.9229",
    "longitude": "33.6233"
  },
  {
    "country_code": "CY",
    "zipcode": "6016",
    "place": "Larnaka",
    "state": "Larnaka",
    "state_code": "03",
    "province": "",
    "province_code": "",
    "community": "",
    "community_code": "",
    "latitude": "34.9229",
    "longitude": "33.6233"
  },
  {
    "country_code": "CY",
    "zipcode": "6017",
    "place": "Larnaka",
    "state": "Larnaka",
    "state_code": "03",
    "province": "",
    "province_code": "",
    "community": "",
    "community_code": "",
    "latitude": "34.9229",
    "longitude": "33.6233"
  },
  {
    "country_code": "CY",
    "zipcode": "6018",
    "place": "Larnaka",
    "state": "Larnaka",
    "state_code": "03",
    "province": "",
    "province_code": "",
    "community": "",
    "community_code": "",
    "latitude": "34.9229",
    "longitude": "33.6233"
  },
  {
    "country_code": "CY",
    "zipcode": "6019",
    "place": "Larnaka",
    "state": "Larnaka",
    "state_code": "03",
    "province": "",
    "province_code": "",
    "community": "",
    "community_code": "",
    "latitude": "34.9229",
    "longitude": "33.6233"
  },
  {
    "country_code": "CY",
    "zipcode": "6020",
    "place": "Larnaka",
    "state": "Larnaka",
    "state_code": "03",
    "province": "",
    "province_code": "",
    "community": "",
    "community_code": "",
    "latitude": "34.9229",
    "longitude": "33.6233"
  },
  {
    "country_code": "CY",
    "zipcode": "6021",
    "place": "Larnaka",
    "state": "Larnaka",
    "state_code": "03",
    "province": "",
    "province_code": "",
    "community": "",
    "community_code": "",
    "latitude": "34.9229",
    "longitude": "33.6233"
  },
  {
    "country_code": "CY",
    "zipcode": "6022",
    "place": "Larnaka",
    "state": "Larnaka",
    "state_code": "03",
    "province": "",
    "province_code": "",
    "community": "",
    "community_code": "",
    "latitude": "34.9229",
    "longitude": "33.6233"
  },
  {
    "country_code": "CY",
    "zipcode": "6023",
    "place": "Larnaka",
    "state": "Larnaka",
    "state_code": "03",
    "province": "",
    "province_code": "",
    "community": "",
    "community_code": "",
    "latitude": "34.9229",
    "longitude": "33.6233"
  },
  {
    "country_code": "CY",
    "zipcode": "6025",
    "place": "Larnaka",
    "state": "Larnaka",
    "state_code": "03",
    "province": "",
    "province_code": "",
    "community": "",
    "community_code": "",
    "latitude": "34.9229",
    "longitude": "33.6233"
  },
  {
    "country_code": "CY",
    "zipcode": "6026",
    "place": "Larnaka",
    "state": "Larnaka",
    "state_code": "03",
    "province": "",
    "province_code": "",
    "community": "",
    "community_code": "",
    "latitude": "34.9229",
    "longitude": "33.6233"
  },
  {
    "country_code": "CY",
    "zipcode": "6027",
    "place": "Larnaka",
    "state": "Larnaka",
    "state_code": "03",
    "province": "",
    "province_code": "",
    "community": "",
    "community_code": "",
    "latitude": "34.9229",
    "longitude": "33.6233"
  },
  {
    "country_code": "CY",
    "zipcode": "6028",
    "place": "Larnaka",
    "state": "Larnaka",
    "state_code": "03",
    "province": "",
    "province_code": "",
    "community": "",
    "community_code": "",
    "latitude": "34.9229",
    "longitude": "33.6233"
  },
  {
    "country_code": "CY",
    "zipcode": "6030",
    "place": "Larnaka",
    "state": "Larnaka",
    "state_code": "03",
    "province": "",
    "province_code": "",
    "community": "",
    "community_code": "",
    "latitude": "34.9229",
    "longitude": "33.6233"
  },
  {
    "country_code": "CY",
    "zipcode": "6031",
    "place": "Larnaka",
    "state": "Larnaka",
    "state_code": "03",
    "province": "",
    "province_code": "",
    "community": "",
    "community_code": "",
    "latitude": "34.9229",
    "longitude": "33.6233"
  },
  {
    "country_code": "CY",
    "zipcode": "6035",
    "place": "Larnaka",
    "state": "Larnaka",
    "state_code": "03",
    "province": "",
    "province_code": "",
    "community": "",
    "community_code": "",
    "latitude": "34.9229",
    "longitude": "33.6233"
  },
  {
    "country_code": "CY",
    "zipcode": "6036",
    "place": "Larnaka",
    "state": "Larnaka",
    "state_code": "03",
    "province": "",
    "province_code": "",
    "community": "",
    "community_code": "",
    "latitude": "34.9229",
    "longitude": "33.6233"
  },
  {
    "country_code": "CY",
    "zipcode": "6037",
    "place": "Larnaka",
    "state": "Larnaka",
    "state_code": "03",
    "province": "",
    "province_code": "",
    "community": "",
    "community_code": "",
    "latitude": "34.9229",
    "longitude": "33.6233"
  },
  {
    "country_code": "CY",
    "zipcode": "6040",
    "place": "Larnaka",
    "state": "Larnaka",
    "state_code": "03",
    "province": "",
    "province_code": "",
    "community": "",
    "community_code": "",
    "latitude": "34.9229",
    "longitude": "33.6233"
  },
  {
    "country_code": "CY",
    "zipcode": "6041",
    "place": "Larnaka",
    "state": "Larnaka",
    "state_code": "03",
    "province": "",
    "province_code": "",
    "community": "",
    "community_code": "",
    "latitude": "34.9229",
    "longitude": "33.6233"
  },
  {
    "country_code": "CY",
    "zipcode": "6042",
    "place": "Larnaka",
    "state": "Larnaka",
    "state_code": "03",
    "province": "",
    "province_code": "",
    "community": "",
    "community_code": "",
    "latitude": "34.9229",
    "longitude": "33.6233"
  },
  {
    "country_code": "CY",
    "zipcode": "6043",
    "place": "Larnaka",
    "state": "Larnaka",
    "state_code": "03",
    "province": "",
    "province_code": "",
    "community": "",
    "community_code": "",
    "latitude": "34.9229",
    "longitude": "33.6233"
  },
  {
    "country_code": "CY",
    "zipcode": "6045",
    "place": "Larnaka",
    "state": "Larnaka",
    "state_code": "03",
    "province": "",
    "province_code": "",
    "community": "",
    "community_code": "",
    "latitude": "34.9229",
    "longitude": "33.6233"
  },
  {
    "country_code": "CY",
    "zipcode": "6046",
    "place": "Larnaka",
    "state": "Larnaka",
    "state_code": "03",
    "province": "",
    "province_code": "",
    "community": "",
    "community_code": "",
    "latitude": "34.9229",
    "longitude": "33.6233"
  },
  {
    "country_code": "CY",
    "zipcode": "6047",
    "place": "Larnaka",
    "state": "Larnaka",
    "state_code": "03",
    "province": "",
    "province_code": "",
    "community": "",
    "community_code": "",
    "latitude": "34.9229",
    "longitude": "33.6233"
  },
  {
    "country_code": "CY",
    "zipcode": "6050",
    "place": "Larnaka",
    "state": "Larnaka",
    "state_code": "03",
    "province": "",
    "province_code": "",
    "community": "",
    "community_code": "",
    "latitude": "34.9229",
    "longitude": "33.6233"
  },
  {
    "country_code": "CY",
    "zipcode": "6051",
    "place": "Larnaka",
    "state": "Larnaka",
    "state_code": "03",
    "province": "",
    "province_code": "",
    "community": "",
    "community_code": "",
    "latitude": "34.9229",
    "longitude": "33.6233"
  },
  {
    "country_code": "CY",
    "zipcode": "6052",
    "place": "Larnaka",
    "state": "Larnaka",
    "state_code": "03",
    "province": "",
    "province_code": "",
    "community": "",
    "community_code": "",
    "latitude": "34.9229",
    "longitude": "33.6233"
  },
  {
    "country_code": "CY",
    "zipcode": "6053",
    "place": "Larnaka",
    "state": "Larnaka",
    "state_code": "03",
    "province": "",
    "province_code": "",
    "community": "",
    "community_code": "",
    "latitude": "34.9229",
    "longitude": "33.6233"
  },
  {
    "country_code": "CY",
    "zipcode": "6055",
    "place": "Larnaka",
    "state": "Larnaka",
    "state_code": "03",
    "province": "",
    "province_code": "",
    "community": "",
    "community_code": "",
    "latitude": "34.9229",
    "longitude": "33.6233"
  },
  {
    "country_code": "CY",
    "zipcode": "6056",
    "place": "Larnaka",
    "state": "Larnaka",
    "state_code": "03",
    "province": "",
    "province_code": "",
    "community": "",
    "community_code": "",
    "latitude": "34.9229",
    "longitude": "33.6233"
  },
  {
    "country_code": "CY",
    "zipcode": "6057",
    "place": "Larnaka",
    "state": "Larnaka",
    "state_code": "03",
    "province": "",
    "province_code": "",
    "community": "",
    "community_code": "",
    "latitude": "34.9229",
    "longitude": "33.6233"
  },
  {
    "country_code": "CY",
    "zipcode": "6058",
    "place": "Larnaka",
    "state": "Larnaka",
    "state_code": "03",
    "province": "",
    "province_code": "",
    "community": "",
    "community_code": "",
    "latitude": "34.9229",
    "longitude": "33.6233"
  },
  {
    "country_code": "CY",
    "zipcode": "6059",
    "place": "Larnaka",
    "state": "Larnaka",
    "state_code": "03",
    "province": "",
    "province_code": "",
    "community": "",
    "community_code": "",
    "latitude": "34.9229",
    "longitude": "33.6233"
  },
  {
    "country_code": "CY",
    "zipcode": "6060",
    "place": "Larnaka",
    "state": "Larnaka",
    "state_code": "03",
    "province": "",
    "province_code": "",
    "community": "",
    "community_code": "",
    "latitude": "34.9229",
    "longitude": "33.6233"
  },
  {
    "country_code": "CY",
    "zipcode": "6370",
    "place": "Anglikos Stratos Dekeleias",
    "state": "Larnaka",
    "state_code": "03",
    "province": "",
    "province_code": "",
    "community": "",
    "community_code": "",
    "latitude": "34.9965",
    "longitude": "33.7339"
  },
  {
    "country_code": "CY",
    "zipcode": "7000",
    "place": "Meneou",
    "state": "Larnaka",
    "state_code": "03",
    "province": "",
    "province_code": "",
    "community": "",
    "community_code": "",
    "latitude": "34.8607",
    "longitude": "33.5931"
  },
  {
    "country_code": "CY",
    "zipcode": "7020",
    "place": "Dromolaxia",
    "state": "Larnaka",
    "state_code": "03",
    "province": "",
    "province_code": "",
    "community": "",
    "community_code": "",
    "latitude": "34.8755",
    "longitude": "33.5868"
  },
  {
    "country_code": "CY",
    "zipcode": "7040",
    "place": "Voroklini",
    "state": "Larnaka",
    "state_code": "03",
    "province": "",
    "province_code": "",
    "community": "",
    "community_code": "",
    "latitude": "34.9814",
    "longitude": "33.6565"
  },
  {
    "country_code": "CY",
    "zipcode": "7041",
    "place": "Voroklini Touristiki Periochi",
    "state": "Larnaka",
    "state_code": "03",
    "province": "",
    "province_code": "",
    "community": "",
    "community_code": "",
    "latitude": "34.9814",
    "longitude": "33.6565"
  },
  {
    "country_code": "CY",
    "zipcode": "7060",
    "place": "Livadia Larnakas",
    "state": "Larnaka",
    "state_code": "03",
    "province": "",
    "province_code": "",
    "community": "",
    "community_code": "",
    "latitude": "34.9551",
    "longitude": "33.6273"
  },
  {
    "country_code": "CY",
    "zipcode": "7080",
    "place": "Pyla",
    "state": "Larnaka",
    "state_code": "03",
    "province": "",
    "province_code": "",
    "community": "",
    "community_code": "",
    "latitude": "35.0047",
    "longitude": "33.6891"
  },
  {
    "country_code": "CY",
    "zipcode": "7081",
    "place": "Pyla Touristiki Periochi",
    "state": "Larnaka",
    "state_code": "03",
    "province": "",
    "province_code": "",
    "community": "",
    "community_code": "",
    "latitude": "35.0047",
    "longitude": "33.6891"
  },
  {
    "country_code": "CY",
    "zipcode": "7100",
    "place": "Aradippou",
    "state": "Larnaka",
    "state_code": "03",
    "province": "",
    "province_code": "",
    "community": "",
    "community_code": "",
    "latitude": "34.9478",
    "longitude": "33.5881"
  },
  {
    "country_code": "CY",
    "zipcode": "7101",
    "place": "Aradippou",
    "state": "Larnaka",
    "state_code": "03",
    "province": "",
    "province_code": "",
    "community": "",
    "community_code": "",
    "latitude": "34.9478",
    "longitude": "33.5881"
  },
  {
    "country_code": "CY",
    "zipcode": "7102",
    "place": "Aradippou",
    "state": "Larnaka",
    "state_code": "03",
    "province": "",
    "province_code": "",
    "community": "",
    "community_code": "",
    "latitude": "34.9478",
    "longitude": "33.5881"
  },
  {
    "country_code": "CY",
    "zipcode": "7103",
    "place": "Aradippou",
    "state": "Larnaka",
    "state_code": "03",
    "province": "",
    "province_code": "",
    "community": "",
    "community_code": "",
    "latitude": "34.9478",
    "longitude": "33.5881"
  },
  {
    "country_code": "CY",
    "zipcode": "7104",
    "place": "Aradippou",
    "state": "Larnaka",
    "state_code": "03",
    "province": "",
    "province_code": "",
    "community": "",
    "community_code": "",
    "latitude": "34.9478",
    "longitude": "33.5881"
  },
  {
    "country_code": "CY",
    "zipcode": "7105",
    "place": "Aradippou",
    "state": "Larnaka",
    "state_code": "03",
    "province": "",
    "province_code": "",
    "community": "",
    "community_code": "",
    "latitude": "34.9478",
    "longitude": "33.5881"
  },
  {
    "country_code": "CY",
    "zipcode": "7501",
    "place": "Avdellero",
    "state": "Larnaka",
    "state_code": "03",
    "province": "",
    "province_code": "",
    "community": "",
    "community_code": "",
    "latitude": "35.008",
    "longitude": "33.5705"
  },
  {
    "country_code": "CY",
    "zipcode": "7502",
    "place": "Dekeleia",
    "state": "Larnaka",
    "state_code": "03",
    "province": "",
    "province_code": "",
    "community": "",
    "community_code": "",
    "latitude": "35.0146",
    "longitude": "33.6294"
  },
  {
    "country_code": "CY",
    "zipcode": "7503",
    "place": "Kellia",
    "state": "Larnaka",
    "state_code": "03",
    "province": "",
    "province_code": "",
    "community": "",
    "community_code": "",
    "latitude": "34.9761",
    "longitude": "33.6232"
  },
  {
    "country_code": "CY",
    "zipcode": "7504",
    "place": "Pergamos",
    "state": "Larnaka",
    "state_code": "03",
    "province": "",
    "province_code": "",
    "community": "",
    "community_code": "",
    "latitude": "35.0417",
    "longitude": "33.7083"
  },
  {
    "country_code": "CY",
    "zipcode": "7505",
    "place": "Troulloi",
    "state": "Larnaka",
    "state_code": "03",
    "province": "",
    "province_code": "",
    "community": "",
    "community_code": "",
    "latitude": "35.0326",
    "longitude": "33.6155"
  },
  {
    "country_code": "CY",
    "zipcode": "7506",
    "place": "Prosfygikos Synoikismos EAC",
    "state": "Larnaka",
    "state_code": "03",
    "province": "",
    "province_code": "",
    "community": "",
    "community_code": "",
    "latitude": "35.0146",
    "longitude": "33.6294"
  },
  {
    "country_code": "CY",
    "zipcode": "7508",
    "place": "Prosfygikos Synoikismos Vattaina",
    "state": "Larnaka",
    "state_code": "03",
    "province": "",
    "province_code": "",
    "community": "",
    "community_code": "",
    "latitude": "35.0146",
    "longitude": "33.6294"
  },
  {
    "country_code": "CY",
    "zipcode": "7509",
    "place": "Moni Metamorfoseos tou Sotiros",
    "state": "Larnaka",
    "state_code": "03",
    "province": "",
    "province_code": "",
    "community": "",
    "community_code": "",
    "latitude": "35.0146",
    "longitude": "33.6294"
  },
  {
    "country_code": "CY",
    "zipcode": "7510",
    "place": "Xylotymvou",
    "state": "Larnaka",
    "state_code": "03",
    "province": "",
    "province_code": "",
    "community": "",
    "community_code": "",
    "latitude": "35.0163",
    "longitude": "33.7435"
  },
  {
    "country_code": "CY",
    "zipcode": "7520",
    "place": "Xylofagou",
    "state": "Larnaka",
    "state_code": "03",
    "province": "",
    "province_code": "",
    "community": "",
    "community_code": "",
    "latitude": "34.9774",
    "longitude": "33.8489"
  },
  {
    "country_code": "CY",
    "zipcode": "7530",
    "place": "Ormideia",
    "state": "Larnaka",
    "state_code": "03",
    "province": "",
    "province_code": "",
    "community": "",
    "community_code": "",
    "latitude": "34.9918",
    "longitude": "33.7772"
  },
  {
    "country_code": "CY",
    "zipcode": "7550",
    "place": "Kiti",
    "state": "Larnaka",
    "state_code": "03",
    "province": "",
    "province_code": "",
    "community": "",
    "community_code": "",
    "latitude": "34.849",
    "longitude": "33.5752"
  },
  {
    "country_code": "CY",
    "zipcode": "7560",
    "place": "Perivolia Larnakas",
    "state": "Larnaka",
    "state_code": "03",
    "province": "",
    "province_code": "",
    "community": "",
    "community_code": "",
    "latitude": "34.8289",
    "longitude": "33.5827"
  },
  {
    "country_code": "CY",
    "zipcode": "7561",
    "place": "Softades",
    "state": "Larnaka",
    "state_code": "03",
    "province": "",
    "province_code": "",
    "community": "",
    "community_code": "",
    "latitude": "34.8277",
    "longitude": "33.5401"
  },
  {
    "country_code": "CY",
    "zipcode": "7562",
    "place": "Tersefanou",
    "state": "Larnaka",
    "state_code": "03",
    "province": "",
    "province_code": "",
    "community": "",
    "community_code": "",
    "latitude": "34.8541",
    "longitude": "33.5474"
  },
  {
    "country_code": "CY",
    "zipcode": "7570",
    "place": "Alethriko",
    "state": "Larnaka",
    "state_code": "03",
    "province": "",
    "province_code": "",
    "community": "",
    "community_code": "",
    "latitude": "34.861",
    "longitude": "33.4943"
  },
  {
    "country_code": "CY",
    "zipcode": "7571",
    "place": "Anglisides",
    "state": "Larnaka",
    "state_code": "03",
    "province": "",
    "province_code": "",
    "community": "",
    "community_code": "",
    "latitude": "34.855",
    "longitude": "33.4564"
  },
  {
    "country_code": "CY",
    "zipcode": "7572",
    "place": "Alaminos",
    "state": "Larnaka",
    "state_code": "03",
    "province": "",
    "province_code": "",
    "community": "",
    "community_code": "",
    "latitude": "34.8073",
    "longitude": "33.4348"
  },
  {
    "country_code": "CY",
    "zipcode": "7573",
    "place": "Anafotida",
    "state": "Larnaka",
    "state_code": "03",
    "province": "",
    "province_code": "",
    "community": "",
    "community_code": "",
    "latitude": "34.8244",
    "longitude": "33.4636"
  },
  {
    "country_code": "CY",
    "zipcode": "7574",
    "place": "Aplanta",
    "state": "Larnaka",
    "state_code": "03",
    "province": "",
    "province_code": "",
    "community": "",
    "community_code": "",
    "latitude": "34.8296",
    "longitude": "33.4755"
  },
  {
    "country_code": "CY",
    "zipcode": "7575",
    "place": "Kivisili",
    "state": "Larnaka",
    "state_code": "03",
    "province": "",
    "province_code": "",
    "community": "",
    "community_code": "",
    "latitude": "34.8396",
    "longitude": "33.5048"
  },
  {
    "country_code": "CY",
    "zipcode": "7576",
    "place": "Klavdia",
    "state": "Larnaka",
    "state_code": "03",
    "province": "",
    "province_code": "",
    "community": "",
    "community_code": "",
    "latitude": "34.8931",
    "longitude": "33.5149"
  },
  {
    "country_code": "CY",
    "zipcode": "7577",
    "place": "Mazotos",
    "state": "Larnaka",
    "state_code": "03",
    "province": "",
    "province_code": "",
    "community": "",
    "community_code": "",
    "latitude": "34.8036",
    "longitude": "33.4895"
  },
  {
    "country_code": "CY",
    "zipcode": "7578",
    "place": "Menogeia",
    "state": "Larnaka",
    "state_code": "03",
    "province": "",
    "province_code": "",
    "community": "",
    "community_code": "",
    "latitude": "34.8437",
    "longitude": "33.4412"
  },
  {
    "country_code": "CY",
    "zipcode": "7600",
    "place": "Athienou",
    "state": "Larnaka",
    "state_code": "03",
    "province": "",
    "province_code": "",
    "community": "",
    "community_code": "",
    "latitude": "35.0618",
    "longitude": "33.5417"
  },
  {
    "country_code": "CY",
    "zipcode": "7620",
    "place": "Arsos Larnakas",
    "state": "Larnaka",
    "state_code": "03",
    "province": "",
    "province_code": "",
    "community": "",
    "community_code": "",
    "latitude": "35.0901",
    "longitude": "33.6281"
  },
  {
    "country_code": "CY",
    "zipcode": "7621",
    "place": "Kosi",
    "state": "Larnaka",
    "state_code": "03",
    "province": "",
    "province_code": "",
    "community": "",
    "community_code": "",
    "latitude": "34.9667",
    "longitude": "33.55"
  },
  {
    "country_code": "CY",
    "zipcode": "7622",
    "place": "Melouseia",
    "state": "Larnaka",
    "state_code": "03",
    "province": "",
    "province_code": "",
    "community": "",
    "community_code": "",
    "latitude": "35.0771",
    "longitude": "33.5844"
  },
  {
    "country_code": "CY",
    "zipcode": "7623",
    "place": "Petrofani",
    "state": "Larnaka",
    "state_code": "03",
    "province": "",
    "province_code": "",
    "community": "",
    "community_code": "",
    "latitude": "35.0312",
    "longitude": "33.509"
  },
  {
    "country_code": "CY",
    "zipcode": "7624",
    "place": "Tremethousia",
    "state": "Larnaka",
    "state_code": "03",
    "province": "",
    "province_code": "",
    "community": "",
    "community_code": "",
    "latitude": "35.0413",
    "longitude": "33.5679"
  },
  {
    "country_code": "CY",
    "zipcode": "7640",
    "place": "Kornos",
    "state": "Larnaka",
    "state_code": "03",
    "province": "",
    "province_code": "",
    "community": "",
    "community_code": "",
    "latitude": "34.9222",
    "longitude": "33.3959"
  },
  {
    "country_code": "CY",
    "zipcode": "7641",
    "place": "Agia Anna",
    "state": "Larnaka",
    "state_code": "03",
    "province": "",
    "province_code": "",
    "community": "",
    "community_code": "",
    "latitude": "34.9429",
    "longitude": "33.4808"
  },
  {
    "country_code": "CY",
    "zipcode": "7642",
    "place": "Delikipos",
    "state": "Larnaka",
    "state_code": "03",
    "province": "",
    "province_code": "",
    "community": "",
    "community_code": "",
    "latitude": "34.9177",
    "longitude": "33.3618"
  },
  {
    "country_code": "CY",
    "zipcode": "7643",
    "place": "Kalo Chorio Larnakas",
    "state": "Larnaka",
    "state_code": "03",
    "province": "",
    "province_code": "",
    "community": "",
    "community_code": "",
    "latitude": "34.9285",
    "longitude": "33.5362"
  },
  {
    "country_code": "CY",
    "zipcode": "7644",
    "place": "Moni Agias Theklis",
    "state": "Larnaka",
    "state_code": "03",
    "province": "",
    "province_code": "",
    "community": "",
    "community_code": "",
    "latitude": "34.9336",
    "longitude": "33.442"
  },
  {
    "country_code": "CY",
    "zipcode": "7645",
    "place": "Moni Stavrovouniou",
    "state": "Larnaka",
    "state_code": "03",
    "province": "",
    "province_code": "",
    "community": "",
    "community_code": "",
    "latitude": "34.9336",
    "longitude": "33.442"
  },
  {
    "country_code": "CY",
    "zipcode": "7646",
    "place": "Moni Panagias Galaktotrofousis",
    "state": "Larnaka",
    "state_code": "03",
    "province": "",
    "province_code": "",
    "community": "",
    "community_code": "",
    "latitude": "34.9336",
    "longitude": "33.442"
  },
  {
    "country_code": "CY",
    "zipcode": "7647",
    "place": "Mosfiloti",
    "state": "Larnaka",
    "state_code": "03",
    "province": "",
    "province_code": "",
    "community": "",
    "community_code": "",
    "latitude": "34.9532",
    "longitude": "33.4252"
  },
  {
    "country_code": "CY",
    "zipcode": "7648",
    "place": "Pyrga Larnakas",
    "state": "Larnaka",
    "state_code": "03",
    "province": "",
    "province_code": "",
    "community": "",
    "community_code": "",
    "latitude": "34.9259",
    "longitude": "33.4338"
  },
  {
    "country_code": "CY",
    "zipcode": "7649",
    "place": "Psevdas",
    "state": "Larnaka",
    "state_code": "03",
    "province": "",
    "province_code": "",
    "community": "",
    "community_code": "",
    "latitude": "34.9448",
    "longitude": "33.4607"
  },
  {
    "country_code": "CY",
    "zipcode": "7650",
    "place": "Moni Agias Varvaras",
    "state": "Larnaka",
    "state_code": "03",
    "province": "",
    "province_code": "",
    "community": "",
    "community_code": "",
    "latitude": "34.9802",
    "longitude": "33.4923"
  },
  {
    "country_code": "CY",
    "zipcode": "7700",
    "place": "Pano Lefkara",
    "state": "Larnaka",
    "state_code": "03",
    "province": "",
    "province_code": "",
    "community": "",
    "community_code": "",
    "latitude": "34.8167",
    "longitude": "33.2833"
  },
  {
    "country_code": "CY",
    "zipcode": "7710",
    "place": "Kato Lefkara",
    "state": "Larnaka",
    "state_code": "03",
    "province": "",
    "province_code": "",
    "community": "",
    "community_code": "",
    "latitude": "34.8625",
    "longitude": "33.3168"
  },
  {
    "country_code": "CY",
    "zipcode": "7711",
    "place": "Agioi Vavatsinias",
    "state": "Larnaka",
    "state_code": "03",
    "province": "",
    "province_code": "",
    "community": "",
    "community_code": "",
    "latitude": "34.8796",
    "longitude": "33.1913"
  },
  {
    "country_code": "CY",
    "zipcode": "7712",
    "place": "Vavatsinia",
    "state": "Larnaka",
    "state_code": "03",
    "province": "",
    "province_code": "",
    "community": "",
    "community_code": "",
    "latitude": "34.8935",
    "longitude": "33.2285"
  },
  {
    "country_code": "CY",
    "zipcode": "7713",
    "place": "Vavla",
    "state": "Larnaka",
    "state_code": "03",
    "province": "",
    "province_code": "",
    "community": "",
    "community_code": "",
    "latitude": "34.8416",
    "longitude": "33.2688"
  },
  {
    "country_code": "CY",
    "zipcode": "7714",
    "place": "Kato Drys",
    "state": "Larnaka",
    "state_code": "03",
    "province": "",
    "province_code": "",
    "community": "",
    "community_code": "",
    "latitude": "34.8511",
    "longitude": "33.3043"
  },
  {
    "country_code": "CY",
    "zipcode": "7715",
    "place": "Lageia",
    "state": "Larnaka",
    "state_code": "03",
    "province": "",
    "province_code": "",
    "community": "",
    "community_code": "",
    "latitude": "34.8429",
    "longitude": "33.2467"
  },
  {
    "country_code": "CY",
    "zipcode": "7716",
    "place": "Melini",
    "state": "Larnaka",
    "state_code": "03",
    "province": "",
    "province_code": "",
    "community": "",
    "community_code": "",
    "latitude": "34.8675",
    "longitude": "33.157"
  },
  {
    "country_code": "CY",
    "zipcode": "7717",
    "place": "Moni Agiou Mina",
    "state": "Larnaka",
    "state_code": "03",
    "province": "",
    "province_code": "",
    "community": "",
    "community_code": "",
    "latitude": "34.8652",
    "longitude": "33.2289"
  },
  {
    "country_code": "CY",
    "zipcode": "7718",
    "place": "Odou",
    "state": "Larnaka",
    "state_code": "03",
    "province": "",
    "province_code": "",
    "community": "",
    "community_code": "",
    "latitude": "34.8854",
    "longitude": "33.1507"
  },
  {
    "country_code": "CY",
    "zipcode": "7719",
    "place": "Ora",
    "state": "Larnaka",
    "state_code": "03",
    "province": "",
    "province_code": "",
    "community": "",
    "community_code": "",
    "latitude": "34.8624",
    "longitude": "33.1956"
  },
  {
    "country_code": "CY",
    "zipcode": "7721",
    "place": "Parsata",
    "state": "Larnaka",
    "state_code": "03",
    "province": "",
    "province_code": "",
    "community": "",
    "community_code": "",
    "latitude": "34.8265",
    "longitude": "33.2662"
  },
  {
    "country_code": "CY",
    "zipcode": "7722",
    "place": "Drapeia",
    "state": "Larnaka",
    "state_code": "03",
    "province": "",
    "province_code": "",
    "community": "",
    "community_code": "",
    "latitude": "34.8023",
    "longitude": "33.2796"
  },
  {
    "country_code": "CY",
    "zipcode": "7730",
    "place": "Agios Theodoros Larnakas",
    "state": "Larnaka",
    "state_code": "03",
    "province": "",
    "province_code": "",
    "community": "",
    "community_code": "",
    "latitude": "34.7999",
    "longitude": "33.3847"
  },
  {
    "country_code": "CY",
    "zipcode": "7731",
    "place": "Skarinou",
    "state": "Larnaka",
    "state_code": "03",
    "province": "",
    "province_code": "",
    "community": "",
    "community_code": "",
    "latitude": "34.8192",
    "longitude": "33.3588"
  },
  {
    "country_code": "CY",
    "zipcode": "7732",
    "place": "Stathmos Skarinou",
    "state": "Larnaka",
    "state_code": "03",
    "province": "",
    "province_code": "",
    "community": "",
    "community_code": "",
    "latitude": "34.7755",
    "longitude": "33.3481"
  },
  {
    "country_code": "CY",
    "zipcode": "7733",
    "place": "Kalavasos",
    "state": "Larnaka",
    "state_code": "03",
    "province": "",
    "province_code": "",
    "community": "",
    "community_code": "",
    "latitude": "34.7584",
    "longitude": "33.308"
  },
  {
    "country_code": "CY",
    "zipcode": "7734",
    "place": "Stathmos Kalavasou",
    "state": "Larnaka",
    "state_code": "03",
    "province": "",
    "province_code": "",
    "community": "",
    "community_code": "",
    "latitude": "34.7755",
    "longitude": "33.3481"
  },
  {
    "country_code": "CY",
    "zipcode": "7735",
    "place": "Kofinou",
    "state": "Larnaka",
    "state_code": "03",
    "province": "",
    "province_code": "",
    "community": "",
    "community_code": "",
    "latitude": "34.8243",
    "longitude": "33.3913"
  },
  {
    "country_code": "CY",
    "zipcode": "7736",
    "place": "Mari",
    "state": "Larnaka",
    "state_code": "03",
    "province": "",
    "province_code": "",
    "community": "",
    "community_code": "",
    "latitude": "34.7406",
    "longitude": "33.2993"
  },
  {
    "country_code": "CY",
    "zipcode": "7737",
    "place": "Maroni",
    "state": "Larnaka",
    "state_code": "03",
    "province": "",
    "province_code": "",
    "community": "",
    "community_code": "",
    "latitude": "34.7573",
    "longitude": "33.3566"
  },
  {
    "country_code": "CY",
    "zipcode": "7738",
    "place": "Vasiliko",
    "state": "Larnaka",
    "state_code": "03",
    "province": "",
    "province_code": "",
    "community": "",
    "community_code": "",
    "latitude": "34.7755",
    "longitude": "33.3481"
  },
  {
    "country_code": "CY",
    "zipcode": "7739",
    "place": "Zygi",
    "state": "Larnaka",
    "state_code": "03",
    "province": "",
    "province_code": "",
    "community": "",
    "community_code": "",
    "latitude": "34.7289",
    "longitude": "33.3378"
  },
  {
    "country_code": "CY",
    "zipcode": "7740",
    "place": "Tochni",
    "state": "Larnaka",
    "state_code": "03",
    "province": "",
    "province_code": "",
    "community": "",
    "community_code": "",
    "latitude": "34.781",
    "longitude": "33.3236"
  },
  {
    "country_code": "CY",
    "zipcode": "7741",
    "place": "Choirokoitia",
    "state": "Larnaka",
    "state_code": "03",
    "province": "",
    "province_code": "",
    "community": "",
    "community_code": "",
    "latitude": "34.7975",
    "longitude": "33.3352"
  },
  {
    "country_code": "CY",
    "zipcode": "7742",
    "place": "Stathmos Choirokoitias",
    "state": "Larnaka",
    "state_code": "03",
    "province": "",
    "province_code": "",
    "community": "",
    "community_code": "",
    "latitude": "34.776",
    "longitude": "33.3364"
  },
  {
    "country_code": "CY",
    "zipcode": "7743",
    "place": "Psematismenos",
    "state": "Larnaka",
    "state_code": "03",
    "province": "",
    "province_code": "",
    "community": "",
    "community_code": "",
    "latitude": "34.7495",
    "longitude": "33.3504"
  },
  {
    "country_code": "CY",
    "zipcode": "1010",
    "place": "Lefkosia",
    "state": "Lefkosia",
    "state_code": "04",
    "province": "",
    "province_code": "",
    "community": "",
    "community_code": "",
    "latitude": "35.1753",
    "longitude": "33.3642"
  },
  {
    "country_code": "CY",
    "zipcode": "1011",
    "place": "Lefkosia",
    "state": "Lefkosia",
    "state_code": "04",
    "province": "",
    "province_code": "",
    "community": "",
    "community_code": "",
    "latitude": "35.1753",
    "longitude": "33.3642"
  },
  {
    "country_code": "CY",
    "zipcode": "1015",
    "place": "Lefkosia",
    "state": "Lefkosia",
    "state_code": "04",
    "province": "",
    "province_code": "",
    "community": "",
    "community_code": "",
    "latitude": "35.1753",
    "longitude": "33.3642"
  },
  {
    "country_code": "CY",
    "zipcode": "1016",
    "place": "Lefkosia",
    "state": "Lefkosia",
    "state_code": "04",
    "province": "",
    "province_code": "",
    "community": "",
    "community_code": "",
    "latitude": "35.1753",
    "longitude": "33.3642"
  },
  {
    "country_code": "CY",
    "zipcode": "1017",
    "place": "Lefkosia",
    "state": "Lefkosia",
    "state_code": "04",
    "province": "",
    "province_code": "",
    "community": "",
    "community_code": "",
    "latitude": "35.1753",
    "longitude": "33.3642"
  },
  {
    "country_code": "CY",
    "zipcode": "1020",
    "place": "Lefkosia (Kaimakli)",
    "state": "Lefkosia",
    "state_code": "04",
    "province": "",
    "province_code": "",
    "community": "",
    "community_code": "",
    "latitude": "35.1755",
    "longitude": "33.372"
  },
  {
    "country_code": "CY",
    "zipcode": "1021",
    "place": "Lefkosia (Kaimakli)",
    "state": "Lefkosia",
    "state_code": "04",
    "province": "",
    "province_code": "",
    "community": "",
    "community_code": "",
    "latitude": "35.1755",
    "longitude": "33.372"
  },
  {
    "country_code": "CY",
    "zipcode": "1022",
    "place": "Lefkosia (Kaimakli)",
    "state": "Lefkosia",
    "state_code": "04",
    "province": "",
    "province_code": "",
    "community": "",
    "community_code": "",
    "latitude": "35.1755",
    "longitude": "33.372"
  },
  {
    "country_code": "CY",
    "zipcode": "1025",
    "place": "Lefkosia (Kaimakli)",
    "state": "Lefkosia",
    "state_code": "04",
    "province": "",
    "province_code": "",
    "community": "",
    "community_code": "",
    "latitude": "35.1755",
    "longitude": "33.372"
  },
  {
    "country_code": "CY",
    "zipcode": "1026",
    "place": "Lefkosia (Kaimakli)",
    "state": "Lefkosia",
    "state_code": "04",
    "province": "",
    "province_code": "",
    "community": "",
    "community_code": "",
    "latitude": "35.1755",
    "longitude": "33.372"
  },
  {
    "country_code": "CY",
    "zipcode": "1027",
    "place": "Lefkosia (Kaimakli)",
    "state": "Lefkosia",
    "state_code": "04",
    "province": "",
    "province_code": "",
    "community": "",
    "community_code": "",
    "latitude": "35.1755",
    "longitude": "33.372"
  },
  {
    "country_code": "CY",
    "zipcode": "1028",
    "place": "Lefkosia (Kaimakli)",
    "state": "Lefkosia",
    "state_code": "04",
    "province": "",
    "province_code": "",
    "community": "",
    "community_code": "",
    "latitude": "35.1755",
    "longitude": "33.372"
  },
  {
    "country_code": "CY",
    "zipcode": "1035",
    "place": "Lefkosia (Pallouriotissa)",
    "state": "Lefkosia",
    "state_code": "04",
    "province": "",
    "province_code": "",
    "community": "",
    "community_code": "",
    "latitude": "35.1759",
    "longitude": "33.3907"
  },
  {
    "country_code": "CY",
    "zipcode": "1036",
    "place": "Lefkosia (Pallouriotissa)",
    "state": "Lefkosia",
    "state_code": "04",
    "province": "",
    "province_code": "",
    "community": "",
    "community_code": "",
    "latitude": "35.1759",
    "longitude": "33.3907"
  },
  {
    "country_code": "CY",
    "zipcode": "1036",
    "place": "Lefkosia (Kaimakli)",
    "state": "Lefkosia",
    "state_code": "04",
    "province": "",
    "province_code": "",
    "community": "",
    "community_code": "",
    "latitude": "35.1759",
    "longitude": "33.3907"
  },
  {
    "country_code": "CY",
    "zipcode": "1037",
    "place": "Lefkosia (Kaimakli)",
    "state": "Lefkosia",
    "state_code": "04",
    "province": "",
    "province_code": "",
    "community": "",
    "community_code": "",
    "latitude": "35.1759",
    "longitude": "33.3907"
  },
  {
    "country_code": "CY",
    "zipcode": "1040",
    "place": "Lefkosia (Pallouriotissa)",
    "state": "Lefkosia",
    "state_code": "04",
    "province": "",
    "province_code": "",
    "community": "",
    "community_code": "",
    "latitude": "35.1759",
    "longitude": "33.3907"
  },
  {
    "country_code": "CY",
    "zipcode": "1041",
    "place": "Lefkosia (Pallouriotissa)",
    "state": "Lefkosia",
    "state_code": "04",
    "province": "",
    "province_code": "",
    "community": "",
    "community_code": "",
    "latitude": "35.1759",
    "longitude": "33.3907"
  },
  {
    "country_code": "CY",
    "zipcode": "1042",
    "place": "Lefkosia (Pallouriotissa)",
    "state": "Lefkosia",
    "state_code": "04",
    "province": "",
    "province_code": "",
    "community": "",
    "community_code": "",
    "latitude": "35.1759",
    "longitude": "33.3907"
  },
  {
    "country_code": "CY",
    "zipcode": "1045",
    "place": "Lefkosia (Pallouriotissa)",
    "state": "Lefkosia",
    "state_code": "04",
    "province": "",
    "province_code": "",
    "community": "",
    "community_code": "",
    "latitude": "35.1759",
    "longitude": "33.3907"
  },
  {
    "country_code": "CY",
    "zipcode": "1046",
    "place": "Lefkosia (Pallouriotissa)",
    "state": "Lefkosia",
    "state_code": "04",
    "province": "",
    "province_code": "",
    "community": "",
    "community_code": "",
    "latitude": "35.1759",
    "longitude": "33.3907"
  },
  {
    "country_code": "CY",
    "zipcode": "1047",
    "place": "Lefkosia (Pallouriotissa)",
    "state": "Lefkosia",
    "state_code": "04",
    "province": "",
    "province_code": "",
    "community": "",
    "community_code": "",
    "latitude": "35.1759",
    "longitude": "33.3907"
  },
  {
    "country_code": "CY",
    "zipcode": "1048",
    "place": "Lefkosia (Pallouriotissa)",
    "state": "Lefkosia",
    "state_code": "04",
    "province": "",
    "province_code": "",
    "community": "",
    "community_code": "",
    "latitude": "35.1759",
    "longitude": "33.3907"
  },
  {
    "country_code": "CY",
    "zipcode": "1049",
    "place": "Lefkosia (Pallouriotissa)",
    "state": "Lefkosia",
    "state_code": "04",
    "province": "",
    "province_code": "",
    "community": "",
    "community_code": "",
    "latitude": "35.1759",
    "longitude": "33.3907"
  },
  {
    "country_code": "CY",
    "zipcode": "1055",
    "place": "Lefkosia (Lykavittos)",
    "state": "Lefkosia",
    "state_code": "04",
    "province": "",
    "province_code": "",
    "community": "",
    "community_code": "",
    "latitude": "35.1755",
    "longitude": "33.372"
  },
  {
    "country_code": "CY",
    "zipcode": "1056",
    "place": "Lefkosia (Lykavittos)",
    "state": "Lefkosia",
    "state_code": "04",
    "province": "",
    "province_code": "",
    "community": "",
    "community_code": "",
    "latitude": "35.1755",
    "longitude": "33.372"
  },
  {
    "country_code": "CY",
    "zipcode": "1057",
    "place": "Lefkosia (Lykavittos)",
    "state": "Lefkosia",
    "state_code": "04",
    "province": "",
    "province_code": "",
    "community": "",
    "community_code": "",
    "latitude": "35.1755",
    "longitude": "33.372"
  },
  {
    "country_code": "CY",
    "zipcode": "1060",
    "place": "Lefkosia",
    "state": "Lefkosia",
    "state_code": "04",
    "province": "",
    "province_code": "",
    "community": "",
    "community_code": "",
    "latitude": "35.1753",
    "longitude": "33.3642"
  },
  {
    "country_code": "CY",
    "zipcode": "1061",
    "place": "Lefkosia",
    "state": "Lefkosia",
    "state_code": "04",
    "province": "",
    "province_code": "",
    "community": "",
    "community_code": "",
    "latitude": "35.1753",
    "longitude": "33.3642"
  },
  {
    "country_code": "CY",
    "zipcode": "1065",
    "place": "Lefkosia",
    "state": "Lefkosia",
    "state_code": "04",
    "province": "",
    "province_code": "",
    "community": "",
    "community_code": "",
    "latitude": "35.1753",
    "longitude": "33.3642"
  },
  {
    "country_code": "CY",
    "zipcode": "1066",
    "place": "Lefkosia",
    "state": "Lefkosia",
    "state_code": "04",
    "province": "",
    "province_code": "",
    "community": "",
    "community_code": "",
    "latitude": "35.1753",
    "longitude": "33.3642"
  },
  {
    "country_code": "CY",
    "zipcode": "1070",
    "place": "Lefkosia",
    "state": "Lefkosia",
    "state_code": "04",
    "province": "",
    "province_code": "",
    "community": "",
    "community_code": "",
    "latitude": "35.1753",
    "longitude": "33.3642"
  },
  {
    "country_code": "CY",
    "zipcode": "1071",
    "place": "Lefkosia",
    "state": "Lefkosia",
    "state_code": "04",
    "province": "",
    "province_code": "",
    "community": "",
    "community_code": "",
    "latitude": "35.1753",
    "longitude": "33.3642"
  },
  {
    "country_code": "CY",
    "zipcode": "1075",
    "place": "Lefkosia",
    "state": "Lefkosia",
    "state_code": "04",
    "province": "",
    "province_code": "",
    "community": "",
    "community_code": "",
    "latitude": "35.1753",
    "longitude": "33.3642"
  },
  {
    "country_code": "CY",
    "zipcode": "1076",
    "place": "Lefkosia",
    "state": "Lefkosia",
    "state_code": "04",
    "province": "",
    "province_code": "",
    "community": "",
    "community_code": "",
    "latitude": "35.1753",
    "longitude": "33.3642"
  },
  {
    "country_code": "CY",
    "zipcode": "1077",
    "place": "Lefkosia",
    "state": "Lefkosia",
    "state_code": "04",
    "province": "",
    "province_code": "",
    "community": "",
    "community_code": "",
    "latitude": "35.1753",
    "longitude": "33.3642"
  },
  {
    "country_code": "CY",
    "zipcode": "1080",
    "place": "Lefkosia",
    "state": "Lefkosia",
    "state_code": "04",
    "province": "",
    "province_code": "",
    "community": "",
    "community_code": "",
    "latitude": "35.1753",
    "longitude": "33.3642"
  },
  {
    "country_code": "CY",
    "zipcode": "1081",
    "place": "Lefkosia",
    "state": "Lefkosia",
    "state_code": "04",
    "province": "",
    "province_code": "",
    "community": "",
    "community_code": "",
    "latitude": "35.1753",
    "longitude": "33.3642"
  },
  {
    "country_code": "CY",
    "zipcode": "1082",
    "place": "Lefkosia",
    "state": "Lefkosia",
    "state_code": "04",
    "province": "",
    "province_code": "",
    "community": "",
    "community_code": "",
    "latitude": "35.1753",
    "longitude": "33.3642"
  },
  {
    "country_code": "CY",
    "zipcode": "1085",
    "place": "Lefkosia",
    "state": "Lefkosia",
    "state_code": "04",
    "province": "",
    "province_code": "",
    "community": "",
    "community_code": "",
    "latitude": "35.1753",
    "longitude": "33.3642"
  },
  {
    "country_code": "CY",
    "zipcode": "1086",
    "place": "Lefkosia",
    "state": "Lefkosia",
    "state_code": "04",
    "province": "",
    "province_code": "",
    "community": "",
    "community_code": "",
    "latitude": "35.1753",
    "longitude": "33.3642"
  },
  {
    "country_code": "CY",
    "zipcode": "1087",
    "place": "Lefkosia",
    "state": "Lefkosia",
    "state_code": "04",
    "province": "",
    "province_code": "",
    "community": "",
    "community_code": "",
    "latitude": "35.1753",
    "longitude": "33.3642"
  },
  {
    "country_code": "CY",
    "zipcode": "1090",
    "place": "Lefkosia",
    "state": "Lefkosia",
    "state_code": "04",
    "province": "",
    "province_code": "",
    "community": "",
    "community_code": "",
    "latitude": "35.1753",
    "longitude": "33.3642"
  },
  {
    "country_code": "CY",
    "zipcode": "1095",
    "place": "Lefkosia",
    "state": "Lefkosia",
    "state_code": "04",
    "province": "",
    "province_code": "",
    "community": "",
    "community_code": "",
    "latitude": "35.1753",
    "longitude": "33.3642"
  },
  {
    "country_code": "CY",
    "zipcode": "1096",
    "place": "Lefkosia",
    "state": "Lefkosia",
    "state_code": "04",
    "province": "",
    "province_code": "",
    "community": "",
    "community_code": "",
    "latitude": "35.1753",
    "longitude": "33.3642"
  },
  {
    "country_code": "CY",
    "zipcode": "1097",
    "place": "Lefkosia",
    "state": "Lefkosia",
    "state_code": "04",
    "province": "",
    "province_code": "",
    "community": "",
    "community_code": "",
    "latitude": "35.1753",
    "longitude": "33.3642"
  },
  {
    "country_code": "CY",
    "zipcode": "1100",
    "place": "Lefkosia",
    "state": "Lefkosia",
    "state_code": "04",
    "province": "",
    "province_code": "",
    "community": "",
    "community_code": "",
    "latitude": "35.1753",
    "longitude": "33.3642"
  },
  {
    "country_code": "CY",
    "zipcode": "1101",
    "place": "Lefkosia",
    "state": "Lefkosia",
    "state_code": "04",
    "province": "",
    "province_code": "",
    "community": "",
    "community_code": "",
    "latitude": "35.1753",
    "longitude": "33.3642"
  },
  {
    "country_code": "CY",
    "zipcode": "1102",
    "place": "Lefkosia",
    "state": "Lefkosia",
    "state_code": "04",
    "province": "",
    "province_code": "",
    "community": "",
    "community_code": "",
    "latitude": "35.1753",
    "longitude": "33.3642"
  },
  {
    "country_code": "CY",
    "zipcode": "1105",
    "place": "Lefkosia",
    "state": "Lefkosia",
    "state_code": "04",
    "province": "",
    "province_code": "",
    "community": "",
    "community_code": "",
    "latitude": "35.1753",
    "longitude": "33.3642"
  },