[
  {
    "country_code": "CH",
    "zipcode": "5000",
    "place": "Aarau",
    "state": "Kanton Aargau",
    "state_code": "AG",
    "province": "Bezirk Aarau",
    "province_code": "1901",
    "community": "Aarau",
    "community_code": "4001",
    "latitude": "47.3887",
    "longitude": "8.0483"
  },
  {
    "country_code": "CH",
    "zipcode": "5001",
    "place": "Aarau 1",
    "state": "Kanton Aargau",
    "state_code": "AG",
    "province": "Bezirk Aarau",
    "province_code": "1901",
    "community": "Aarau",
    "community_code": "4001",
    "latitude": "47.3888",
    "longitude": "8.0483"
  },
  {
    "country_code": "CH",
    "zipcode": "5004",
    "place": "Aarau",
    "state": "Kanton Aargau",
    "state_code": "AG",
    "province": "Bezirk Aarau",
    "province_code": "1901",
    "community": "Aarau",
    "community_code": "4001",
    "latitude": "47.4007",
    "longitude": "8.0607"
  },
  {
    "country_code": "CH",
    "zipcode": "5017",
    "place": "Barmelweid",
    "state": "Kanton Aargau",
    "state_code": "AG",
    "province": "Bezirk Aarau",
    "province_code": "1901",
    "community": "Erlinsbach (AG)",
    "community_code": "4005",
    "latitude": "47.4219",
    "longitude": "7.9722"
  },
  {
    "country_code": "CH",
    "zipcode": "5018",
    "place": "Erlinsbach",
    "state": "Kanton Aargau",
    "state_code": "AG",
    "province": "Bezirk Aarau",
    "province_code": "1901",
    "community": "Erlinsbach (AG)",
    "community_code": "4005",
    "latitude": "47.4143",
    "longitude": "8.0077"
  },
  {
    "country_code": "CH",
    "zipcode": "5022",
    "place": "Rombach",
    "state": "Kanton Aargau",
    "state_code": "AG",
    "province": "Bezirk Aarau",
    "province_code": "1901",
    "community": "Küttigen",
    "community_code": "4008",
    "latitude": "47.4052",
    "longitude": "8.0456"
  },
  {
    "country_code": "CH",
    "zipcode": "5023",
    "place": "Biberstein",
    "state": "Kanton Aargau",
    "state_code": "AG",
    "province": "Bezirk Aarau",
    "province_code": "1901",
    "community": "Biberstein",
    "community_code": "4002",
    "latitude": "47.4188",
    "longitude": "8.083"
  },
  {
    "country_code": "CH",
    "zipcode": "5024",
    "place": "Küttigen",
    "state": "Kanton Aargau",
    "state_code": "AG",
    "province": "Bezirk Aarau",
    "province_code": "1901",
    "community": "Küttigen",
    "community_code": "4008",
    "latitude": "47.4221",
    "longitude": "8.0439"
  },
  {
    "country_code": "CH",
    "zipcode": "5025",
    "place": "Asp",
    "state": "Kanton Aargau",
    "state_code": "AG",
    "province": "Bezirk Aarau",
    "province_code": "1901",
    "community": "Densbüren",
    "community_code": "4004",
    "latitude": "47.4421",
    "longitude": "8.0506"
  },
  {
    "country_code": "CH",
    "zipcode": "5026",
    "place": "Densbüren",
    "state": "Kanton Aargau",
    "state_code": "AG",
    "province": "Bezirk Aarau",
    "province_code": "1901",
    "community": "Densbüren",
    "community_code": "4004",
    "latitude": "47.4566",
    "longitude": "8.0599"
  },
  {
    "country_code": "CH",
    "zipcode": "5032",
    "place": "Aarau Rohr",
    "state": "Kanton Aargau",
    "state_code": "AG",
    "province": "Bezirk Aarau",
    "province_code": "1901",
    "community": "Aarau",
    "community_code": "4001",
    "latitude": "47.4055",
    "longitude": "8.0841"
  },
  {
    "country_code": "CH",
    "zipcode": "5033",
    "place": "Buchs AG",
    "state": "Kanton Aargau",
    "state_code": "AG",
    "province": "Bezirk Aarau",
    "province_code": "1901",
    "community": "Buchs (AG)",
    "community_code": "4003",
    "latitude": "47.3937",
    "longitude": "8.0879"
  },
  {
    "country_code": "CH",
    "zipcode": "5034",
    "place": "Suhr",
    "state": "Kanton Aargau",
    "state_code": "AG",
    "province": "Bezirk Aarau",
    "province_code": "1901",
    "community": "Suhr",
    "community_code": "4012",
    "latitude": "47.3749",
    "longitude": "8.084"
  },
  {
    "country_code": "CH",
    "zipcode": "5035",
    "place": "Unterentfelden",
    "state": "Kanton Aargau",
    "state_code": "AG",
    "province": "Bezirk Aarau",
    "province_code": "1901",
    "community": "Unterentfelden",
    "community_code": "4013",
    "latitude": "47.3684",
    "longitude": "8.0427"
  },
  {
    "country_code": "CH",
    "zipcode": "5036",
    "place": "Oberentfelden",
    "state": "Kanton Aargau",
    "state_code": "AG",
    "province": "Bezirk Aarau",
    "province_code": "1901",
    "community": "Oberentfelden",
    "community_code": "4010",
    "latitude": "47.3542",
    "longitude": "8.0413"
  },
  {
    "country_code": "CH",
    "zipcode": "5037",
    "place": "Muhen",
    "state": "Kanton Aargau",
    "state_code": "AG",
    "province": "Bezirk Aarau",
    "province_code": "1901",
    "community": "Muhen",
    "community_code": "4009",
    "latitude": "47.3329",
    "longitude": "8.0627"
  },
  {
    "country_code": "CH",
    "zipcode": "5042",
    "place": "Hirschthal",
    "state": "Kanton Aargau",
    "state_code": "AG",
    "province": "Bezirk Aarau",
    "province_code": "1901",
    "community": "Hirschthal",
    "community_code": "4007",
    "latitude": "47.3176",
    "longitude": "8.0671"
  },
  {
    "country_code": "CH",
    "zipcode": "5722",
    "place": "Gränichen",
    "state": "Kanton Aargau",
    "state_code": "AG",
    "province": "Bezirk Aarau",
    "province_code": "1901",
    "community": "Gränichen",
    "community_code": "4006",
    "latitude": "47.3516",
    "longitude": "8.1066"
  },
  {
    "country_code": "CH",
    "zipcode": "5300",
    "place": "Turgi",
    "state": "Kanton Aargau",
    "state_code": "AG",
    "province": "Bezirk Baden",
    "province_code": "1902",
    "community": "Turgi",
    "community_code": "4042",
    "latitude": "47.4901",
    "longitude": "8.2561"
  },
  {
    "country_code": "CH",
    "zipcode": "5301",
    "place": "Siggenthal Station",
    "state": "Kanton Aargau",
    "state_code": "AG",
    "province": "Bezirk Baden",
    "province_code": "1902",
    "community": "Untersiggenthal",
    "community_code": "4044",
    "latitude": "47.5152",
    "longitude": "8.238"
  },
  {
    "country_code": "CH",
    "zipcode": "5303",
    "place": "Würenlingen",
    "state": "Kanton Aargau",
    "state_code": "AG",
    "province": "Bezirk Baden",
    "province_code": "1902",
    "community": "Würenlingen",
    "community_code": "4047",
    "latitude": "47.5321",
    "longitude": "8.2492"
  },
  {
    "country_code": "CH",
    "zipcode": "5400",
    "place": "Baden",
    "state": "Kanton Aargau",
    "state_code": "AG",
    "province": "Bezirk Baden",
    "province_code": "1902",
    "community": "Baden",
    "community_code": "4021",
    "latitude": "47.4721",
    "longitude": "8.2914"
  },
  {
    "country_code": "CH",
    "zipcode": "5401",
    "place": "Baden",
    "state": "Kanton Aargau",
    "state_code": "AG",
    "province": "Bezirk Baden",
    "province_code": "1902",
    "community": "Baden",
    "community_code": "4021",
    "latitude": "47.4733",
    "longitude": "8.3059"
  },
  {
    "country_code": "CH",
    "zipcode": "5402",
    "place": "Baden",
    "state": "Kanton Aargau",
    "state_code": "AG",
    "province": "Bezirk Baden",
    "province_code": "1902",
    "community": "Baden",
    "community_code": "4021",
    "latitude": "47.4733",
    "longitude": "8.3059"
  },
  {
    "country_code": "CH",
    "zipcode": "5404",
    "place": "Baden",
    "state": "Kanton Aargau",
    "state_code": "AG",
    "province": "Bezirk Baden",
    "province_code": "1902",
    "community": "Baden",
    "community_code": "4021",
    "latitude": "47.4549",
    "longitude": "8.2783"
  },
  {
    "country_code": "CH",
    "zipcode": "5405",
    "place": "Baden",
    "state": "Kanton Aargau",
    "state_code": "AG",
    "province": "Bezirk Baden",
    "province_code": "1902",
    "community": "Baden",
    "community_code": "4021",
    "latitude": "47.4733",
    "longitude": "8.3059"
  },
  {
    "country_code": "CH",
    "zipcode": "5405",
    "place": "Dättwil AG",
    "state": "Kanton Aargau",
    "state_code": "AG",
    "province": "Bezirk Baden",
    "province_code": "1902",
    "community": "Baden",
    "community_code": "4021",
    "latitude": "47.4537",
    "longitude": "8.2899"
  },
  {
    "country_code": "CH",
    "zipcode": "5406",
    "place": "Baden",
    "state": "Kanton Aargau",
    "state_code": "AG",
    "province": "Bezirk Baden",
    "province_code": "1902",
    "community": "Baden",
    "community_code": "4021",
    "latitude": "47.4733",
    "longitude": "8.3059"
  },
  {
    "country_code": "CH",
    "zipcode": "5406",
    "place": "Rütihof",
    "state": "Kanton Aargau",
    "state_code": "AG",
    "province": "Bezirk Baden",
    "province_code": "1902",
    "community": "Baden",
    "community_code": "4021",
    "latitude": "47.4381",
    "longitude": "8.2659"
  },
  {
    "country_code": "CH",
    "zipcode": "5408",
    "place": "Ennetbaden",
    "state": "Kanton Aargau",
    "state_code": "AG",
    "province": "Bezirk Baden",
    "province_code": "1902",
    "community": "Ennetbaden",
    "community_code": "4026",
    "latitude": "47.4804",
    "longitude": "8.3235"
  },
  {
    "country_code": "CH",
    "zipcode": "5412",
    "place": "Gebenstorf",
    "state": "Kanton Aargau",
    "state_code": "AG",
    "province": "Bezirk Baden",
    "province_code": "1902",
    "community": "Gebenstorf",
    "community_code": "4029",
    "latitude": "47.4782",
    "longitude": "8.2487"
  },
  {
    "country_code": "CH",
    "zipcode": "5412",
    "place": "Vogelsang AG",
    "state": "Kanton Aargau",
    "state_code": "AG",
    "province": "Bezirk Baden",
    "province_code": "1902",
    "community": "Gebenstorf",
    "community_code": "4029",
    "latitude": "47.4974",
    "longitude": "8.2393"
  },
  {
    "country_code": "CH",
    "zipcode": "5413",
    "place": "Birmenstorf AG",
    "state": "Kanton Aargau",
    "state_code": "AG",
    "province": "Bezirk Baden",
    "province_code": "1902",
    "community": "Birmenstorf (AG)",
    "community_code": "4024",
    "latitude": "47.4558",
    "longitude": "8.2562"
  },
  {
    "country_code": "CH",
    "zipcode": "5415",
    "place": "Nussbaumen AG",
    "state": "Kanton Aargau",
    "state_code": "AG",
    "province": "Bezirk Baden",
    "province_code": "1902",
    "community": "Obersiggenthal",
    "community_code": "4038",
    "latitude": "47.4935",
    "longitude": "8.2967"
  },
  {
    "country_code": "CH",
    "zipcode": "5415",
    "place": "Rieden AG",
    "state": "Kanton Aargau",
    "state_code": "AG",
    "province": "Bezirk Baden",
    "province_code": "1902",
    "community": "Obersiggenthal",
    "community_code": "4038",
    "latitude": "47.4839",
    "longitude": "8.304"
  },
  {
    "country_code": "CH",
    "zipcode": "5415",
    "place": "Hertenstein AG",
    "state": "Kanton Aargau",
    "state_code": "AG",
    "province": "Bezirk Baden",
    "province_code": "1902",
    "community": "Obersiggenthal",
    "community_code": "4038",
    "latitude": "47.4888",
    "longitude": "8.3158"
  },
  {
    "country_code": "CH",
    "zipcode": "5416",
    "place": "Kirchdorf AG",
    "state": "Kanton Aargau",
    "state_code": "AG",
    "province": "Bezirk Baden",
    "province_code": "1902",
    "community": "Obersiggenthal",
    "community_code": "4038",
    "latitude": "47.499",
    "longitude": "8.2801"
  },
  {
    "country_code": "CH",
    "zipcode": "5417",
    "place": "Untersiggenthal",
    "state": "Kanton Aargau",
    "state_code": "AG",
    "province": "Bezirk Baden",
    "province_code": "1902",
    "community": "Untersiggenthal",
    "community_code": "4044",
    "latitude": "47.5067",
    "longitude": "8.2584"
  },
  {
    "country_code": "CH",
    "zipcode": "5420",
    "place": "Ehrendingen",
    "state": "Kanton Aargau",
    "state_code": "AG",
    "province": "Bezirk Baden",
    "province_code": "1902",
    "community": "Ehrendingen",
    "community_code": "4049",
    "latitude": "47.4943",
    "longitude": "8.3468"
  },
  {
    "country_code": "CH",
    "zipcode": "5423",
    "place": "Freienwil",
    "state": "Kanton Aargau",
    "state_code": "AG",
    "province": "Bezirk Baden",
    "province_code": "1902",
    "community": "Freienwil",
    "community_code": "4028",
    "latitude": "47.5014",
    "longitude": "8.319"
  },
  {
    "country_code": "CH",
    "zipcode": "5430",
    "place": "Wettingen",
    "state": "Kanton Aargau",
    "state_code": "AG",
    "province": "Bezirk Baden",
    "province_code": "1902",
    "community": "Wettingen",
    "community_code": "4045",
    "latitude": "47.4666",
    "longitude": "8.3412"
  },
  {
    "country_code": "CH",
    "zipcode": "5430",
    "place": "Wettingen 1",
    "state": "Kanton Aargau",
    "state_code": "AG",
    "province": "Bezirk Baden",
    "province_code": "1902",
    "community": "Wettingen",
    "community_code": "4045",
    "latitude": "47.4668",
    "longitude": "8.3412"
  },
  {
    "country_code": "CH",
    "zipcode": "5430",
    "place": "Wettingen 3",
    "state": "Kanton Aargau",
    "state_code": "AG",
    "province": "Bezirk Baden",
    "province_code": "1902",
    "community": "Wettingen",
    "community_code": "4045",
    "latitude": "47.4668",
    "longitude": "8.3412"
  },
  {
    "country_code": "CH",
    "zipcode": "5432",
    "place": "Neuenhof",
    "state": "Kanton Aargau",
    "state_code": "AG",
    "province": "Bezirk Baden",
    "province_code": "1902",
    "community": "Neuenhof",
    "community_code": "4034",
    "latitude": "47.4441",
    "longitude": "8.3251"
  },
  {
    "country_code": "CH",
    "zipcode": "5436",
    "place": "Würenlos",
    "state": "Kanton Aargau",
    "state_code": "AG",
    "province": "Bezirk Baden",
    "province_code": "1902",
    "community": "Würenlos",
    "community_code": "4048",
    "latitude": "47.4473",
    "longitude": "8.3639"
  },
  {
    "country_code": "CH",
    "zipcode": "5442",
    "place": "Fislisbach",
    "state": "Kanton Aargau",
    "state_code": "AG",
    "province": "Bezirk Baden",
    "province_code": "1902",
    "community": "Fislisbach",
    "community_code": "4027",
    "latitude": "47.4374",
    "longitude": "8.2907"
  },
  {
    "country_code": "CH",
    "zipcode": "5443",
    "place": "Niederrohrdorf",
    "state": "Kanton Aargau",
    "state_code": "AG",
    "province": "Bezirk Baden",
    "province_code": "1902",
    "community": "Niederrohrdorf",
    "community_code": "4035",
    "latitude": "47.4201",
    "longitude": "8.3013"
  },
  {
    "country_code": "CH",
    "zipcode": "5444",
    "place": "Künten",
    "state": "Kanton Aargau",
    "state_code": "AG",
    "province": "Bezirk Baden",
    "province_code": "1902",
    "community": "Künten",
    "community_code": "4031",
    "latitude": "47.386",
    "longitude": "8.3254"
  },
  {
    "country_code": "CH",
    "zipcode": "5452",
    "place": "Oberrohrdorf",
    "state": "Kanton Aargau",
    "state_code": "AG",
    "province": "Bezirk Baden",
    "province_code": "1902",
    "community": "Oberrohrdorf",
    "community_code": "4037",
    "latitude": "47.4251",
    "longitude": "8.3205"
  },
  {
    "country_code": "CH",
    "zipcode": "5453",
    "place": "Remetschwil",
    "state": "Kanton Aargau",
    "state_code": "AG",
    "province": "Bezirk Baden",
    "province_code": "1902",
    "community": "Remetschwil",
    "community_code": "4039",
    "latitude": "47.4083",
    "longitude": "8.3319"
  },
  {
    "country_code": "CH",
    "zipcode": "5454",
    "place": "Bellikon",
    "state": "Kanton Aargau",
    "state_code": "AG",
    "province": "Bezirk Baden",
    "province_code": "1902",
    "community": "Bellikon",
    "community_code": "4022",
    "latitude": "47.3916",
    "longitude": "8.3494"
  },
  {
    "country_code": "CH",
    "zipcode": "5506",
    "place": "Mägenwil",
    "state": "Kanton Aargau",
    "state_code": "AG",
    "province": "Bezirk Baden",
    "province_code": "1902",
    "community": "Mägenwil",
    "community_code": "4032",
    "latitude": "47.4123",
    "longitude": "8.2342"
  },
  {
    "country_code": "CH",
    "zipcode": "5507",
    "place": "Mellingen",
    "state": "Kanton Aargau",
    "state_code": "AG",
    "province": "Bezirk Baden",
    "province_code": "1902",
    "community": "Mellingen",
    "community_code": "4033",
    "latitude": "47.4211",
    "longitude": "8.2742"
  },
  {
    "country_code": "CH",
    "zipcode": "5512",
    "place": "Wohlenschwil",
    "state": "Kanton Aargau",
    "state_code": "AG",
    "province": "Bezirk Baden",
    "province_code": "1902",
    "community": "Wohlenschwil",
    "community_code": "4046",
    "latitude": "47.4167",
    "longitude": "8.2543"
  },
  {
    "country_code": "CH",
    "zipcode": "5608",
    "place": "Stetten AG",
    "state": "Kanton Aargau",
    "state_code": "AG",
    "province": "Bezirk Baden",
    "province_code": "1902",
    "community": "Stetten (AG)",
    "community_code": "4041",
    "latitude": "47.4013",
    "longitude": "8.3051"
  },
  {
    "country_code": "CH",
    "zipcode": "8109",
    "place": "Kloster Fahr",
    "state": "Kanton Aargau",
    "state_code": "AG",
    "province": "Bezirk Baden",
    "province_code": "1902",
    "community": "Würenlos",
    "community_code": "4048",
    "latitude": "47.4083",
    "longitude": "8.4391"
  },
  {
    "country_code": "CH",
    "zipcode": "8956",
    "place": "Killwangen",
    "state": "Kanton Aargau",
    "state_code": "AG",
    "province": "Bezirk Baden",
    "province_code": "1902",
    "community": "Killwangen",
    "community_code": "4030",
    "latitude": "47.428",
    "longitude": "8.3443"
  },
  {
    "country_code": "CH",
    "zipcode": "8957",
    "place": "Spreitenbach",
    "state": "Kanton Aargau",
    "state_code": "AG",
    "province": "Bezirk Baden",
    "province_code": "1902",
    "community": "Spreitenbach",
    "community_code": "4040",
    "latitude": "47.418",
    "longitude": "8.3672"
  },
  {
    "country_code": "CH",
    "zipcode": "8962",
    "place": "Bergdietikon",
    "state": "Kanton Aargau",
    "state_code": "AG",
    "province": "Bezirk Baden",
    "province_code": "1902",
    "community": "Bergdietikon",
    "community_code": "4023",
    "latitude": "47.3881",
    "longitude": "8.3785"
  },
  {
    "country_code": "CH",
    "zipcode": "5445",
    "place": "Eggenwil",
    "state": "Kanton Aargau",
    "state_code": "AG",
    "province": "Bezirk Bremgarten",
    "province_code": "1903",
    "community": "Eggenwil",
    "community_code": "4066",
    "latitude": "47.3716",
    "longitude": "8.3385"
  },
  {
    "country_code": "CH",
    "zipcode": "5522",
    "place": "Tägerig",
    "state": "Kanton Aargau",
    "state_code": "AG",
    "province": "Bezirk Bremgarten",
    "province_code": "1903",
    "community": "Tägerig",
    "community_code": "4077",
    "latitude": "47.3992",
    "longitude": "8.2789"
  },
  {
    "country_code": "CH",
    "zipcode": "5524",
    "place": "Niederwil AG",
    "state": "Kanton Aargau",
    "state_code": "AG",
    "province": "Bezirk Bremgarten",
    "province_code": "1903",
    "community": "Niederwil (AG)",
    "community_code": "4072",
    "latitude": "47.3763",
    "longitude": "8.2905"
  },
  {
    "country_code": "CH",
    "zipcode": "5524",
    "place": "Nesselnbach",
    "state": "Kanton Aargau",
    "state_code": "AG",
    "province": "Bezirk Bremgarten",
    "province_code": "1903",
    "community": "Niederwil (AG)",
    "community_code": "4072",
    "latitude": "47.3906",
    "longitude": "8.2968"
  },
  {
    "country_code": "CH",
    "zipcode": "5525",
    "place": "Fischbach-Göslikon",
    "state": "Kanton Aargau",
    "state_code": "AG",
    "province": "Bezirk Bremgarten",
    "province_code": "1903",
    "community": "Fischbach-Göslikon",
    "community_code": "4067",
    "latitude": "47.3691",
    "longitude": "8.3111"
  },
  {
    "country_code": "CH",
    "zipcode": "5605",
    "place": "Dottikon",
    "state": "Kanton Aargau",
    "state_code": "AG",
    "province": "Bezirk Bremgarten",
    "province_code": "1903",
    "community": "Dottikon",
    "community_code": "4065",
    "latitude": "47.3779",
    "longitude": "8.2415"
  },
  {
    "country_code": "CH",
    "zipcode": "5607",
    "place": "Hägglingen",
    "state": "Kanton Aargau",
    "state_code": "AG",
    "province": "Bezirk Bremgarten",
    "province_code": "1903",
    "community": "Hägglingen",
    "community_code": "4068",
    "latitude": "47.39",
    "longitude": "8.2576"
  },
  {
    "country_code": "CH",
    "zipcode": "5610",
    "place": "Wohlen AG",
    "state": "Kanton Aargau",
    "state_code": "AG",
    "province": "Bezirk Bremgarten",
    "province_code": "1903",
    "community": "Wohlen (AG)",
    "community_code": "4082",
    "latitude": "47.3503",
    "longitude": "8.2836"
  },
  {
    "country_code": "CH",
    "zipcode": "5610",
    "place": "Wohlen AG 1",
    "state": "Kanton Aargau",
    "state_code": "AG",
    "province": "Bezirk Bremgarten",
    "province_code": "1903",
    "community": "Wohlen (AG)",
    "community_code": "4082",
    "latitude": "47.3533",
    "longitude": "8.2807"
  },
  {
    "country_code": "CH",
    "zipcode": "5611",
    "place": "Anglikon",
    "state": "Kanton Aargau",
    "state_code": "AG",
    "province": "Bezirk Bremgarten",
    "province_code": "1903",
    "community": "Wohlen (AG)",
    "community_code": "4082",
    "latitude": "47.3665",
    "longitude": "8.2631"
  },
  {
    "country_code": "CH",
    "zipcode": "5612",
    "place": "Villmergen",
    "state": "Kanton Aargau",
    "state_code": "AG",
    "province": "Bezirk Bremgarten",
    "province_code": "1903",
    "community": "Villmergen",
    "community_code": "4080",
    "latitude": "47.3475",
    "longitude": "8.2403"
  },
  {
    "country_code": "CH",
    "zipcode": "5613",
    "place": "Hilfikon",
    "state": "Kanton Aargau",
    "state_code": "AG",
    "province": "Bezirk Bremgarten",
    "province_code": "1903",
    "community": "Villmergen",
    "community_code": "4080",
    "latitude": "47.3308",
    "longitude": "8.2453"
  },
  {
    "country_code": "CH",
    "zipcode": "5614",
    "place": "Sarmenstorf",
    "state": "Kanton Aargau",
    "state_code": "AG",
    "province": "Bezirk Bremgarten",
    "province_code": "1903",
    "community": "Sarmenstorf",
    "community_code": "4076",
    "latitude": "47.3117",
    "longitude": "8.2524"
  },
  {
    "country_code": "CH",
    "zipcode": "5619",
    "place": "Büttikon AG",
    "state": "Kanton Aargau",
    "state_code": "AG",
    "province": "Bezirk Bremgarten",
    "province_code": "1903",
    "community": "Büttikon",
    "community_code": "4064",
    "latitude": "47.3282",
    "longitude": "8.2683"
  },
  {
    "country_code": "CH",
    "zipcode": "5619",
    "place": "Uezwil",
    "state": "Kanton Aargau",
    "state_code": "AG",
    "province": "Bezirk Bremgarten",
    "province_code": "1903",
    "community": "Uezwil",
    "community_code": "4078",
    "latitude": "47.315",
    "longitude": "8.2778"
  },
  {
    "country_code": "CH",
    "zipcode": "5620",
    "place": "Bremgarten AG 1",
    "state": "Kanton Aargau",
    "state_code": "AG",
    "province": "Bezirk Bremgarten",
    "province_code": "1903",
    "community": "Bremgarten (AG)",
    "community_code": "4063",
    "latitude": "47.3535",
    "longitude": "8.3298"
  },
  {
    "country_code": "CH",
    "zipcode": "5620",
    "place": "Bremgarten AG",
    "state": "Kanton Aargau",
    "state_code": "AG",
    "province": "Bezirk Bremgarten",
    "province_code": "1903",
    "community": "Bremgarten (AG)",
    "community_code": "4063",
    "latitude": "47.3535",
    "longitude": "8.3299"
  },
  {
    "country_code": "CH",
    "zipcode": "5621",
    "place": "Zufikon",
    "state": "Kanton Aargau",
    "state_code": "AG",
    "province": "Bezirk Bremgarten",
    "province_code": "1903",
    "community": "Zufikon",
    "community_code": "4083",
    "latitude": "47.3447",
    "longitude": "8.3582"
  },
  {
    "country_code": "CH",
    "zipcode": "5626",
    "place": "Hermetschwil-Staffeln",
    "state": "Kanton Aargau",
    "state_code": "AG",
    "province": "Bezirk Bremgarten",
    "province_code": "1903",
    "community": "Bremgarten (AG)",
    "community_code": "4063",
    "latitude": "47.3304",
    "longitude": "8.3415"
  },
  {
    "country_code": "CH",
    "zipcode": "8905",
    "place": "Islisberg",
    "state": "Kanton Aargau",
    "state_code": "AG",
    "province": "Bezirk Bremgarten",
    "province_code": "1903",
    "community": "Islisberg",
    "community_code": "4084",
    "latitude": "47.3233",
    "longitude": "8.4412"
  },
  {
    "country_code": "CH",
    "zipcode": "8905",
    "place": "Arni-Islisberg",
    "state": "Kanton Aargau",
    "state_code": "AG",
    "province": "Bezirk Bremgarten",
    "province_code": "1903",
    "community": "Arni (AG)",
    "community_code": "4061",
    "latitude": "47.317",
    "longitude": "8.4223"
  },
  {
    "country_code": "CH",
    "zipcode": "8905",
    "place": "Arni AG",
    "state": "Kanton Aargau",
    "state_code": "AG",
    "province": "Bezirk Bremgarten",
    "province_code": "1903",
    "community": "Arni (AG)",
    "community_code": "4061",
    "latitude": "47.317",
    "longitude": "8.4223"
  },
  {
    "country_code": "CH",
    "zipcode": "8916",
    "place": "Jonen",
    "state": "Kanton Aargau",
    "state_code": "AG",
    "province": "Bezirk Bremgarten",
    "province_code": "1903",
    "community": "Jonen",
    "community_code": "4071",
    "latitude": "47.2997",
    "longitude": "8.4022"
  },
  {
    "country_code": "CH",
    "zipcode": "8917",
    "place": "Oberlunkhofen",
    "state": "Kanton Aargau",
    "state_code": "AG",
    "province": "Bezirk Bremgarten",
    "province_code": "1903",
    "community": "Oberlunkhofen",
    "community_code": "4073",
    "latitude": "47.3125",
    "longitude": "8.3977"
  },
  {
    "country_code": "CH",
    "zipcode": "8918",
    "place": "Unterlunkhofen",
    "state": "Kanton Aargau",
    "state_code": "AG",
    "province": "Bezirk Bremgarten",
    "province_code": "1903",
    "community": "Unterlunkhofen",
    "community_code": "4079",
    "latitude": "47.3248",
    "longitude": "8.3832"
  },
  {
    "country_code": "CH",
    "zipcode": "8964",
    "place": "Rudolfstetten",
    "state": "Kanton Aargau",
    "state_code": "AG",
    "province": "Bezirk Bremgarten",
    "province_code": "1903",
    "community": "Rudolfstetten-Friedlisberg",
    "community_code": "4075",
    "latitude": "47.3683",
    "longitude": "8.3847"
  },
  {
    "country_code": "CH",
    "zipcode": "8965",
    "place": "Berikon",
    "state": "Kanton Aargau",
    "state_code": "AG",
    "province": "Bezirk Bremgarten",
    "province_code": "1903",
    "community": "Berikon",
    "community_code": "4062",
    "latitude": "47.3538",
    "longitude": "8.3837"
  },
  {
    "country_code": "CH",
    "zipcode": "8966",
    "place": "Oberwil-Lieli",
    "state": "Kanton Aargau",
    "state_code": "AG",
    "province": "Bezirk Bremgarten",
    "province_code": "1903",
    "community": "Oberwil-Lieli",
    "community_code": "4074",
    "latitude": "47.3371",
    "longitude": "8.3952"
  },
  {
    "country_code": "CH",
    "zipcode": "8967",
    "place": "Widen",
    "state": "Kanton Aargau",
    "state_code": "AG",
    "province": "Bezirk Bremgarten",
    "province_code": "1903",
    "community": "Widen",
    "community_code": "4081",
    "latitude": "47.3705",
    "longitude": "8.3583"
  },
  {
    "country_code": "CH",
    "zipcode": "5105",
    "place": "Auenstein",
    "state": "Kanton Aargau",
    "state_code": "AG",
    "province": "Bezirk Brugg",
    "province_code": "1904",
    "community": "Auenstein",
    "community_code": "4091",
    "latitude": "47.4185",
    "longitude": "8.1262"
  },
  {
    "country_code": "CH",
    "zipcode": "5106",
    "place": "Veltheim AG",
    "state": "Kanton Aargau",
    "state_code": "AG",
    "province": "Bezirk Brugg",
    "province_code": "1904",
    "community": "Veltheim (AG)",
    "community_code": "4120",
    "latitude": "47.4318",
    "longitude": "8.1484"
  },
  {
    "country_code": "CH",
    "zipcode": "5107",
    "place": "Schinznach Dorf",
    "state": "Kanton Aargau",
    "state_code": "AG",
    "province": "Bezirk Brugg",
    "province_code": "1904",
    "community": "Schinznach",
    "community_code": "4125",
    "latitude": "47.4543",
    "longitude": "8.139"
  },
  {
    "country_code": "CH",
    "zipcode": "5108",
    "place": "Oberflachs",
    "state": "Kanton Aargau",
    "state_code": "AG",
    "province": "Bezirk Brugg",
    "province_code": "1904",
    "community": "Schinznach",
    "community_code": "4125",
    "latitude": "47.4379",
    "longitude": "8.1229"
  },
  {
    "country_code": "CH",
    "zipcode": "5112",
    "place": "Thalheim AG",
    "state": "Kanton Aargau",
    "state_code": "AG",
    "province": "Bezirk Brugg",
    "province_code": "1904",
    "community": "Thalheim (AG)",
    "community_code": "4117",
    "latitude": "47.4392",
    "longitude": "8.0934"
  },
  {
    "country_code": "CH",
    "zipcode": "5116",
    "place": "Schinznach Bad",
    "state": "Kanton Aargau",
    "state_code": "AG",
    "province": "Bezirk Brugg",
    "province_code": "1904",
    "community": "Brugg",
    "community_code": "4095",
    "latitude": "47.4538",
    "longitude": "8.1687"
  },
  {
    "country_code": "CH",
    "zipcode": "5200",
    "place": "Brugg AG",
    "state": "Kanton Aargau",
    "state_code": "AG",
    "province": "Bezirk Brugg",
    "province_code": "1904",
    "community": "Brugg",
    "community_code": "4095",
    "latitude": "47.4864",
    "longitude": "8.2112"
  },
  {
    "country_code": "CH",
    "zipcode": "5201",
    "place": "Brugg AG",
    "state": "Kanton Aargau",
    "state_code": "AG",
    "province": "Bezirk Brugg",
    "province_code": "1904",
    "community": "Brugg",
    "community_code": "4095",
    "latitude": "47.4863",
    "longitude": "8.211"
  },
  {
    "country_code": "CH",
    "zipcode": "5210",
    "place": "Windisch",
    "state": "Kanton Aargau",
    "state_code": "AG",
    "province": "Bezirk Brugg",
    "province_code": "1904",
    "community": "Windisch",
    "community_code": "4123",
    "latitude": "47.4759",
    "longitude": "8.2221"
  },
  {
    "country_code": "CH",
    "zipcode": "5212",
    "place": "Hausen AG",
    "state": "Kanton Aargau",
    "state_code": "AG",
    "province": "Bezirk Brugg",
    "province_code": "1904",
    "community": "Hausen (AG)",
    "community_code": "4100",
    "latitude": "47.4613",
    "longitude": "8.2074"
  },
  {
    "country_code": "CH",
    "zipcode": "5213",
    "place": "Villnachern",
    "state": "Kanton Aargau",
    "state_code": "AG",
    "province": "Bezirk Brugg",
    "province_code": "1904",
    "community": "Villnachern",
    "community_code": "4122",
    "latitude": "47.4725",
    "longitude": "8.1625"
  },
  {
    "country_code": "CH",
    "zipcode": "5222",
    "place": "Umiken",
    "state": "Kanton Aargau",
    "state_code": "AG",
    "province": "Bezirk Brugg",
    "province_code": "1904",
    "community": "Brugg",
    "community_code": "4095",
    "latitude": "47.4812",
    "longitude": "8.1867"
  },
  {
    "country_code": "CH",
    "zipcode": "5223",
    "place": "Riniken",
    "state": "Kanton Aargau",
    "state_code": "AG",
    "province": "Bezirk Brugg",
    "province_code": "1904",
    "community": "Riniken",
    "community_code": "4111",
    "latitude": "47.4939",
    "longitude": "8.1867"
  },
  {
    "country_code": "CH",
    "zipcode": "5225",
    "place": "Bözberg",
    "state": "Kanton Aargau",
    "state_code": "AG",
    "province": "Bezirk Brugg",
    "province_code": "1904",
    "community": "Bözberg",
    "community_code": "4124",
    "latitude": "47.4891",
    "longitude": "8.145"
  },
  {
    "country_code": "CH",
    "zipcode": "5232",
    "place": "Villigen PSI",
    "state": "Kanton Aargau",
    "state_code": "AG",
    "province": "Bezirk Brugg",
    "province_code": "1904",
    "community": "Villigen",
    "community_code": "4121",
    "latitude": "47.5296",
    "longitude": "8.2072"
  },
  {
    "country_code": "CH",
    "zipcode": "5233",
    "place": "Stilli",
    "state": "Kanton Aargau",
    "state_code": "AG",
    "province": "Bezirk Brugg",
    "province_code": "1904",
    "community": "Villigen",
    "community_code": "4121",
    "latitude": "47.5165",
    "longitude": "8.2315"
  },
  {
    "country_code": "CH",
    "zipcode": "5234",
    "place": "Villigen",
    "state": "Kanton Aargau",
    "state_code": "AG",
    "province": "Bezirk Brugg",
    "province_code": "1904",
    "community": "Villigen",
    "community_code": "4121",
    "latitude": "47.5301",
    "longitude": "8.2063"
  },
  {
    "country_code": "CH",
    "zipcode": "5235",
    "place": "Rüfenach AG",
    "state": "Kanton Aargau",
    "state_code": "AG",
    "province": "Bezirk Brugg",
    "province_code": "1904",
    "community": "Rüfenach",
    "community_code": "4112",
    "latitude": "47.5049",
    "longitude": "8.2127"
  },
  {
    "country_code": "CH",
    "zipcode": "5236",
    "place": "Remigen",
    "state": "Kanton Aargau",
    "state_code": "AG",
    "province": "Bezirk Brugg",
    "province_code": "1904",
    "community": "Remigen",
    "community_code": "4110",
    "latitude": "47.5174",
    "longitude": "8.1759"
  },
  {
    "country_code": "CH",
    "zipcode": "5237",
    "place": "Mönthal",
    "state": "Kanton Aargau",
    "state_code": "AG",
    "province": "Bezirk Brugg",
    "province_code": "1904",
    "community": "Mönthal",
    "community_code": "4106",
    "latitude": "47.5165",
    "longitude": "8.1376"
  },
  {
    "country_code": "CH",
    "zipcode": "5242",
    "place": "Lupfig",
    "state": "Kanton Aargau",
    "state_code": "AG",
    "province": "Bezirk Brugg",
    "province_code": "1904",
    "community": "Lupfig",
    "community_code": "4104",
    "latitude": "47.4436",
    "longitude": "8.2075"
  },
  {
    "country_code": "CH",
    "zipcode": "5242",
    "place": "Birr-Lupfig",
    "state": "Kanton Aargau",
    "state_code": "AG",
    "province": "Bezirk Brugg",
    "province_code": "1904",
    "community": "Lupfig",
    "community_code": "4104",
    "latitude": "47.4437",
    "longitude": "8.2076"
  },
  {
    "country_code": "CH",
    "zipcode": "5242",
    "place": "Birr",
    "state": "Kanton Aargau",
    "state_code": "AG",
    "province": "Bezirk Brugg",
    "province_code": "1904",
    "community": "Birr",
    "community_code": "4092",
    "latitude": "47.4322",
    "longitude": "8.2121"
  },
  {
    "country_code": "CH",
    "zipcode": "5243",
    "place": "Mülligen",
    "state": "Kanton Aargau",
    "state_code": "AG",
    "province": "Bezirk Brugg",
    "province_code": "1904",
    "community": "Mülligen",
    "community_code": "4107",
    "latitude": "47.4524",
    "longitude": "8.2385"
  },
  {
    "country_code": "CH",
    "zipcode": "5244",
    "place": "Birrhard",
    "state": "Kanton Aargau",
    "state_code": "AG",
    "province": "Bezirk Brugg",
    "province_code": "1904",
    "community": "Birrhard",
    "community_code": "4093",
    "latitude": "47.4361",
    "longitude": "8.2423"
  },
  {
    "country_code": "CH",
    "zipcode": "5245",
    "place": "Habsburg",
    "state": "Kanton Aargau",
    "state_code": "AG",
    "province": "Bezirk Brugg",
    "province_code": "1904",
    "community": "Habsburg",
    "community_code": "4099",
    "latitude": "47.4614",
    "longitude": "8.186"
  },
  {
    "country_code": "CH",
    "zipcode": "5246",
    "place": "Scherz",
    "state": "Kanton Aargau",
    "state_code": "AG",
    "province": "Bezirk Brugg",
    "province_code": "1904",
    "community": "Lupfig",
    "community_code": "4104",
    "latitude": "47.4469",
    "longitude": "8.1842"
  },
  {
    "country_code": "CH",
    "zipcode": "5318",
    "place": "Mandach",
    "state": "Kanton Aargau",
    "state_code": "AG",
    "province": "Bezirk Brugg",
    "province_code": "1904",
    "community": "Mandach",
    "community_code": "4105",
    "latitude": "47.5515",
    "longitude": "8.1877"
  },
  {
    "country_code": "CH",
    "zipcode": "5040",
    "place": "Schöftland",
    "state": "Kanton Aargau",
    "state_code": "AG",
    "province": "Bezirk Kulm",
    "province_code": "1905",
    "community": "Schöftland",
    "community_code": "4144",
    "latitude": "47.3054",
    "longitude": "8.0557"
  },
  {
    "country_code": "CH",
    "zipcode": "5043",
    "place": "Holziken",
    "state": "Kanton Aargau",
    "state_code": "AG",
    "province": "Bezirk Kulm",
    "province_code": "1905",
    "community": "Holziken",
    "community_code": "4136",
    "latitude": "47.3195",
    "longitude": "8.0343"
  },
  {
    "country_code": "CH",
    "zipcode": "5044",
    "place": "Schlossrued",
    "state": "Kanton Aargau",
    "state_code": "AG",
    "province": "Bezirk Kulm",
    "province_code": "1905",
    "community": "Schlossrued",
    "community_code": "4142",
    "latitude": "47.2902",
    "longitude": "8.0884"
  },
  {
    "country_code": "CH",
    "zipcode": "5046",
    "place": "Schmiedrued",
    "state": "Kanton Aargau",
    "state_code": "AG",
    "province": "Bezirk Kulm",
    "province_code": "1905",
    "community": "Schmiedrued",
    "community_code": "4143",
    "latitude": "47.271",
    "longitude": "8.1087"
  },
  {
    "country_code": "CH",
    "zipcode": "5046",
    "place": "Walde AG",
    "state": "Kanton Aargau",
    "state_code": "AG",
    "province": "Bezirk Kulm",
    "province_code": "1905",
    "community": "Schmiedrued",
    "community_code": "4143",
    "latitude": "47.2535",
    "longitude": "8.1161"
  },
  {
    "country_code": "CH",
    "zipcode": "5046",
    "place": "Schmiedrued-Walde",
    "state": "Kanton Aargau",
    "state_code": "AG",
    "province": "Bezirk Kulm",
    "province_code": "1905",
    "community": "Schmiedrued",
    "community_code": "4143",
    "latitude": "47.2632",
    "longitude": "8.1117"
  },
  {
    "country_code": "CH",
    "zipcode": "5708",
    "place": "Birrwil",
    "state": "Kanton Aargau",
    "state_code": "AG",
    "province": "Bezirk Kulm",
    "province_code": "1905",
    "community": "Birrwil",
    "community_code": "4132",
    "latitude": "47.2919",
    "longitude": "8.1981"
  },
  {
    "country_code": "CH",
    "zipcode": "5712",
    "place": "Beinwil am See",
    "state": "Kanton Aargau",
    "state_code": "AG",
    "province": "Bezirk Kulm",
    "province_code": "1905",
    "community": "Beinwil am See",
    "community_code": "4131",
    "latitude": "47.2665",
    "longitude": "8.2086"
  },
  {
    "country_code": "CH",
    "zipcode": "5723",
    "place": "Teufenthal AG",
    "state": "Kanton Aargau",
    "state_code": "AG",
    "province": "Bezirk Kulm",
    "province_code": "1905",
    "community": "Teufenthal (AG)",
    "community_code": "4145",
    "latitude": "47.3281",
    "longitude": "8.1259"
  },
  {
    "country_code": "CH",
    "zipcode": "5724",
    "place": "Dürrenäsch",
    "state": "Kanton Aargau",
    "state_code": "AG",
    "province": "Bezirk Kulm",
    "province_code": "1905",
    "community": "Dürrenäsch",
    "community_code": "4134",
    "latitude": "47.3186",
    "longitude": "8.1544"
  },
  {
    "country_code": "CH",
    "zipcode": "5725",
    "place": "Leutwil",
    "state": "Kanton Aargau",
    "state_code": "AG",
    "province": "Bezirk Kulm",
    "province_code": "1905",
    "community": "Leutwil",
    "community_code": "4138",
    "latitude": "47.3056",
    "longitude": "8.1738"
  },
  {
    "country_code": "CH",
    "zipcode": "5726",
    "place": "Unterkulm",
    "state": "Kanton Aargau",
    "state_code": "AG",
    "province": "Bezirk Kulm",
    "province_code": "1905",
    "community": "Unterkulm",
    "community_code": "4146",
    "latitude": "47.3177",
    "longitude": "8.1032"
  },
  {
    "country_code": "CH",
    "zipcode": "5727",
    "place": "Oberkulm",
    "state": "Kanton Aargau",
    "state_code": "AG",
    "province": "Bezirk Kulm",
    "province_code": "1905",
    "community": "Oberkulm",
    "community_code": "4140",
    "latitude": "47.2984",
    "longitude": "8.1259"
  },
  {
    "country_code": "CH",
    "zipcode": "5728",
    "place": "Gontenschwil",
    "state": "Kanton Aargau",
    "state_code": "AG",
    "province": "Bezirk Kulm",
    "province_code": "1905",
    "community": "Gontenschwil",
    "community_code": "4135",
    "latitude": "47.2676",
    "longitude": "8.1415"
  },
  {
    "country_code": "CH",
    "zipcode": "5732",
    "place": "Zetzwil",
    "state": "Kanton Aargau",
    "state_code": "AG",
    "province": "Bezirk Kulm",
    "province_code": "1905",
    "community": "Zetzwil",
    "community_code": "4147",
    "latitude": "47.2883",
    "longitude": "8.162"
  },
  {
    "country_code": "CH",
    "zipcode": "5733",
    "place": "Leimbach AG",
    "state": "Kanton Aargau",
    "state_code": "AG",
    "province": "Bezirk Kulm",
    "province_code": "1905",
    "community": "Leimbach (AG)",
    "community_code": "4137",
    "latitude": "47.2749",
    "longitude": "8.1701"
  },
  {
    "country_code": "CH",
    "zipcode": "5734",
    "place": "Reinach AG",
    "state": "Kanton Aargau",
    "state_code": "AG",
    "province": "Bezirk Kulm",
    "province_code": "1905",
    "community": "Reinach (AG)",
    "community_code": "4141",
    "latitude": "47.2612",
    "longitude": "8.1793"
  },
  {
    "country_code": "CH",
    "zipcode": "5736",
    "place": "Burg AG",
    "state": "Kanton Aargau",
    "state_code": "AG",
    "province": "Bezirk Kulm",
    "province_code": "1905",
    "community": "Burg (AG)",
    "community_code": "4133",
    "latitude": "47.2339",
    "longitude": "8.178"
  },
  {
    "country_code": "CH",
    "zipcode": "5737",
    "place": "Menziken",
    "state": "Kanton Aargau",
    "state_code": "AG",
    "province": "Bezirk Kulm",
    "province_code": "1905",
    "community": "Menziken",
    "community_code": "4139",
    "latitude": "47.236",
    "longitude": "8.1865"
  },
  {
    "country_code": "CH",
    "zipcode": "4333",
    "place": "Münchwilen AG",
    "state": "Kanton Aargau",
    "state_code": "AG",
    "province": "Bezirk Laufenburg",
    "province_code": "1906",
    "community": "Münchwilen (AG)",
    "community_code": "4172",
    "latitude": "47.5375",
    "longitude": "7.9642"
  },
  {
    "country_code": "CH",
    "zipcode": "4334",
    "place": "Sisseln AG",
    "state": "Kanton Aargau",
    "state_code": "AG",
    "province": "Bezirk Laufenburg",
    "province_code": "1906",
    "community": "Sisseln",
    "community_code": "4177",
    "latitude": "47.5522",
    "longitude": "7.9853"
  },
  {
    "country_code": "CH",
    "zipcode": "5027",
    "place": "Herznach",
    "state": "Kanton Aargau",
    "state_code": "AG",
    "province": "Bezirk Laufenburg",
    "province_code": "1906",
    "community": "Herznach",
    "community_code": "4166",
    "latitude": "47.4721",
    "longitude": "8.0465"
  },
  {
    "country_code": "CH",
    "zipcode": "5028",
    "place": "Ueken",
    "state": "Kanton Aargau",
    "state_code": "AG",
    "province": "Bezirk Laufenburg",
    "province_code": "1906",
    "community": "Ueken",
    "community_code": "4179",
    "latitude": "47.4854",
    "longitude": "8.0434"
  },
  {
    "country_code": "CH",
    "zipcode": "5062",
    "place": "Oberhof",
    "state": "Kanton Aargau",
    "state_code": "AG",
    "province": "Bezirk Laufenburg",
    "province_code": "1906",
    "community": "Oberhof",
    "community_code": "4173",
    "latitude": "47.4418",
    "longitude": "8.007"
  },
  {
    "country_code": "CH",
    "zipcode": "5063",
    "place": "Wölflinswil",
    "state": "Kanton Aargau",
    "state_code": "AG",
    "province": "Bezirk Laufenburg",
    "province_code": "1906",
    "community": "Wölflinswil",
    "community_code": "4182",
    "latitude": "47.4628",
    "longitude": "8.0002"
  },
  {
    "country_code": "CH",
    "zipcode": "5064",
    "place": "Wittnau",
    "state": "Kanton Aargau",
    "state_code": "AG",
    "province": "Bezirk Laufenburg",
    "province_code": "1906",
    "community": "Wittnau",
    "community_code": "4181",
    "latitude": "47.4771",
    "longitude": "7.9661"
  },
  {
    "country_code": "CH",
    "zipcode": "5070",
    "place": "Frick",
    "state": "Kanton Aargau",
    "state_code": "AG",
    "province": "Bezirk Laufenburg",
    "province_code": "1906",
    "community": "Frick",
    "community_code": "4163",
    "latitude": "47.5097",
    "longitude": "8.0142"
  },
  {
    "country_code": "CH",
    "zipcode": "5072",
    "place": "Oeschgen",
    "state": "Kanton Aargau",
    "state_code": "AG",
    "province": "Bezirk Laufenburg",
    "province_code": "1906",
    "community": "Oeschgen",
    "community_code": "4175",
    "latitude": "47.5249",
    "longitude": "8.0171"
  },
  {
    "country_code": "CH",
    "zipcode": "5073",
    "place": "Gipf-Oberfrick",
    "state": "Kanton Aargau",
    "state_code": "AG",
    "province": "Bezirk Laufenburg",
    "province_code": "1906",
    "community": "Gipf-Oberfrick",
    "community_code": "4165",
    "latitude": "47.4931",
    "longitude": "7.9962"
  },
  {
    "country_code": "CH",
    "zipcode": "5074",
    "place": "Eiken",
    "state": "Kanton Aargau",
    "state_code": "AG",
    "province": "Bezirk Laufenburg",
    "province_code": "1906",
    "community": "Eiken",
    "community_code": "4161",
    "latitude": "47.537",
    "longitude": "7.9892"
  },
  {
    "country_code": "CH",
    "zipcode": "5075",
    "place": "Hornussen",
    "state": "Kanton Aargau",
    "state_code": "AG",
    "province": "Bezirk Laufenburg",
    "province_code": "1906",
    "community": "Böztal",
    "community_code": "4185",
    "latitude": "47.5016",
    "longitude": "8.0625"
  },
  {
    "country_code": "CH",
    "zipcode": "5076",
    "place": "Bözen",
    "state": "Kanton Aargau",
    "state_code": "AG",
    "province": "Bezirk Laufenburg",
    "province_code": "1906",
    "community": "Böztal",
    "community_code": "4185",
    "latitude": "47.4964",
    "longitude": "8.0859"
  },
  {
    "country_code": "CH",
    "zipcode": "5077",
    "place": "Elfingen",
    "state": "Kanton Aargau",
    "state_code": "AG",
    "province": "Bezirk Laufenburg",
    "province_code": "1906",
    "community": "Böztal",
    "community_code": "4185",
    "latitude": "47.51",
    "longitude": "8.1022"
  },
  {
    "country_code": "CH",
    "zipcode": "5078",
    "place": "Effingen",
    "state": "Kanton Aargau",
    "state_code": "AG",
    "province": "Bezirk Laufenburg",
    "province_code": "1906",
    "community": "Böztal",
    "community_code": "4185",
    "latitude": "47.4928",
    "longitude": "8.1125"
  },
  {
    "country_code": "CH",
    "zipcode": "5079",
    "place": "Zeihen",
    "state": "Kanton Aargau",
    "state_code": "AG",
    "province": "Bezirk Laufenburg",
    "province_code": "1906",
    "community": "Zeihen",
    "community_code": "4183",
    "latitude": "47.4705",
    "longitude": "8.0931"
  },
  {
    "country_code": "CH",
    "zipcode": "5080",
    "place": "Laufenburg",
    "state": "Kanton Aargau",
    "state_code": "AG",
    "province": "Bezirk Laufenburg",
    "province_code": "1906",
    "community": "Laufenburg",
    "community_code": "4170",
    "latitude": "47.556",
    "longitude": "8.0608"
  },
  {
    "country_code": "CH",
    "zipcode": "5082",
    "place": "Kaisten",
    "state": "Kanton Aargau",
    "state_code": "AG",
    "province": "Bezirk Laufenburg",
    "province_code": "1906",
    "community": "Kaisten",
    "community_code": "4169",
    "latitude": "47.5386",
    "longitude": "8.0448"
  },
  {
    "country_code": "CH",
    "zipcode": "5083",
    "place": "Ittenthal",
    "state": "Kanton Aargau",
    "state_code": "AG",
    "province": "Bezirk Laufenburg",
    "province_code": "1906",
    "community": "Kaisten",
    "community_code": "4169",
    "latitude": "47.519",
    "longitude": "8.0622"
  },
  {
    "country_code": "CH",
    "zipcode": "5084",
    "place": "Rheinsulz",
    "state": "Kanton Aargau",
    "state_code": "AG",
    "province": "Bezirk Laufenburg",
    "province_code": "1906",
    "community": "Laufenburg",
    "community_code": "4170",
    "latitude": "47.5528",
    "longitude": "8.0867"
  },
  {
    "country_code": "CH",
    "zipcode": "5085",
    "place": "Sulz AG",
    "state": "Kanton Aargau",
    "state_code": "AG",
    "province": "Bezirk Laufenburg",
    "province_code": "1906",
    "community": "Laufenburg",
    "community_code": "4170",
    "latitude": "47.5343",
    "longitude": "8.098"
  },
  {
    "country_code": "CH",
    "zipcode": "5272",
    "place": "Gansingen",
    "state": "Kanton Aargau",
    "state_code": "AG",
    "province": "Bezirk Laufenburg",
    "province_code": "1906",
    "community": "Gansingen",
    "community_code": "4164",
    "latitude": "47.5372",
    "longitude": "8.1317"
  },
  {
    "country_code": "CH",
    "zipcode": "5273",
    "place": "Oberhofen AG",
    "state": "Kanton Aargau",
    "state_code": "AG",
    "province": "Bezirk Laufenburg",
    "province_code": "1906",
    "community": "Mettauertal",
    "community_code": "4184",
    "latitude": "47.5562",
    "longitude": "8.1252"
  },
  {
    "country_code": "CH",
    "zipcode": "5274",
    "place": "Mettau",
    "state": "Kanton Aargau",
    "state_code": "AG",
    "province": "Bezirk Laufenburg",
    "province_code": "1906",
    "community": "Mettauertal",
    "community_code": "4184",
    "latitude": "47.569",
    "longitude": "8.1301"
  },
  {
    "country_code": "CH",
    "zipcode": "5275",
    "place": "Etzgen",
    "state": "Kanton Aargau",
    "state_code": "AG",
    "province": "Bezirk Laufenburg",
    "province_code": "1906",
    "community": "Mettauertal",
    "community_code": "4184",
    "latitude": "47.5743",
    "longitude": "8.1137"
  },
  {
    "country_code": "CH",
    "zipcode": "5276",
    "place": "Wil AG",
    "state": "Kanton Aargau",
    "state_code": "AG",
    "province": "Bezirk Laufenburg",
    "province_code": "1906",
    "community": "Mettauertal",
    "community_code": "4184",
    "latitude": "47.5662",
    "longitude": "8.1575"
  },
  {
    "country_code": "CH",
    "zipcode": "5277",
    "place": "Hottwil",
    "state": "Kanton Aargau",
    "state_code": "AG",
    "province": "Bezirk Laufenburg",
    "province_code": "1906",
    "community": "Mettauertal",
    "community_code": "4184",
    "latitude": "47.5423",
    "longitude": "8.1638"
  },
  {
    "country_code": "CH",
    "zipcode": "5326",
    "place": "Schwaderloch",
    "state": "Kanton Aargau",
    "state_code": "AG",
    "province": "Bezirk Laufenburg",
    "province_code": "1906",
    "community": "Schwaderloch",
    "community_code": "4176",
    "latitude": "47.5858",
    "longitude": "8.1457"
  },
  {
    "country_code": "CH",
    "zipcode": "5102",
    "place": "Rupperswil",
    "state": "Kanton Aargau",
    "state_code": "AG",
    "province": "Bezirk Lenzburg",
    "province_code": "1907",
    "community": "Rupperswil",
    "community_code": "4206",
    "latitude": "47.4038",
    "longitude": "8.1311"
  },
  {
    "country_code": "CH",
    "zipcode": "5103",
    "place": "Wildegg",
    "state": "Kanton Aargau",
    "state_code": "AG",
    "province": "Bezirk Lenzburg",
    "province_code": "1907",
    "community": "Möriken-Wildegg",
    "community_code": "4203",
    "latitude": "47.4159",
    "longitude": "8.1651"
  },
  {
    "country_code": "CH",
    "zipcode": "5103",
    "place": "Möriken AG",
    "state": "Kanton Aargau",
    "state_code": "AG",
    "province": "Bezirk Lenzburg",
    "province_code": "1907",
    "community": "Möriken-Wildegg",
    "community_code": "4203",
    "latitude": "47.4165",
    "longitude": "8.191"
  },
  {
    "country_code": "CH",
    "zipcode": "5113",
    "place": "Holderbank AG",
    "state": "Kanton Aargau",
    "state_code": "AG",
    "province": "Bezirk Lenzburg",
    "province_code": "1907",
    "community": "Holderbank (AG)",
    "community_code": "4199",
    "latitude": "47.4309",
    "longitude": "8.1707"
  },
  {
    "country_code": "CH",
    "zipcode": "5502",
    "place": "Hunzenschwil",
    "state": "Kanton Aargau",
    "state_code": "AG",
    "province": "Bezirk Lenzburg",
    "province_code": "1907",
    "community": "Hunzenschwil",
    "community_code": "4200",
    "latitude": "47.3842",
    "longitude": "8.1229"
  },
  {
    "country_code": "CH",
    "zipcode": "5503",
    "place": "Schafisheim",
    "state": "Kanton Aargau",
    "state_code": "AG",
    "province": "Bezirk Lenzburg",
    "province_code": "1907",
    "community": "Schafisheim",
    "community_code": "4207",
    "latitude": "47.3737",
    "longitude": "8.1391"
  },
  {
    "country_code": "CH",
    "zipcode": "5504",
    "place": "Othmarsingen",
    "state": "Kanton Aargau",
    "state_code": "AG",
    "province": "Bezirk Lenzburg",
    "province_code": "1907",
    "community": "Othmarsingen",
    "community_code": "4205",
    "latitude": "47.4016",
    "longitude": "8.2146"
  },
  {
    "country_code": "CH",
    "zipcode": "5505",
    "place": "Brunegg",
    "state": "Kanton Aargau",
    "state_code": "AG",
    "province": "Bezirk Lenzburg",
    "province_code": "1907",
    "community": "Brunegg",
    "community_code": "4193",
    "latitude": "47.4207",
    "longitude": "8.2199"
  },
  {
    "country_code": "CH",
    "zipcode": "5600",
    "place": "Lenzburg 1",
    "state": "Kanton Aargau",
    "state_code": "AG",
    "province": "Bezirk Lenzburg",
    "province_code": "1907",
    "community": "Lenzburg",
    "community_code": "4201",
    "latitude": "47.3856",
    "longitude": "8.1805"
  },
  {
    "country_code": "CH",
    "zipcode": "5600",
    "place": "Ammerswil AG",
    "state": "Kanton Aargau",
    "state_code": "AG",
    "province": "Bezirk Lenzburg",
    "province_code": "1907",
    "community": "Ammerswil",
    "community_code": "4191",
    "latitude": "47.3682",
    "longitude": "8.2057"
  },
  {
    "country_code": "CH",
    "zipcode": "5600",
    "place": "Lenzburg",
    "state": "Kanton Aargau",
    "state_code": "AG",
    "province": "Bezirk Lenzburg",
    "province_code": "1907",
    "community": "Lenzburg",
    "community_code": "4201",
    "latitude": "47.3855",
    "longitude": "8.1805"
  },
  {
    "country_code": "CH",
    "zipcode": "5603",
    "place": "Staufen",
    "state": "Kanton Aargau",
    "state_code": "AG",
    "province": "Bezirk Lenzburg",
    "province_code": "1907",
    "community": "Staufen",
    "community_code": "4210",
    "latitude": "47.3788",
    "longitude": "8.16"
  },
  {
    "country_code": "CH",
    "zipcode": "5604",
    "place": "Hendschiken",
    "state": "Kanton Aargau",
    "state_code": "AG",
    "province": "Bezirk Lenzburg",
    "province_code": "1907",
    "community": "Hendschiken",
    "community_code": "4198",
    "latitude": "47.3846",
    "longitude": "8.2159"
  },
  {
    "country_code": "CH",
    "zipcode": "5606",
    "place": "Dintikon",
    "state": "Kanton Aargau",
    "state_code": "AG",
    "province": "Bezirk Lenzburg",
    "province_code": "1907",
    "community": "Dintikon",
    "community_code": "4194",
    "latitude": "47.3616",
    "longitude": "8.2218"
  },
  {
    "country_code": "CH",
    "zipcode": "5615",
    "place": "Fahrwangen",
    "state": "Kanton Aargau",
    "state_code": "AG",
    "province": "Bezirk Lenzburg",
    "province_code": "1907",
    "community": "Fahrwangen",
    "community_code": "4196",
    "latitude": "47.2863",
    "longitude": "8.2392"
  },
  {
    "country_code": "CH",
    "zipcode": "5616",
    "place": "Meisterschwanden",
    "state": "Kanton Aargau",
    "state_code": "AG",
    "province": "Bezirk Lenzburg",
    "province_code": "1907",
    "community": "Meisterschwanden",
    "community_code": "4202",
    "latitude": "47.2902",
    "longitude": "8.2258"
  },
  {
    "country_code": "CH",
    "zipcode": "5617",
    "place": "Tennwil",
    "state": "Kanton Aargau",
    "state_code": "AG",
    "province": "Bezirk Lenzburg",
    "province_code": "1907",
    "community": "Meisterschwanden",
    "community_code": "4202",
    "latitude": "47.3062",
    "longitude": "8.2191"
  },
  {
    "country_code": "CH",
    "zipcode": "5702",
    "place": "Niederlenz",
    "state": "Kanton Aargau",
    "state_code": "AG",
    "province": "Bezirk Lenzburg",
    "province_code": "1907",
    "community": "Niederlenz",
    "community_code": "4204",
    "latitude": "47.4034",
    "longitude": "8.1704"
  },
  {
    "country_code": "CH",
    "zipcode": "5703",
    "place": "Seon",
    "state": "Kanton Aargau",
    "state_code": "AG",
    "province": "Bezirk Lenzburg",
    "province_code": "1907",
    "community": "Seon",
    "community_code": "4209",
    "latitude": "47.3482",
    "longitude": "8.1576"
  },
  {
    "country_code": "CH",
    "zipcode": "5704",
    "place": "Egliswil",
    "state": "Kanton Aargau",
    "state_code": "AG",
    "province": "Bezirk Lenzburg",
    "province_code": "1907",
    "community": "Egliswil",
    "community_code": "4195",
    "latitude": "47.3517",
    "longitude": "8.1903"
  },
  {
    "country_code": "CH",
    "zipcode": "5705",
    "place": "Hallwil",
    "state": "Kanton Aargau",
    "state_code": "AG",
    "province": "Bezirk Lenzburg",
    "province_code": "1907",
    "community": "Hallwil",
    "community_code": "4197",
    "latitude": "47.3265",
    "longitude": "8.1779"
  },
  {
    "country_code": "CH",
    "zipcode": "5706",
    "place": "Boniswil",
    "state": "Kanton Aargau",
    "state_code": "AG",
    "province": "Bezirk Lenzburg",
    "province_code": "1907",
    "community": "Boniswil",
    "community_code": "4192",
    "latitude": "47.3118",
    "longitude": "8.1921"
  },
  {
    "country_code": "CH",
    "zipcode": "5707",
    "place": "Seengen",
    "state": "Kanton Aargau",
    "state_code": "AG",
    "province": "Bezirk Lenzburg",
    "province_code": "1907",
    "community": "Seengen",
    "community_code": "4208",
    "latitude": "47.3283",
    "longitude": "8.2087"
  },
  {
    "country_code": "CH",
    "zipcode": "5618",
    "place": "Bettwil",
    "state": "Kanton Aargau",
    "state_code": "AG",
    "province": "Bezirk Muri",
    "province_code": "1908",
    "community": "Bettwil",
    "community_code": "4227",
    "latitude": "47.2902",
    "longitude": "8.2717"
  },
  {
    "country_code": "CH",
    "zipcode": "5622",
    "place": "Waltenschwil",
    "state": "Kanton Aargau",
    "state_code": "AG",
    "province": "Bezirk Muri",
    "province_code": "1908",
    "community": "Waltenschwil",
    "community_code": "4240",
    "latitude": "47.3341",
    "longitude": "8.2989"
  },
  {
    "country_code": "CH",
    "zipcode": "5623",
    "place": "Boswil",
    "state": "Kanton Aargau",
    "state_code": "AG",
    "province": "Bezirk Muri",
    "province_code": "1908",
    "community": "Boswil",
    "community_code": "4228",
    "latitude": "47.2998",
    "longitude": "8.3092"
  },
  {
    "country_code": "CH",
    "zipcode": "5624",
    "place": "Bünzen",
    "state": "Kanton Aargau",
    "state_code": "AG",
    "province": "Bezirk Muri",
    "province_code": "1908",
    "community": "Bünzen",
    "community_code": "4229",
    "latitude": "47.3156",
    "longitude": "8.3263"
  },
  {
    "country_code": "CH",
    "zipcode": "5624",
    "place": "Waldhäusern AG",
    "state": "Kanton Aargau",
    "state_code": "AG",
    "province": "Bezirk Muri",
    "province_code": "1908",
    "community": "Bünzen",
    "community_code": "4229",
    "latitude": "47.3274",
    "longitude": "8.3164"
  },
  {
    "country_code": "CH",
    "zipcode": "5625",
    "place": "Kallern",
    "state": "Kanton Aargau",
    "state_code": "AG",
    "province": "Bezirk Muri",
    "province_code": "1908",
    "community": "Kallern",
    "community_code": "4233",
    "latitude": "47.3095",
    "longitude": "8.2901"
  },
  {
    "country_code": "CH",
    "zipcode": "5627",
    "place": "Besenbüren",
    "state": "Kanton Aargau",
    "state_code": "AG",
    "province": "Bezirk Muri",
    "province_code": "1908",
    "community": "Besenbüren",
    "community_code": "4226",
    "latitude": "47.3128",
    "longitude": "8.3449"
  },
  {
    "country_code": "CH",
    "zipcode": "5628",
    "place": "Aristau",
    "state": "Kanton Aargau",
    "state_code": "AG",
    "province": "Bezirk Muri",
    "province_code": "1908",
    "community": "Aristau",
    "community_code": "4222",
    "latitude": "47.2912",
    "longitude": "8.3647"
  },
  {
    "country_code": "CH",
    "zipcode": "5630",
    "place": "Muri AG",
    "state": "Kanton Aargau",
    "state_code": "AG",
    "province": "Bezirk Muri",
    "province_code": "1908",
    "community": "Muri (AG)",
    "community_code": "4236",
    "latitude": "47.272",
    "longitude": "8.3393"
  },
  {
    "country_code": "CH",
    "zipcode": "5632",
    "place": "Buttwil",
    "state": "Kanton Aargau",
    "state_code": "AG",
    "province": "Bezirk Muri",
    "province_code": "1908",
    "community": "Buttwil",
    "community_code": "4230",
    "latitude": "47.2688",
    "longitude": "8.3063"
  },
  {
    "country_code": "CH",
    "zipcode": "5634",
    "place": "Merenschwand",
    "state": "Kanton Aargau",
    "state_code": "AG",
    "province": "Bezirk Muri",
    "province_code": "1908",
    "community": "Merenschwand",
    "community_code": "4234",
    "latitude": "47.2627",
    "longitude": "8.3839"
  },
  {
    "country_code": "CH",
    "zipcode": "5636",
    "place": "Benzenschwil",
    "state": "Kanton Aargau",
    "state_code": "AG",
    "province": "Bezirk Muri",
    "province_code": "1908",
    "community": "Merenschwand",
    "community_code": "4234",
    "latitude": "47.2465",
    "longitude": "8.3637"
  },
  {
    "country_code": "CH",
    "zipcode": "5637",
    "place": "Beinwil (Freiamt)",
    "state": "Kanton Aargau",
    "state_code": "AG",
    "province": "Bezirk Muri",
    "province_code": "1908",
    "community": "Beinwil (Freiamt)",
    "community_code": "4224",
    "latitude": "47.2295",
    "longitude": "8.3392"
  },
  {
    "country_code": "CH",
    "zipcode": "5637",
    "place": "Geltwil",
    "state": "Kanton Aargau",
    "state_code": "AG",
    "province": "Bezirk Muri",
    "province_code": "1908",
    "community": "Geltwil",
    "community_code": "4232",
    "latitude": "47.249",
    "longitude": "8.326"
  },
  {
    "country_code": "CH",
    "zipcode": "5642",
    "place": "Mühlau",
    "state": "Kanton Aargau",
    "state_code": "AG",
    "province": "Bezirk Muri",
    "province_code": "1908",
    "community": "Mühlau",
    "community_code": "4235",
    "latitude": "47.2342",
    "longitude": "8.3891"
  },
  {
    "country_code": "CH",
    "zipcode": "5643",
    "place": "Meienberg",
    "state": "Kanton Aargau",
    "state_code": "AG",
    "province": "Bezirk Muri",
    "province_code": "1908",
    "community": "Sins",
    "community_code": "4239",
    "latitude": "47.1976",
    "longitude": "8.3767"
  },
  {
    "country_code": "CH",
    "zipcode": "5643",
    "place": "Alikon",
    "state": "Kanton Aargau",
    "state_code": "AG",
    "province": "Bezirk Muri",
    "province_code": "1908",
    "community": "Sins",
    "community_code": "4239",
    "latitude": "47.1965",
    "longitude": "8.3524"
  },
  {
    "country_code": "CH",
    "zipcode": "5643",
    "place": "Sins",
    "state": "Kanton Aargau",
    "state_code": "AG",
    "province": "Bezirk Muri",
    "province_code": "1908",
    "community": "Sins",
    "community_code": "4239",
    "latitude": "47.196",
    "longitude": "8.3851"
  },
  {
    "country_code": "CH",
    "zipcode": "5643",
    "place": "Sins",
    "state": "Kanton Aargau",
    "state_code": "AG",
    "province": "Bezirk Muri",
    "province_code": "1908",
    "community": "Sins",
    "community_code": "4239",
    "latitude": "47.196",
    "longitude": "8.3851"
  },
  {
    "country_code": "CH",
    "zipcode": "5644",
    "place": "Auw",
    "state": "Kanton Aargau",
    "state_code": "AG",
    "province": "Bezirk Muri",
    "province_code": "1908",
    "community": "Auw",
    "community_code": "4223",
    "latitude": "47.2148",
    "longitude": "8.3627"
  },
  {
    "country_code": "CH",
    "zipcode": "5645",
    "place": "Fenkrieden",
    "state": "Kanton Aargau",
    "state_code": "AG",
    "province": "Bezirk Muri",
    "province_code": "1908",
    "community": "Sins",
    "community_code": "4239",
    "latitude": "47.1595",
    "longitude": "8.3712"
  },
  {
    "country_code": "CH",
    "zipcode": "5645",
    "place": "Aettenschwil",
    "state": "Kanton Aargau",
    "state_code": "AG",
    "province": "Bezirk Muri",
    "province_code": "1908",
    "community": "Sins",
    "community_code": "4239",
    "latitude": "47.1838",
    "longitude": "8.3727"
  },
  {
    "country_code": "CH",
    "zipcode": "5646",
    "place": "Abtwil AG",
    "state": "Kanton Aargau",
    "state_code": "AG",
    "province": "Bezirk Muri",
    "province_code": "1908",
    "community": "Abtwil",
    "community_code": "4221",
    "latitude": "47.174",
    "longitude": "8.3538"
  },
  {
    "country_code": "CH",
    "zipcode": "5647",
    "place": "Oberrüti",
    "state": "Kanton Aargau",
    "state_code": "AG",
    "province": "Bezirk Muri",
    "province_code": "1908",
    "community": "Oberrüti",
    "community_code": "4237",
    "latitude": "47.1669",
    "longitude": "8.3986"
  },
  {
    "country_code": "CH",
    "zipcode": "6042",
    "place": "Dietwil",
    "state": "Kanton Aargau",
    "state_code": "AG",
    "province": "Bezirk Muri",
    "province_code": "1908",
    "community": "Dietwil",
    "community_code": "4231",
    "latitude": "47.1483",
    "longitude": "8.3963"
  },
  {
    "country_code": "CH",
    "zipcode": "8919",
    "place": "Rottenschwil",
    "state": "Kanton Aargau",
    "state_code": "AG",
    "province": "Bezirk Muri",
    "province_code": "1908",
    "community": "Rottenschwil",
    "community_code": "4238",
    "latitude": "47.3144",
    "longitude": "8.3659"
  },
  {
    "country_code": "CH",
    "zipcode": "4303",
    "place": "Kaiseraugst Liebrüti",
    "state": "Kanton Aargau",
    "state_code": "AG",
    "province": "Bezirk Rheinfelden",
    "province_code": "1909",
    "community": "Kaiseraugst",
    "community_code": "4252",
    "latitude": "47.5361",
    "longitude": "7.7421"
  },
  {
    "country_code": "CH",
    "zipcode": "4303",
    "place": "Kaiseraugst",
    "state": "Kanton Aargau",
    "state_code": "AG",
    "province": "Bezirk Rheinfelden",
    "province_code": "1909",
    "community": "Kaiseraugst",
    "community_code": "4252",
    "latitude": "47.5364",
    "longitude": "7.7428"
  },
  {
    "country_code": "CH",
    "zipcode": "4305",
    "place": "Olsberg",
    "state": "Kanton Aargau",
    "state_code": "AG",
    "province": "Bezirk Rheinfelden",
    "province_code": "1909",
    "community": "Olsberg",
    "community_code": "4257",
    "latitude": "47.526",
    "longitude": "7.7777"
  },
  {
    "country_code": "CH",
    "zipcode": "4310",
    "place": "Rheinfelden",
    "state": "Kanton Aargau",
    "state_code": "AG",
    "province": "Bezirk Rheinfelden",
    "province_code": "1909",
    "community": "Rheinfelden",
    "community_code": "4258",
    "latitude": "47.5493",
    "longitude": "7.7982"
  },
  {
    "country_code": "CH",
    "zipcode": "4310",
    "place": "Rheinfelden 1",
    "state": "Kanton Aargau",
    "state_code": "AG",
    "province": "Bezirk Rheinfelden",
    "province_code": "1909",
    "community": "Rheinfelden",
    "community_code": "4258",
    "latitude": "47.5559",
    "longitude": "7.8045"
  },
  {
    "country_code": "CH",
    "zipcode": "4312",
    "place": "Magden",
    "state": "Kanton Aargau",
    "state_code": "AG",
    "province": "Bezirk Rheinfelden",
    "province_code": "1909",
    "community": "Magden",
    "community_code": "4253",
    "latitude": "47.5196",
    "longitude": "7.8096"
  },
  {
    "country_code": "CH",
    "zipcode": "4313",
    "place": "Möhlin",
    "state": "Kanton Aargau",
    "state_code": "AG",
    "province": "Bezirk Rheinfelden",
    "province_code": "1909",
    "community": "Möhlin",
    "community_code": "4254",
    "latitude": "47.5655",
    "longitude": "7.8489"
  },
  {
    "country_code": "CH",
    "zipcode": "4314",
    "place": "Zeiningen",
    "state": "Kanton Aargau",
    "state_code": "AG",
    "province": "Bezirk Rheinfelden",
    "province_code": "1909",
    "community": "Zeiningen",
    "community_code": "4263",
    "latitude": "47.5433",
    "longitude": "7.8762"
  },
  {
    "country_code": "CH",
    "zipcode": "4315",
    "place": "Zuzgen",
    "state": "Kanton Aargau",
    "state_code": "AG",
    "province": "Bezirk Rheinfelden",
    "province_code": "1909",
    "community": "Zuzgen",
    "community_code": "4264",
    "latitude": "47.5243",
    "longitude": "7.8999"
  },
  {
    "country_code": "CH",
    "zipcode": "4316",
    "place": "Hellikon",
    "state": "Kanton Aargau",
    "state_code": "AG",
    "province": "Bezirk Rheinfelden",
    "province_code": "1909",
    "community": "Hellikon",
    "community_code": "4251",
    "latitude": "47.5089",
    "longitude": "7.9167"
  },
  {
    "country_code": "CH",
    "zipcode": "4317",
    "place": "Wegenstetten",
    "state": "Kanton Aargau",
    "state_code": "AG",
    "province": "Bezirk Rheinfelden",
    "province_code": "1909",
    "community": "Wegenstetten",
    "community_code": "4262",
    "latitude": "47.4939",
    "longitude": "7.9312"
  },
  {
    "country_code": "CH",
    "zipcode": "4322",
    "place": "Mumpf",
    "state": "Kanton Aargau",
    "state_code": "AG",
    "province": "Bezirk Rheinfelden",
    "province_code": "1909",
    "community": "Mumpf",
    "community_code": "4255",
    "latitude": "47.5451",
    "longitude": "7.9135"
  },
  {
    "country_code": "CH",
    "zipcode": "4323",
    "place": "Wallbach",
    "state": "Kanton Aargau",
    "state_code": "AG",
    "province": "Bezirk Rheinfelden",
    "province_code": "1909",
    "community": "Wallbach",
    "community_code": "4261",
    "latitude": "47.568",
    "longitude": "7.8979"
  },
  {
    "country_code": "CH",
    "zipcode": "4324",
    "place": "Obermumpf",
    "state": "Kanton Aargau",
    "state_code": "AG",
    "province": "Bezirk Rheinfelden",
    "province_code": "1909",
    "community": "Obermumpf",
    "community_code": "4256",
    "latitude": "47.5299",
    "longitude": "7.937"
  },
  {
    "country_code": "CH",
    "zipcode": "4325",
    "place": "Schupfart",
    "state": "Kanton Aargau",
    "state_code": "AG",
    "province": "Bezirk Rheinfelden",
    "province_code": "1909",
    "community": "Schupfart",
    "community_code": "4259",
    "latitude": "47.5134",
    "longitude": "7.9625"
  },
  {
    "country_code": "CH",
    "zipcode": "4332",
    "place": "Stein AG",
    "state": "Kanton Aargau",
    "state_code": "AG",
    "province": "Bezirk Rheinfelden",
    "province_code": "1909",
    "community": "Stein (AG)",
    "community_code": "4260",
    "latitude": "47.5452",
    "longitude": "7.9528"
  },
  {
    "country_code": "CH",
    "zipcode": "4663",
    "place": "Aarburg",
    "state": "Kanton Aargau",
    "state_code": "AG",
    "province": "Bezirk Zofingen",
    "province_code": "1910",
    "community": "Aarburg",
    "community_code": "4271",
    "latitude": "47.3236",
    "longitude": "7.9057"
  },
  {
    "country_code": "CH",
    "zipcode": "4665",
    "place": "Oftringen 2",
    "state": "Kanton Aargau",
    "state_code": "AG",
    "province": "Bezirk Zofingen",
    "province_code": "1910",
    "community": "Oftringen",
    "community_code": "4280",
    "latitude": "47.3134",
    "longitude": "7.939"
  },
  {
    "country_code": "CH",
    "zipcode": "4665",
    "place": "Oftringen 1",
    "state": "Kanton Aargau",
    "state_code": "AG",
    "province": "Bezirk Zofingen",
    "province_code": "1910",
    "community": "Oftringen",
    "community_code": "4280",
    "latitude": "47.3134",
    "longitude": "7.939"
  },
  {
    "country_code": "CH",
    "zipcode": "4665",
    "place": "Oftringen",
    "state": "Kanton Aargau",
    "state_code": "AG",
    "province": "Bezirk Zofingen",
    "province_code": "1910",
    "community": "Oftringen",
    "community_code": "4280",
    "latitude": "47.313",
    "longitude": "7.9391"
  },
  {
    "country_code": "CH",
    "zipcode": "4800",
    "place": "Zofingen",
    "state": "Kanton Aargau",
    "state_code": "AG",
    "province": "Bezirk Zofingen",
    "province_code": "1910",
    "community": "Zofingen",
    "community_code": "4289",
    "latitude": "47.2865",
    "longitude": "7.9576"
  },
  {
    "country_code": "CH",
    "zipcode": "4801",
    "place": "Zofingen",
    "state": "Kanton Aargau",
    "state_code": "AG",
    "province": "Bezirk Zofingen",
    "province_code": "1910",
    "community": "Zofingen",
    "community_code": "4289",
    "latitude": "47.2888",
    "longitude": "7.9633"
  },
  {
    "country_code": "CH",
    "zipcode": "4801",
    "place": "Zofingen Ringier AG",
    "state": "Kanton Aargau",
    "state_code": "AG",
    "province": "Bezirk Zofingen",
    "province_code": "1910",
    "community": "Zofingen",
    "community_code": "4289",
    "latitude": "47.2888",
    "longitude": "7.9633"
  },
  {
    "country_code": "CH",
    "zipcode": "4802",
    "place": "Strengelbach",
    "state": "Kanton Aargau",
    "state_code": "AG",
    "province": "Bezirk Zofingen",
    "province_code": "1910",
    "community": "Strengelbach",
    "community_code": "4285",
    "latitude": "47.2834",
    "longitude": "7.9225"
  },
  {
    "country_code": "CH",
    "zipcode": "4803",
    "place": "Vordemwald",
    "state": "Kanton Aargau",
    "state_code": "AG",
    "province": "Bezirk Zofingen",
    "province_code": "1910",
    "community": "Vordemwald",
    "community_code": "4287",
    "latitude": "47.2694",
    "longitude": "7.8926"
  },
  {
    "country_code": "CH",
    "zipcode": "4805",
    "place": "Brittnau",
    "state": "Kanton Aargau",
    "state_code": "AG",
    "province": "Bezirk Zofingen",
    "province_code": "1910",
    "community": "Brittnau",
    "community_code": "4274",
    "latitude": "47.2546",
    "longitude": "7.9287"
  },
  {
    "country_code": "CH",
    "zipcode": "4807",
    "place": "Zofingen PostFinance",
    "state": "Kanton Aargau",
    "state_code": "AG",
    "province": "Bezirk Zofingen",
    "province_code": "1910",
    "community": "Zofingen",
    "community_code": "4289",
    "latitude": "47.2888",
    "longitude": "7.9633"
  },
  {
    "country_code": "CH",
    "zipcode": "4807",
    "place": "Zofingen PF",
    "state": "Kanton Aargau",
    "state_code": "AG",
    "province": "Bezirk Zofingen",
    "province_code": "1910",
    "community": "Zofingen",
    "community_code": "4289",
    "latitude": "47.2888",
    "longitude": "7.9633"
  },
  {
    "country_code": "CH",
    "zipcode": "4808",
    "place": "Zofingen PostFinance",
    "state": "Kanton Aargau",
    "state_code": "AG",
    "province": "Bezirk Zofingen",
    "province_code": "1910",
    "community": "Zofingen",
    "community_code": "4289",
    "latitude": "47.2888",
    "longitude": "7.9633"
  },
  {
    "country_code": "CH",
    "zipcode": "4808",
    "place": "Zofingen PF",
    "state": "Kanton Aargau",
    "state_code": "AG",
    "province": "Bezirk Zofingen",
    "province_code": "1910",
    "community": "Zofingen",
    "community_code": "4289",
    "latitude": "47.2888",
    "longitude": "7.9633"
  },
  {
    "country_code": "CH",
    "zipcode": "4809",
    "place": "Zofingen PF",
    "state": "Kanton Aargau",
    "state_code": "AG",
    "province": "Bezirk Zofingen",
    "province_code": "1910",
    "community": "Zofingen",
    "community_code": "4289",
    "latitude": "47.2888",
    "longitude": "7.9633"
  },
  {
    "country_code": "CH",
    "zipcode": "4809",
    "place": "Zofingen PF UBS",
    "state": "Kanton Aargau",
    "state_code": "AG",
    "province": "Bezirk Zofingen",
    "province_code": "1910",
    "community": "Zofingen",
    "community_code": "4289",
    "latitude": "47.2888",
    "longitude": "7.9633"
  },
  {
    "country_code": "CH",
    "zipcode": "4809",
    "place": "Zofingen PF UBS Verarb.",
    "state": "Kanton Aargau",
    "state_code": "AG",
    "province": "Bezirk Zofingen",
    "province_code": "1910",
    "community": "Zofingen",
    "community_code": "4289",
    "latitude": "47.2888",
    "longitude": "7.9633"
  },
  {
    "country_code": "CH",
    "zipcode": "4809",
    "place": "Zofingen Postfinance UBS",
    "state": "Kanton Aargau",
    "state_code": "AG",
    "province": "Bezirk Zofingen",
    "province_code": "1910",
    "community": "Zofingen",
    "community_code": "4289",
    "latitude": "47.2888",
    "longitude": "7.9633"
  },
  {
    "country_code": "CH",
    "zipcode": "4810",
    "place": "Zofingen PF",
    "state": "Kanton Aargau",
    "state_code": "AG",
    "province": "Bezirk Zofingen",
    "province_code": "1910",
    "community": "Zofingen",
    "community_code": "4289",
    "latitude": "47.2888",
    "longitude": "7.9633"
  },
  {
    "country_code": "CH",
    "zipcode": "4812",
    "place": "Mühlethal",
    "state": "Kanton Aargau",
    "state_code": "AG",
    "province": "Bezirk Zofingen",
    "province_code": "1910",
    "community": "Zofingen",
    "community_code": "4289",
    "latitude": "47.299",
    "longitude": "7.9784"
  },
  {
    "country_code": "CH",
    "zipcode": "4813",
    "place": "Uerkheim",
    "state": "Kanton Aargau",
    "state_code": "AG",
    "province": "Bezirk Zofingen",
    "province_code": "1910",
    "community": "Uerkheim",
    "community_code": "4286",
    "latitude": "47.3042",
    "longitude": "8.01"
  },
  {
    "country_code": "CH",
    "zipcode": "4814",
    "place": "Bottenwil",
    "state": "Kanton Aargau",
    "state_code": "AG",
    "province": "Bezirk Zofingen",
    "province_code": "1910",
    "community": "Bottenwil",
    "community_code": "4273",
    "latitude": "47.2847",
    "longitude": "8.0021"
  },
  {
    "country_code": "CH",
    "zipcode": "4852",
    "place": "Rothrist",
    "state": "Kanton Aargau",
    "state_code": "AG",
    "province": "Bezirk Zofingen",
    "province_code": "1910",
    "community": "Rothrist",
    "community_code": "4282",
    "latitude": "47.2983",
    "longitude": "7.8836"
  },
  {
    "country_code": "CH",
    "zipcode": "4853",
    "place": "Murgenthal",
    "state": "Kanton Aargau",
    "state_code": "AG",
    "province": "Bezirk Zofingen",
    "province_code": "1910",
    "community": "Murgenthal",
    "community_code": "4279",
    "latitude": "47.2698",
    "longitude": "7.8388"
  },
  {
    "country_code": "CH",
    "zipcode": "4853",
    "place": "Riken AG",
    "state": "Kanton Aargau",
    "state_code": "AG",
    "province": "Bezirk Zofingen",
    "province_code": "1910",
    "community": "Murgenthal",
    "community_code": "4279",
    "latitude": "47.2729",
    "longitude": "7.8612"
  },
  {
    "country_code": "CH",
    "zipcode": "4853",
    "place": "Murgenthal",
    "state": "Kanton Aargau",
    "state_code": "AG",
    "province": "Bezirk Zofingen",
    "province_code": "1910",
    "community": "Murgenthal",
    "community_code": "4279",
    "latitude": "47.2698",
    "longitude": "7.8388"
  },
  {
    "country_code": "CH",
    "zipcode": "4856",
    "place": "Glashütten",
    "state": "Kanton Aargau",
    "state_code": "AG",
    "province": "Bezirk Zofingen",
    "province_code": "1910",
    "community": "Murgenthal",
    "community_code": "4279",
    "latitude": "47.2492",
    "longitude": "7.8546"
  },
  {
    "country_code": "CH",
    "zipcode": "5053",
    "place": "Wittwil",
    "state": "Kanton Aargau",
    "state_code": "AG",
    "province": "Bezirk Zofingen",
    "province_code": "1910",
    "community": "Staffelbach",
    "community_code": "4284",
    "latitude": "47.2931",
    "longitude": "8.0359"
  },
  {
    "country_code": "CH",
    "zipcode": "5053",
    "place": "Staffelbach",
    "state": "Kanton Aargau",
    "state_code": "AG",
    "province": "Bezirk Zofingen",
    "province_code": "1910",
    "community": "Staffelbach",
    "community_code": "4284",
    "latitude": "47.2813",
    "longitude": "8.0391"
  },
  {
    "country_code": "CH",
    "zipcode": "5054",
    "place": "Kirchleerau-Moosleerau",
    "state": "Kanton Aargau",
    "state_code": "AG",
    "province": "Bezirk Zofingen",
    "province_code": "1910",
    "community": "Kirchleerau",
    "community_code": "4275",
    "latitude": "47.2772",
    "longitude": "8.0741"
  },
  {
    "country_code": "CH",
    "zipcode": "5054",
    "place": "Kirchleerau",
    "state": "Kanton Aargau",
    "state_code": "AG",
    "province": "Bezirk Zofingen",
    "province_code": "1910",
    "community": "Kirchleerau",
    "community_code": "4275",
    "latitude": "47.2772",
    "longitude": "8.074"
  },
  {
    "country_code": "CH",
    "zipcode": "5054",
    "place": "Moosleerau",
    "state": "Kanton Aargau",
    "state_code": "AG",
    "province": "Bezirk Zofingen",
    "province_code": "1910",
    "community": "Moosleerau",
    "community_code": "4277",
    "latitude": "47.2645",
    "longitude": "8.0661"
  },
  {
    "country_code": "CH",
    "zipcode": "5056",
    "place": "Attelwil",
    "state": "Kanton Aargau",
    "state_code": "AG",
    "province": "Bezirk Zofingen",
    "province_code": "1910",
    "community": "Reitnau",
    "community_code": "4281",
    "latitude": "47.2634",
    "longitude": "8.0397"
  },
  {
    "country_code": "CH",
    "zipcode": "5057",
    "place": "Reitnau",
    "state": "Kanton Aargau",
    "state_code": "AG",
    "province": "Bezirk Zofingen",
    "province_code": "1910",
    "community": "Reitnau",
    "community_code": "4281",
    "latitude": "47.2515",
    "longitude": "8.0354"
  },
  {
    "country_code": "CH",
    "zipcode": "5058",
    "place": "Wiliberg",
    "state": "Kanton Aargau",
    "state_code": "AG",
    "province": "Bezirk Zofingen",
    "province_code": "1910",
    "community": "Wiliberg",
    "community_code": "4288",
    "latitude": "47.2669",
    "longitude": "8.0166"
  },
  {
    "country_code": "CH",
    "zipcode": "5742",
    "place": "Kölliken",
    "state": "Kanton Aargau",
    "state_code": "AG",
    "province": "Bezirk Zofingen",
    "province_code": "1910",
    "community": "Kölliken",
    "community_code": "4276",
    "latitude": "47.3347",
    "longitude": "8.021"
  },
  {
    "country_code": "CH",
    "zipcode": "5745",
    "place": "Safenwil",
    "state": "Kanton Aargau",
    "state_code": "AG",
    "province": "Bezirk Zofingen",
    "province_code": "1910",
    "community": "Safenwil",
    "community_code": "4283",
    "latitude": "47.3197",
    "longitude": "7.9869"
  },
  {
    "country_code": "CH",
    "zipcode": "5304",
    "place": "Endingen",
    "state": "Kanton Aargau",
    "state_code": "AG",
    "province": "Bezirk Zurzach",
    "province_code": "1911",
    "community": "Endingen",
    "community_code": "4305",
    "latitude": "47.5307",
    "longitude": "8.2901"
  },
  {
    "country_code": "CH",
    "zipcode": "5305",
    "place": "Unterendingen",
    "state": "Kanton Aargau",
    "state_code": "AG",
    "province": "Bezirk Zurzach",
    "province_code": "1911",
    "community": "Endingen",
    "community_code": "4305",
    "latitude": "47.5461",
    "longitude": "8.289"
  },
  {
    "country_code": "CH",
    "zipcode": "5306",
    "place": "Tegerfelden",
    "state": "Kanton Aargau",
    "state_code": "AG",
    "province": "Bezirk Zurzach",
    "province_code": "1911",
    "community": "Tegerfelden",
    "community_code": "4320",
    "latitude": "47.5619",
    "longitude": "8.2849"
  },
  {
    "country_code": "CH",
    "zipcode": "5312",
    "place": "Döttingen",
    "state": "Kanton Aargau",
    "state_code": "AG",
    "province": "Bezirk Zurzach",
    "province_code": "1911",
    "community": "Döttingen",
    "community_code": "4304",
    "latitude": "47.56",
    "longitude": "8.253"
  },
  {
    "country_code": "CH",
    "zipcode": "5313",
    "place": "Klingnau",
    "state": "Kanton Aargau",
    "state_code": "AG",
    "province": "Bezirk Zurzach",
    "province_code": "1911",
    "community": "Klingnau",
    "community_code": "4309",
    "latitude": "47.5886",
    "longitude": "8.2507"
  },
  {
    "country_code": "CH",
    "zipcode": "5314",
    "place": "Kleindöttingen",
    "state": "Kanton Aargau",
    "state_code": "AG",
    "province": "Bezirk Zurzach",
    "province_code": "1911",
    "community": "Böttstein",
    "community_code": "4303",
    "latitude": "47.5692",
    "longitude": "8.238"
  },
  {
    "country_code": "CH",
    "zipcode": "5315",
    "place": "Böttstein",
    "state": "Kanton Aargau",
    "state_code": "AG",
    "province": "Bezirk Zurzach",
    "province_code": "1911",
    "community": "Böttstein",
    "community_code": "4303",
    "latitude": "47.5529",
    "longitude": "8.2181"
  },
  {
    "country_code": "CH",
    "zipcode": "5316",
    "place": "Leuggern",
    "state": "Kanton Aargau",
    "state_code": "AG",
    "province": "Bezirk Zurzach",
    "province_code": "1911",
    "community": "Leuggern",
    "community_code": "4313",
    "latitude": "47.584",
    "longitude": "8.2169"
  },
  {
    "country_code": "CH",
    "zipcode": "5317",
    "place": "Hettenschwil",
    "state": "Kanton Aargau",
    "state_code": "AG",
    "province": "Bezirk Zurzach",
    "province_code": "1911",
    "community": "Leuggern",
    "community_code": "4313",
    "latitude": "47.5739",
    "longitude": "8.1939"
  },
  {
    "country_code": "CH",
    "zipcode": "5322",
    "place": "Koblenz",
    "state": "Kanton Aargau",
    "state_code": "AG",
    "province": "Bezirk Zurzach",
    "province_code": "1911",
    "community": "Koblenz",
    "community_code": "4310",
    "latitude": "47.6044",
    "longitude": "8.2447"
  },
  {
    "country_code": "CH",
    "zipcode": "5323",
    "place": "Rietheim",
    "state": "Kanton Aargau",
    "state_code": "AG",
    "province": "Bezirk Zurzach",
    "province_code": "1911",
    "community": "Zurzach",
    "community_code": "4324",
    "latitude": "47.6029",
    "longitude": "8.2739"
  },
  {
    "country_code": "CH",
    "zipcode": "5324",
    "place": "Full-Reuenthal",
    "state": "Kanton Aargau",
    "state_code": "AG",
    "province": "Bezirk Zurzach",
    "province_code": "1911",
    "community": "Full-Reuenthal",
    "community_code": "4307",
    "latitude": "47.6087",
    "longitude": "8.2028"
  },
  {
    "country_code": "CH",
    "zipcode": "5325",
    "place": "Leibstadt",
    "state": "Kanton Aargau",
    "state_code": "AG",
    "province": "Bezirk Zurzach",
    "province_code": "1911",
    "community": "Leibstadt",
    "community_code": "4311",
    "latitude": "47.5897",
    "longitude": "8.1784"
  },
  {
    "country_code": "CH",
    "zipcode": "5330",
    "place": "Bad Zurzach",
    "state": "Kanton Aargau",
    "state_code": "AG",
    "province": "Bezirk Zurzach",
    "province_code": "1911",
    "community": "Zurzach",
    "community_code": "4324",
    "latitude": "47.5859",
    "longitude": "8.292"
  },
  {
    "country_code": "CH",
    "zipcode": "5332",
    "place": "Rekingen AG",
    "state": "Kanton Aargau",
    "state_code": "AG",
    "province": "Bezirk Zurzach",
    "province_code": "1911",
    "community": "Zurzach",
    "community_code": "4324",
    "latitude": "47.5671",
    "longitude": "8.3218"
  },
  {
    "country_code": "CH",
    "zipcode": "5333",
    "place": "Baldingen",
    "state": "Kanton Aargau",
    "state_code": "AG",
    "province": "Bezirk Zurzach",
    "province_code": "1911",
    "community": "Zurzach",
    "community_code": "4324",
    "latitude": "47.5548",
    "longitude": "8.3136"
  },
  {
    "country_code": "CH",
    "zipcode": "5334",
    "place": "Böbikon",
    "state": "Kanton Aargau",
    "state_code": "AG",
    "province": "Bezirk Zurzach",
    "province_code": "1911",
    "community": "Zurzach",
    "community_code": "4324",
    "latitude": "47.5504",
    "longitude": "8.3379"
  },
  {
    "country_code": "CH",
    "zipcode": "5425",
    "place": "Schneisingen",
    "state": "Kanton Aargau",
    "state_code": "AG",
    "province": "Bezirk Zurzach",
    "province_code": "1911",
    "community": "Schneisingen",
    "community_code": "4318",
    "latitude": "47.5249",
    "longitude": "8.3617"
  },
  {
    "country_code": "CH",
    "zipcode": "5426",
    "place": "Lengnau AG",
    "state": "Kanton Aargau",
    "state_code": "AG",
    "province": "Bezirk Zurzach",
    "province_code": "1911",
    "community": "Lengnau (AG)",
    "community_code": "4312",
    "latitude": "47.5251",
    "longitude": "8.3241"
  },
  {
    "country_code": "CH",
    "zipcode": "5462",
    "place": "Siglistorf",
    "state": "Kanton Aargau",
    "state_code": "AG",
    "province": "Bezirk Zurzach",
    "province_code": "1911",
    "community": "Siglistorf",
    "community_code": "4319",
    "latitude": "47.5387",
    "longitude": "8.387"
  },
  {
    "country_code": "CH",
    "zipcode": "5463",
    "place": "Wislikofen",
    "state": "Kanton Aargau",
    "state_code": "AG",
    "province": "Bezirk Zurzach",
    "province_code": "1911",
    "community": "Zurzach",
    "community_code": "4324",
    "latitude": "47.5537",
    "longitude": "8.3667"
  },
  {
    "country_code": "CH",
    "zipcode": "5464",
    "place": "Rümikon AG",
    "state": "Kanton Aargau",
    "state_code": "AG",
    "province": "Bezirk Zurzach",
    "province_code": "1911",
    "community": "Zurzach",
    "community_code": "4324",
    "latitude": "47.5643",
    "longitude": "8.3806"
  },
  {
    "country_code": "CH",
    "zipcode": "5465",
    "place": "Mellikon",
    "state": "Kanton Aargau",
    "state_code": "AG",
    "province": "Bezirk Zurzach",
    "province_code": "1911",
    "community": "Mellikon",
    "community_code": "4314",
    "latitude": "47.5633",
    "longitude": "8.3472"
  },
  {
    "country_code": "CH",
    "zipcode": "5466",
    "place": "Kaiserstuhl AG",
    "state": "Kanton Aargau",
    "state_code": "AG",
    "province": "Bezirk Zurzach",
    "province_code": "1911",
    "community": "Zurzach",
    "community_code": "4324",
    "latitude": "47.5677",
    "longitude": "8.419"
  },
  {
    "country_code": "CH",
    "zipcode": "5467",
    "place": "Fisibach",
    "state": "Kanton Aargau",
    "state_code": "AG",
    "province": "Bezirk Zurzach",
    "province_code": "1911",
    "community": "Fisibach",
    "community_code": "4306",
    "latitude": "47.5583",
    "longitude": "8.4047"
  },
  {
    "country_code": "CH",
    "zipcode": "9050",
    "place": "Appenzell Schlatt",
    "state": "Kanton Appenzell Innerrhoden",
    "state_code": "AI",
    "province": "Appenzell Inner Rhodes",
    "province_code": "1600",
    "community": "Schlatt-Haslen",
    "community_code": "3104",
    "latitude": "47.3563",
    "longitude": "9.4015"
  },
  {
    "country_code": "CH",
    "zipcode": "9050",
    "place": "Appenzell Steinegg",
    "state": "Kanton Appenzell Innerrhoden",
    "state_code": "AI",
    "province": "Appenzell Inner Rhodes",
    "province_code": "1600",
    "community": "Rüte",
    "community_code": "3103",
    "latitude": "47.3211",
    "longitude": "9.4522"
  },
  {
    "country_code": "CH",
    "zipcode": "9050",
    "place": "Appenzell Enggenhütten",
    "state": "Kanton Appenzell Innerrhoden",
    "state_code": "AI",
    "province": "Appenzell Inner Rhodes",
    "province_code": "1600",
    "community": "Schlatt-Haslen",
    "community_code": "3104",
    "latitude": "47.3491",
    "longitude": "9.3614"
  },
  {
    "country_code": "CH",
    "zipcode": "9050",
    "place": "Appenzell Meistersrüte",
    "state": "Kanton Appenzell Innerrhoden",
    "state_code": "AI",
    "province": "Appenzell Inner Rhodes",
    "province_code": "1600",
    "community": "Appenzell",
    "community_code": "3101",
    "latitude": "47.348",
    "longitude": "9.4364"
  },
  {
    "country_code": "CH",
    "zipcode": "9050",
    "place": "Appenzell",
    "state": "Kanton Appenzell Innerrhoden",
    "state_code": "AI",
    "province": "Appenzell Inner Rhodes",
    "province_code": "1600",
    "community": "Appenzell",
    "community_code": "3101",
    "latitude": "47.3238",
    "longitude": "9.4038"
  },
  {
    "country_code": "CH",
    "zipcode": "9050",
    "place": "Appenzell Eggerstanden",
    "state": "Kanton Appenzell Innerrhoden",
    "state_code": "AI",
    "province": "Appenzell Inner Rhodes",
    "province_code": "1600",
    "community": "Rüte",
    "community_code": "3103",
    "latitude": "47.334",
    "longitude": "9.4797"
  },
  {
    "country_code": "CH",
    "zipcode": "9054",
    "place": "Haslen AI",
    "state": "Kanton Appenzell Innerrhoden",
    "state_code": "AI",
    "province": "Appenzell Inner Rhodes",
    "province_code": "1600",
    "community": "Schlatt-Haslen",
    "community_code": "3104",
    "latitude": "47.3692",
    "longitude": "9.3788"
  },
  {
    "country_code": "CH",
    "zipcode": "9057",
    "place": "Wasserauen",
    "state": "Kanton Appenzell Innerrhoden",
    "state_code": "AI",
    "province": "Appenzell Inner Rhodes",
    "province_code": "1600",
    "community": "Schwende",
    "community_code": "3105",
    "latitude": "47.2644",
    "longitude": "9.3918"
  },
  {
    "country_code": "CH",
    "zipcode": "9057",
    "place": "Schwende",
    "state": "Kanton Appenzell Innerrhoden",
    "state_code": "AI",
    "province": "Appenzell Inner Rhodes",
    "province_code": "1600",
    "community": "Schwende",
    "community_code": "3105",
    "latitude": "47.2965",
    "longitude": "9.4345"
  },
  {
    "country_code": "CH",
    "zipcode": "9057",
    "place": "Weissbad",
    "state": "Kanton Appenzell Innerrhoden",
    "state_code": "AI",
    "province": "Appenzell Inner Rhodes",
    "province_code": "1600",
    "community": "Rüte",
    "community_code": "3103",
    "latitude": "47.2868",
    "longitude": "9.3818"
  },
  {
    "country_code": "CH",
    "zipcode": "9058",
    "place": "Brülisau",
    "state": "Kanton Appenzell Innerrhoden",
    "state_code": "AI",
    "province": "Appenzell Inner Rhodes",
    "province_code": "1600",
    "community": "Rüte",
    "community_code": "3103",
    "latitude": "47.2799",
    "longitude": "9.4497"
  },
  {
    "country_code": "CH",
    "zipcode": "9108",
    "place": "Jakobsbad",
    "state": "Kanton Appenzell Innerrhoden",
    "state_code": "AI",
    "province": "Appenzell Inner Rhodes",
    "province_code": "1600",
    "community": "Gonten",
    "community_code": "3102",
    "latitude": "47.3064",
    "longitude": "9.3299"
  },
  {
    "country_code": "CH",
    "zipcode": "9108",
    "place": "Gonten",
    "state": "Kanton Appenzell Innerrhoden",
    "state_code": "AI",
    "province": "Appenzell Inner Rhodes",
    "province_code": "1600",
    "community": "Gonten",
    "community_code": "3102",
    "latitude": "47.3237",
    "longitude": "9.3494"
  },
  {
    "country_code": "CH",
    "zipcode": "9108",
    "place": "Gontenbad",
    "state": "Kanton Appenzell Innerrhoden",
    "state_code": "AI",
    "province": "Appenzell Inner Rhodes",
    "province_code": "1600",
    "community": "Gonten",
    "community_code": "3102",
    "latitude": "47.3259",
    "longitude": "9.3707"
  },
  {
    "country_code": "CH",
    "zipcode": "9413",
    "place": "Oberegg",
    "state": "Kanton Appenzell Innerrhoden",
    "state_code": "AI",
    "province": "Appenzell Inner Rhodes",
    "province_code": "1600",
    "community": "Oberegg",
    "community_code": "3111",
    "latitude": "47.4165",
    "longitude": "9.5533"
  },
  {
    "country_code": "CH",
    "zipcode": "9413",
    "place": "Oberegg",
    "state": "Kanton Appenzell Innerrhoden",
    "state_code": "AI",
    "province": "Appenzell Inner Rhodes",
    "province_code": "1600",
    "community": "Oberegg",
    "community_code": "3111",
    "latitude": "47.4165",
    "longitude": "9.5533"
  },
  {
    "country_code": "CH",
    "zipcode": "9442",
    "place": "Büriswilen",
    "state": "Kanton Appenzell Innerrhoden",
    "state_code": "AI",
    "province": "Appenzell Inner Rhodes",
    "province_code": "1600",
    "community": "Oberegg",
    "community_code": "3111",
    "latitude": "47.4331",
    "longitude": "9.6025"
  },
  {
    "country_code": "CH",
    "zipcode": "9063",
    "place": "Stein AR",
    "state": "Kanton Appenzell Ausserrhoden",
    "state_code": "AR",
    "province": "Bezirk Hinterland",
    "province_code": "1501",
    "community": "Stein (AR)",
    "community_code": "3005",
    "latitude": "47.3761",
    "longitude": "9.3417"
  },
  {
    "country_code": "CH",
    "zipcode": "9064",
    "place": "Hundwil",
    "state": "Kanton Appenzell Ausserrhoden",
    "state_code": "AR",
    "province": "Bezirk Hinterland",
    "province_code": "1501",
    "community": "Hundwil",
    "community_code": "3002",
    "latitude": "47.3517",
    "longitude": "9.319"
  },
  {
    "country_code": "CH",
    "zipcode": "9100",
    "place": "Herisau",
    "state": "Kanton Appenzell Ausserrhoden",
    "state_code": "AR",
    "province": "Bezirk Hinterland",
    "province_code": "1501",
    "community": "Herisau",
    "community_code": "3001",
    "latitude": "47.3833",
    "longitude": "9.2813"
  },
  {
    "country_code": "CH",
    "zipcode": "9102",
    "place": "Herisau",
    "state": "Kanton Appenzell Ausserrhoden",
    "state_code": "AR",
    "province": "Bezirk Hinterland",
    "province_code": "1501",
    "community": "Herisau",
    "community_code": "3001",
    "latitude": "47.3861",
    "longitude": "9.2792"
  },
  {
    "country_code": "CH",
    "zipcode": "9103",
    "place": "Schwellbrunn",
    "state": "Kanton Appenzell Ausserrhoden",
    "state_code": "AR",
    "province": "Bezirk Hinterland",
    "province_code": "1501",
    "community": "Schwellbrunn",
    "community_code": "3004",
    "latitude": "47.3516",
    "longitude": "9.2362"
  },
  {
    "country_code": "CH",
    "zipcode": "9104",
    "place": "Waldstatt",
    "state": "Kanton Appenzell Ausserrhoden",
    "state_code": "AR",
    "province": "Bezirk Hinterland",
    "province_code": "1501",
    "community": "Waldstatt",
    "community_code": "3007",
    "latitude": "47.3567",
    "longitude": "9.2854"
  },
  {
    "country_code": "CH",
    "zipcode": "9105",
    "place": "Schönengrund",
    "state": "Kanton Appenzell Ausserrhoden",
    "state_code": "AR",
    "province": "Bezirk Hinterland",
    "province_code": "1501",
    "community": "Schönengrund",
    "community_code": "3003",
    "latitude": "47.3254",
    "longitude": "9.2267"
  },
  {
    "country_code": "CH",
    "zipcode": "9107",
    "place": "Urnäsch",
    "state": "Kanton Appenzell Ausserrhoden",
    "state_code": "AR",
    "province": "Bezirk Hinterland",
    "province_code": "1501",
    "community": "Urnäsch",
    "community_code": "3006",
    "latitude": "47.2948",
    "longitude": "9.2779"
  },
  {
    "country_code": "CH",
    "zipcode": "9112",
    "place": "Schachen b. Herisau",
    "state": "Kanton Appenzell Ausserrhoden",
    "state_code": "AR",
    "province": "Bezirk Hinterland",
    "province_code": "1501",
    "community": "Herisau",
    "community_code": "3001",
    "latitude": "47.3797",
    "longitude": "9.2366"
  },