[{"country_code":"CH","zipcode":"5000","place":"Aarau","state":"Kanton Aargau","state_code":"AG","province":"Bezirk Aarau","province_code":"1901","community":"Aarau","community_code":"4001","latitude":"47.3925","longitude":"8.0442"},{"country_code":"CH","zipcode":"5001","place":"Aarau 1","state":"Kanton Aargau","state_code":"AG","province":"Bezirk Aarau","province_code":"1901","community":"Aarau","community_code":"4001","latitude":"47.3888","longitude":"8.0483"},{"country_code":"CH","zipcode":"5004","place":"Aarau","state":"Kanton Aargau","state_code":"AG","province":"Bezirk Aarau","province_code":"1901","community":"Aarau","community_code":"4001","latitude":"47.3925","longitude":"8.0442"},{"country_code":"CH","zipcode":"5017","place":"Barmelweid","state":"Kanton Aargau","state_code":"AG","province":"Bezirk Aarau","province_code":"1901","community":"Erlinsbach (AG)","community_code":"4005","latitude":"47.4159","longitude":"7.9764"},{"country_code":"CH","zipcode":"5018","place":"Erlinsbach","state":"Kanton Aargau","state_code":"AG","province":"Bezirk Aarau","province_code":"1901","community":"Erlinsbach (AG)","community_code":"4005","latitude":"47.4052","longitude":"8.0151"},{"country_code":"CH","zipcode":"5022","place":"Rombach","state":"Kanton Aargau","state_code":"AG","province":"Bezirk Aarau","province_code":"1901","community":"Küttigen","community_code":"4008","latitude":"47.4047","longitude":"8.0459"},{"country_code":"CH","zipcode":"5023","place":"Biberstein","state":"Kanton Aargau","state_code":"AG","province":"Bezirk Aarau","province_code":"1901","community":"Biberstein","community_code":"4002","latitude":"47.4164","longitude":"8.0851"},{"country_code":"CH","zipcode":"5024","place":"Küttigen","state":"Kanton Aargau","state_code":"AG","province":"Bezirk Aarau","province_code":"1901","community":"Küttigen","community_code":"4008","latitude":"47.4157","longitude":"8.0477"},{"country_code":"CH","zipcode":"5025","place":"Asp","state":"Kanton Aargau","state_code":"AG","province":"Bezirk Aarau","province_code":"1901","community":"Densbüren","community_code":"4004","latitude":"47.445","longitude":"8.0503"},{"country_code":"CH","zipcode":"5026","place":"Densbüren","state":"Kanton Aargau","state_code":"AG","province":"Bezirk Aarau","province_code":"1901","community":"Densbüren","community_code":"4004","latitude":"47.4526","longitude":"8.0533"},{"country_code":"CH","zipcode":"5032","place":"Aarau Rohr","state":"Kanton Aargau","state_code":"AG","province":"Bezirk Aarau","province_code":"1901","community":"Aarau","community_code":"4001","latitude":"47.4017","longitude":"8.0796"},{"country_code":"CH","zipcode":"5033","place":"Buchs AG","state":"Kanton Aargau","state_code":"AG","province":"Bezirk Aarau","province_code":"1901","community":"Buchs (AG)","community_code":"4003","latitude":"47.3936","longitude":"8.0823"},{"country_code":"CH","zipcode":"5034","place":"Suhr","state":"Kanton Aargau","state_code":"AG","province":"Bezirk Aarau","province_code":"1901","community":"Suhr","community_code":"4012","latitude":"47.3717","longitude":"8.0797"},{"country_code":"CH","zipcode":"5035","place":"Unterentfelden","state":"Kanton Aargau","state_code":"AG","province":"Bezirk Aarau","province_code":"1901","community":"Unterentfelden","community_code":"4013","latitude":"47.3681","longitude":"8.0502"},{"country_code":"CH","zipcode":"5036","place":"Oberentfelden","state":"Kanton Aargau","state_code":"AG","province":"Bezirk Aarau","province_code":"1901","community":"Oberentfelden","community_code":"4010","latitude":"47.3564","longitude":"8.0459"},{"country_code":"CH","zipcode":"5037","place":"Muhen","state":"Kanton Aargau","state_code":"AG","province":"Bezirk Aarau","province_code":"1901","community":"Muhen","community_code":"4009","latitude":"47.3367","longitude":"8.0541"},{"country_code":"CH","zipcode":"5042","place":"Hirschthal","state":"Kanton Aargau","state_code":"AG","province":"Bezirk Aarau","province_code":"1901","community":"Hirschthal","community_code":"4007","latitude":"47.3187","longitude":"8.0564"},{"country_code":"CH","zipcode":"5722","place":"Gränichen","state":"Kanton Aargau","state_code":"AG","province":"Bezirk Aarau","province_code":"1901","community":"Gränichen","community_code":"4006","latitude":"47.3593","longitude":"8.1024"},{"country_code":"CH","zipcode":"5300","place":"Turgi","state":"Kanton Aargau","state_code":"AG","province":"Bezirk Baden","province_code":"1902","community":"Turgi","community_code":"4042","latitude":"47.492","longitude":"8.2541"},{"country_code":"CH","zipcode":"5301","place":"Siggenthal Station","state":"Kanton Aargau","state_code":"AG","province":"Bezirk Baden","province_code":"1902","community":"Untersiggenthal","community_code":"4044","latitude":"47.5174","longitude":"8.2395"},{"country_code":"CH","zipcode":"5303","place":"Würenlingen","state":"Kanton Aargau","state_code":"AG","province":"Bezirk Baden","province_code":"1902","community":"Würenlingen","community_code":"4047","latitude":"47.5336","longitude":"8.2567"},{"country_code":"CH","zipcode":"5400","place":"Baden","state":"Kanton Aargau","state_code":"AG","province":"Bezirk Baden","province_code":"1902","community":"Baden","community_code":"4021","latitude":"47.4733","longitude":"8.3059"},{"country_code":"CH","zipcode":"5401","place":"Baden","state":"Kanton Aargau","state_code":"AG","province":"Bezirk Baden","province_code":"1902","community":"Baden","community_code":"4021","latitude":"47.4651","longitude":"8.2896"},{"country_code":"CH","zipcode":"5402","place":"Baden","state":"Kanton Aargau","state_code":"AG","province":"Bezirk Baden","province_code":"1902","community":"Baden","community_code":"4021","latitude":"47.4651","longitude":"8.2896"},{"country_code":"CH","zipcode":"5404","place":"Baden","state":"Kanton Aargau","state_code":"AG","province":"Bezirk Baden","province_code":"1902","community":"Baden","community_code":"4021","latitude":"47.4733","longitude":"8.3059"},{"country_code":"CH","zipcode":"5405","place":"Dättwil AG","state":"Kanton Aargau","state_code":"AG","province":"Bezirk Baden","province_code":"1902","community":"Baden","community_code":"4021","latitude":"47.4551","longitude":"8.2847"},{"country_code":"CH","zipcode":"5406","place":"Rütihof","state":"Kanton Aargau","state_code":"AG","province":"Bezirk Baden","province_code":"1902","community":"Baden","community_code":"4021","latitude":"47.44","longitude":"8.2712"},{"country_code":"CH","zipcode":"5408","place":"Ennetbaden","state":"Kanton Aargau","state_code":"AG","province":"Bezirk Baden","province_code":"1902","community":"Ennetbaden","community_code":"4026","latitude":"47.4804","longitude":"8.3235"},{"country_code":"CH","zipcode":"5412","place":"Vogelsang AG","state":"Kanton Aargau","state_code":"AG","province":"Bezirk Baden","province_code":"1902","community":"Gebenstorf","community_code":"4029","latitude":"47.4943","longitude":"8.2382"},{"country_code":"CH","zipcode":"5412","place":"Gebenstorf","state":"Kanton Aargau","state_code":"AG","province":"Bezirk Baden","province_code":"1902","community":"Gebenstorf","community_code":"4029","latitude":"47.4814","longitude":"8.2395"},{"country_code":"CH","zipcode":"5413","place":"Birmenstorf AG","state":"Kanton Aargau","state_code":"AG","province":"Bezirk Baden","province_code":"1902","community":"Birmenstorf (AG)","community_code":"4024","latitude":"47.4615","longitude":"8.2482"},{"country_code":"CH","zipcode":"5415","place":"Nussbaumen AG","state":"Kanton Aargau","state_code":"AG","province":"Bezirk Baden","province_code":"1902","community":"Obersiggenthal","community_code":"4038","latitude":"47.4872","longitude":"8.2917"},{"country_code":"CH","zipcode":"5415","place":"Hertenstein AG","state":"Kanton Aargau","state_code":"AG","province":"Bezirk Baden","province_code":"1902","community":"Obersiggenthal","community_code":"4038","latitude":"47.4871","longitude":"8.3115"},{"country_code":"CH","zipcode":"5415","place":"Rieden AG","state":"Kanton Aargau","state_code":"AG","province":"Bezirk Baden","province_code":"1902","community":"Obersiggenthal","community_code":"4038","latitude":"47.4846","longitude":"8.3018"},{"country_code":"CH","zipcode":"5416","place":"Kirchdorf AG","state":"Kanton Aargau","state_code":"AG","province":"Bezirk Baden","province_code":"1902","community":"Obersiggenthal","community_code":"4038","latitude":"47.4966","longitude":"8.2754"},{"country_code":"CH","zipcode":"5417","place":"Untersiggenthal","state":"Kanton Aargau","state_code":"AG","province":"Bezirk Baden","province_code":"1902","community":"Untersiggenthal","community_code":"4044","latitude":"47.5021","longitude":"8.2555"},{"country_code":"CH","zipcode":"5420","place":"Ehrendingen","state":"Kanton Aargau","state_code":"AG","province":"Bezirk Baden","province_code":"1902","community":"Ehrendingen","community_code":"4049","latitude":"47.5025","longitude":"8.3473"},{"country_code":"CH","zipcode":"5423","place":"Freienwil","state":"Kanton Aargau","state_code":"AG","province":"Bezirk Baden","province_code":"1902","community":"Freienwil","community_code":"4028","latitude":"47.503","longitude":"8.3277"},{"country_code":"CH","zipcode":"5430","place":"Wettingen","state":"Kanton Aargau","state_code":"AG","province":"Bezirk Baden","province_code":"1902","community":"Wettingen","community_code":"4045","latitude":"47.4705","longitude":"8.3164"},{"country_code":"CH","zipcode":"5432","place":"Neuenhof","state":"Kanton Aargau","state_code":"AG","province":"Bezirk Baden","province_code":"1902","community":"Neuenhof","community_code":"4034","latitude":"47.4526","longitude":"8.3258"},{"country_code":"CH","zipcode":"5436","place":"Würenlos","state":"Kanton Aargau","state_code":"AG","province":"Bezirk Baden","province_code":"1902","community":"Würenlos","community_code":"4048","latitude":"47.4421","longitude":"8.3644"},{"country_code":"CH","zipcode":"5442","place":"Fislisbach","state":"Kanton Aargau","state_code":"AG","province":"Bezirk Baden","province_code":"1902","community":"Fislisbach","community_code":"4027","latitude":"47.439","longitude":"8.2969"},{"country_code":"CH","zipcode":"5443","place":"Niederrohrdorf","state":"Kanton Aargau","state_code":"AG","province":"Bezirk Baden","province_code":"1902","community":"Niederrohrdorf","community_code":"4035","latitude":"47.4235","longitude":"8.3064"},{"country_code":"CH","zipcode":"5444","place":"Künten","state":"Kanton Aargau","state_code":"AG","province":"Bezirk Baden","province_code":"1902","community":"Künten","community_code":"4031","latitude":"47.3889","longitude":"8.331"},{"country_code":"CH","zipcode":"5452","place":"Oberrohrdorf","state":"Kanton Aargau","state_code":"AG","province":"Bezirk Baden","province_code":"1902","community":"Oberrohrdorf","community_code":"4037","latitude":"47.4183","longitude":"8.3198"},{"country_code":"CH","zipcode":"5453","place":"Remetschwil","state":"Kanton Aargau","state_code":"AG","province":"Bezirk Baden","province_code":"1902","community":"Remetschwil","community_code":"4039","latitude":"47.4083","longitude":"8.3319"},{"country_code":"CH","zipcode":"5454","place":"Bellikon","state":"Kanton Aargau","state_code":"AG","province":"Bezirk Baden","province_code":"1902","community":"Bellikon","community_code":"4022","latitude":"47.3916","longitude":"8.3493"},{"country_code":"CH","zipcode":"5506","place":"Mägenwil","state":"Kanton Aargau","state_code":"AG","province":"Bezirk Baden","province_code":"1902","community":"Mägenwil","community_code":"4032","latitude":"47.4125","longitude":"8.233"},{"country_code":"CH","zipcode":"5507","place":"Mellingen","state":"Kanton Aargau","state_code":"AG","province":"Bezirk Baden","province_code":"1902","community":"Mellingen","community_code":"4033","latitude":"47.419","longitude":"8.2733"},{"country_code":"CH","zipcode":"5512","place":"Wohlenschwil","state":"Kanton Aargau","state_code":"AG","province":"Bezirk Baden","province_code":"1902","community":"Wohlenschwil","community_code":"4046","latitude":"47.4137","longitude":"8.2573"},{"country_code":"CH","zipcode":"5608","place":"Stetten AG","state":"Kanton Aargau","state_code":"AG","province":"Bezirk Baden","province_code":"1902","community":"Stetten (AG)","community_code":"4041","latitude":"47.4017","longitude":"8.3019"},{"country_code":"CH","zipcode":"8109","place":"Kloster Fahr","state":"Kanton Aargau","state_code":"AG","province":"Bezirk Baden","province_code":"1902","community":"Würenlos","community_code":"4048","latitude":"47.4473","longitude":"8.3637"},{"country_code":"CH","zipcode":"8956","place":"Killwangen","state":"Kanton Aargau","state_code":"AG","province":"Bezirk Baden","province_code":"1902","community":"Killwangen","community_code":"4030","latitude":"47.4318","longitude":"8.3481"},{"country_code":"CH","zipcode":"8957","place":"Spreitenbach","state":"Kanton Aargau","state_code":"AG","province":"Bezirk Baden","province_code":"1902","community":"Spreitenbach","community_code":"4040","latitude":"47.4202","longitude":"8.363"},{"country_code":"CH","zipcode":"8962","place":"Bergdietikon","state":"Kanton Aargau","state_code":"AG","province":"Bezirk Baden","province_code":"1902","community":"Bergdietikon","community_code":"4023","latitude":"47.3892","longitude":"8.3862"},{"country_code":"CH","zipcode":"5445","place":"Eggenwil","state":"Kanton Aargau","state_code":"AG","province":"Bezirk Bremgarten","province_code":"1903","community":"Eggenwil","community_code":"4066","latitude":"47.3704","longitude":"8.3395"},{"country_code":"CH","zipcode":"5522","place":"Tägerig","state":"Kanton Aargau","state_code":"AG","province":"Bezirk Bremgarten","province_code":"1903","community":"Tägerig","community_code":"4077","latitude":"47.4056","longitude":"8.2768"},{"country_code":"CH","zipcode":"5524","place":"Niederwil AG","state":"Kanton Aargau","state_code":"AG","province":"Bezirk Bremgarten","province_code":"1903","community":"Niederwil (AG)","community_code":"4072","latitude":"47.3897","longitude":"8.2914"},{"country_code":"CH","zipcode":"5524","place":"Nesselnbach","state":"Kanton Aargau","state_code":"AG","province":"Bezirk Bremgarten","province_code":"1903","community":"Niederwil (AG)","community_code":"4072","latitude":"47.3897","longitude":"8.2914"},{"country_code":"CH","zipcode":"5525","place":"Fischbach-Göslikon","state":"Kanton Aargau","state_code":"AG","province":"Bezirk Bremgarten","province_code":"1903","community":"Fischbach-Göslikon","community_code":"4067","latitude":"47.3691","longitude":"8.3111"},{"country_code":"CH","zipcode":"5605","place":"Dottikon","state":"Kanton Aargau","state_code":"AG","province":"Bezirk Bremgarten","province_code":"1903","community":"Dottikon","community_code":"4065","latitude":"47.3844","longitude":"8.2398"},{"country_code":"CH","zipcode":"5607","place":"Hägglingen","state":"Kanton Aargau","state_code":"AG","province":"Bezirk Bremgarten","province_code":"1903","community":"Hägglingen","community_code":"4068","latitude":"47.3885","longitude":"8.2532"},{"country_code":"CH","zipcode":"5610","place":"Wohlen AG","state":"Kanton Aargau","state_code":"AG","province":"Bezirk Bremgarten","province_code":"1903","community":"Wohlen (AG)","community_code":"4082","latitude":"47.3524","longitude":"8.2788"},{"country_code":"CH","zipcode":"5611","place":"Anglikon","state":"Kanton Aargau","state_code":"AG","province":"Bezirk Bremgarten","province_code":"1903","community":"Wohlen (AG)","community_code":"4082","latitude":"47.3664","longitude":"8.2633"},{"country_code":"CH","zipcode":"5612","place":"Villmergen","state":"Kanton Aargau","state_code":"AG","province":"Bezirk Bremgarten","province_code":"1903","community":"Villmergen","community_code":"4080","latitude":"47.3492","longitude":"8.2458"},{"country_code":"CH","zipcode":"5613","place":"Hilfikon","state":"Kanton Aargau","state_code":"AG","province":"Bezirk Bremgarten","province_code":"1903","community":"Villmergen","community_code":"4080","latitude":"47.3313","longitude":"8.2424"},{"country_code":"CH","zipcode":"5614","place":"Sarmenstorf","state":"Kanton Aargau","state_code":"AG","province":"Bezirk Bremgarten","province_code":"1903","community":"Sarmenstorf","community_code":"4076","latitude":"47.3102","longitude":"8.2495"},{"country_code":"CH","zipcode":"5619","place":"Uezwil","state":"Kanton Aargau","state_code":"AG","province":"Bezirk Bremgarten","province_code":"1903","community":"Uezwil","community_code":"4078","latitude":"47.3169","longitude":"8.2716"},{"country_code":"CH","zipcode":"5619","place":"Büttikon AG","state":"Kanton Aargau","state_code":"AG","province":"Bezirk Bremgarten","province_code":"1903","community":"Büttikon","community_code":"4064","latitude":"47.3286","longitude":"8.2695"},{"country_code":"CH","zipcode":"5620","place":"Bremgarten AG","state":"Kanton Aargau","state_code":"AG","province":"Bezirk Bremgarten","province_code":"1903","community":"Bremgarten (AG)","community_code":"4063","latitude":"47.3511","longitude":"8.3421"},{"country_code":"CH","zipcode":"5621","place":"Zufikon","state":"Kanton Aargau","state_code":"AG","province":"Bezirk Bremgarten","province_code":"1903","community":"Zufikon","community_code":"4083","latitude":"47.3447","longitude":"8.3582"},{"country_code":"CH","zipcode":"5626","place":"Hermetschwil-Staffeln","state":"Kanton Aargau","state_code":"AG","province":"Bezirk Bremgarten","province_code":"1903","community":"Bremgarten (AG)","community_code":"4063","latitude":"47.3303","longitude":"8.3413"},{"country_code":"CH","zipcode":"8905","place":"Islisberg","state":"Kanton Aargau","state_code":"AG","province":"Bezirk Bremgarten","province_code":"1903","community":"Islisberg","community_code":"4084","latitude":"47.322","longitude":"8.4414"},{"country_code":"CH","zipcode":"8905","place":"Arni AG","state":"Kanton Aargau","state_code":"AG","province":"Bezirk Bremgarten","province_code":"1903","community":"Arni (AG)","community_code":"4061","latitude":"47.3182","longitude":"8.4247"},{"country_code":"CH","zipcode":"8916","place":"Jonen","state":"Kanton Aargau","state_code":"AG","province":"Bezirk Bremgarten","province_code":"1903","community":"Jonen","community_code":"4071","latitude":"47.2974","longitude":"8.3934"},{"country_code":"CH","zipcode":"8917","place":"Oberlunkhofen","state":"Kanton Aargau","state_code":"AG","province":"Bezirk Bremgarten","province_code":"1903","community":"Oberlunkhofen","community_code":"4073","latitude":"47.3115","longitude":"8.3914"},{"country_code":"CH","zipcode":"8918","place":"Unterlunkhofen","state":"Kanton Aargau","state_code":"AG","province":"Bezirk Bremgarten","province_code":"1903","community":"Unterlunkhofen","community_code":"4079","latitude":"47.3212","longitude":"8.381"},{"country_code":"CH","zipcode":"8964","place":"Rudolfstetten","state":"Kanton Aargau","state_code":"AG","province":"Bezirk Bremgarten","province_code":"1903","community":"Rudolfstetten-Friedlisberg","community_code":"4075","latitude":"47.371","longitude":"8.3808"},{"country_code":"CH","zipcode":"8965","place":"Berikon","state":"Kanton Aargau","state_code":"AG","province":"Bezirk Bremgarten","province_code":"1903","community":"Berikon","community_code":"4062","latitude":"47.3514","longitude":"8.3721"},{"country_code":"CH","zipcode":"8966","place":"Oberwil-Lieli","state":"Kanton Aargau","state_code":"AG","province":"Bezirk Bremgarten","province_code":"1903","community":"Oberwil-Lieli","community_code":"4074","latitude":"47.3338","longitude":"8.3812"},{"country_code":"CH","zipcode":"8967","place":"Widen","state":"Kanton Aargau","state_code":"AG","province":"Bezirk Bremgarten","province_code":"1903","community":"Widen","community_code":"4081","latitude":"47.3692","longitude":"8.3635"},{"country_code":"CH","zipcode":"5076","place":"Bözen","state":"Kanton Aargau","state_code":"AG","province":"Bezirk Brugg","province_code":"1904","community":"Bözen","community_code":"4094","latitude":"47.4778","longitude":"8.1646"},{"country_code":"CH","zipcode":"5077","place":"Elfingen","state":"Kanton Aargau","state_code":"AG","province":"Bezirk Brugg","province_code":"1904","community":"Elfingen","community_code":"4097","latitude":"47.5085","longitude":"8.0995"},{"country_code":"CH","zipcode":"5078","place":"Effingen","state":"Kanton Aargau","state_code":"AG","province":"Bezirk Brugg","province_code":"1904","community":"Effingen","community_code":"4096","latitude":"47.4887","longitude":"8.1029"},{"country_code":"CH","zipcode":"5105","place":"Auenstein","state":"Kanton Aargau","state_code":"AG","province":"Bezirk Brugg","province_code":"1904","community":"Auenstein","community_code":"4091","latitude":"47.4156","longitude":"8.1345"},{"country_code":"CH","zipcode":"5106","place":"Veltheim AG","state":"Kanton Aargau","state_code":"AG","province":"Bezirk Brugg","province_code":"1904","community":"Veltheim (AG)","community_code":"4120","latitude":"47.438","longitude":"8.1472"},{"country_code":"CH","zipcode":"5107","place":"Schinznach Dorf","state":"Kanton Aargau","state_code":"AG","province":"Bezirk Brugg","province_code":"1904","community":"Schinznach","community_code":"4125","latitude":"47.4465","longitude":"8.1409"},{"country_code":"CH","zipcode":"5108","place":"Oberflachs","state":"Kanton Aargau","state_code":"AG","province":"Bezirk Brugg","province_code":"1904","community":"Schinznach","community_code":"4125","latitude":"47.4402","longitude":"8.1252"},{"country_code":"CH","zipcode":"5112","place":"Thalheim AG","state":"Kanton Aargau","state_code":"AG","province":"Bezirk Brugg","province_code":"1904","community":"Thalheim (AG)","community_code":"4117","latitude":"47.4353","longitude":"8.1003"},{"country_code":"CH","zipcode":"5116","place":"Schinznach Bad","state":"Kanton Aargau","state_code":"AG","province":"Bezirk Brugg","province_code":"1904","community":"Schinznach-Bad","community_code":"4114","latitude":"47.4499","longitude":"8.1683"},{"country_code":"CH","zipcode":"5200","place":"Brugg AG","state":"Kanton Aargau","state_code":"AG","province":"Bezirk Brugg","province_code":"1904","community":"Brugg","community_code":"4095","latitude":"47.481","longitude":"8.2087"},{"country_code":"CH","zipcode":"5201","place":"Brugg AG","state":"Kanton Aargau","state_code":"AG","province":"Bezirk Brugg","province_code":"1904","community":"Brugg","community_code":"4095","latitude":"47.4863","longitude":"8.211"},{"country_code":"CH","zipcode":"5210","place":"Windisch","state":"Kanton Aargau","state_code":"AG","province":"Bezirk Brugg","province_code":"1904","community":"Windisch","community_code":"4123","latitude":"47.479","longitude":"8.2184"},{"country_code":"CH","zipcode":"5212","place":"Hausen AG","state":"Kanton Aargau","state_code":"AG","province":"Bezirk Brugg","province_code":"1904","community":"Hausen (AG)","community_code":"4100","latitude":"47.464","longitude":"8.2099"},{"country_code":"CH","zipcode":"5213","place":"Villnachern","state":"Kanton Aargau","state_code":"AG","province":"Bezirk Brugg","province_code":"1904","community":"Villnachern","community_code":"4122","latitude":"47.471","longitude":"8.1598"},{"country_code":"CH","zipcode":"5222","place":"Umiken","state":"Kanton Aargau","state_code":"AG","province":"Bezirk Brugg","province_code":"1904","community":"Brugg","community_code":"4095","latitude":"47.4829","longitude":"8.1875"},{"country_code":"CH","zipcode":"5223","place":"Riniken","state":"Kanton Aargau","state_code":"AG","province":"Bezirk Brugg","province_code":"1904","community":"Riniken","community_code":"4111","latitude":"47.494","longitude":"8.1867"},{"country_code":"CH","zipcode":"5225","place":"Bözberg","state":"Kanton Aargau","state_code":"AG","province":"Bezirk Brugg","province_code":"1904","community":"Bözberg","community_code":"4124","latitude":"47.4955","longitude":"8.1514"},{"country_code":"CH","zipcode":"5232","place":"Villigen PSI","state":"Kanton Aargau","state_code":"AG","province":"Bezirk Brugg","province_code":"1904","community":"Villigen","community_code":"4121","latitude":"47.5296","longitude":"8.2072"},{"country_code":"CH","zipcode":"5233","place":"Stilli","state":"Kanton Aargau","state_code":"AG","province":"Bezirk Brugg","province_code":"1904","community":"Villigen","community_code":"4121","latitude":"47.5172","longitude":"8.2316"},{"country_code":"CH","zipcode":"5234","place":"Villigen","state":"Kanton Aargau","state_code":"AG","province":"Bezirk Brugg","province_code":"1904","community":"Villigen","community_code":"4121","latitude":"47.5268","longitude":"8.2149"},{"country_code":"CH","zipcode":"5235","place":"Rüfenach AG","state":"Kanton Aargau","state_code":"AG","province":"Bezirk Brugg","province_code":"1904","community":"Rüfenach","community_code":"4112","latitude":"47.5071","longitude":"8.209"},{"country_code":"CH","zipcode":"5236","place":"Remigen","state":"Kanton Aargau","state_code":"AG","province":"Bezirk Brugg","province_code":"1904","community":"Remigen","community_code":"4110","latitude":"47.5186","longitude":"8.185"},{"country_code":"CH","zipcode":"5237","place":"Mönthal","state":"Kanton Aargau","state_code":"AG","province":"Bezirk Brugg","province_code":"1904","community":"Mönthal","community_code":"4106","latitude":"47.517","longitude":"8.1404"},{"country_code":"CH","zipcode":"5242","place":"Lupfig","state":"Kanton Aargau","state_code":"AG","province":"Bezirk Brugg","province_code":"1904","community":"Lupfig","community_code":"4104","latitude":"47.4407","longitude":"8.2038"},{"country_code":"CH","zipcode":"5242","place":"Birr","state":"Kanton Aargau","state_code":"AG","province":"Bezirk Brugg","province_code":"1904","community":"Birr","community_code":"4092","latitude":"47.4359","longitude":"8.208"},{"country_code":"CH","zipcode":"5243","place":"Mülligen","state":"Kanton Aargau","state_code":"AG","province":"Bezirk Brugg","province_code":"1904","community":"Mülligen","community_code":"4107","latitude":"47.4558","longitude":"8.2392"},{"country_code":"CH","zipcode":"5244","place":"Birrhard","state":"Kanton Aargau","state_code":"AG","province":"Bezirk Brugg","province_code":"1904","community":"Birrhard","community_code":"4093","latitude":"47.4328","longitude":"8.245"},{"country_code":"CH","zipcode":"5245","place":"Habsburg","state":"Kanton Aargau","state_code":"AG","province":"Bezirk Brugg","province_code":"1904","community":"Habsburg","community_code":"4099","latitude":"47.4623","longitude":"8.185"},{"country_code":"CH","zipcode":"5246","place":"Scherz","state":"Kanton Aargau","state_code":"AG","province":"Bezirk Brugg","province_code":"1904","community":"Scherz","community_code":"4113","latitude":"47.4469","longitude":"8.1842"},{"country_code":"CH","zipcode":"5318","place":"Mandach","state":"Kanton Aargau","state_code":"AG","province":"Bezirk Brugg","province_code":"1904","community":"Mandach","community_code":"4105","latitude":"47.5478","longitude":"8.189"},{"country_code":"CH","zipcode":"5040","place":"Schöftland","state":"Kanton Aargau","state_code":"AG","province":"Bezirk Kulm","province_code":"1905","community":"Schöftland","community_code":"4144","latitude":"47.3057","longitude":"8.0514"},{"country_code":"CH","zipcode":"5043","place":"Holziken","state":"Kanton Aargau","state_code":"AG","province":"Bezirk Kulm","province_code":"1905","community":"Holziken","community_code":"4136","latitude":"47.3195","longitude":"8.0343"},{"country_code":"CH","zipcode":"5044","place":"Schlossrued","state":"Kanton Aargau","state_code":"AG","province":"Bezirk Kulm","province_code":"1905","community":"Schlossrued","community_code":"4142","latitude":"47.2912","longitude":"8.0884"},{"country_code":"CH","zipcode":"5046","place":"Walde AG","state":"Kanton Aargau","state_code":"AG","province":"Bezirk Kulm","province_code":"1905","community":"Schmiedrued","community_code":"4143","latitude":"47.2626","longitude":"8.1118"},{"country_code":"CH","zipcode":"5046","place":"Schmiedrued","state":"Kanton Aargau","state_code":"AG","province":"Bezirk Kulm","province_code":"1905","community":"Schmiedrued","community_code":"4143","latitude":"47.2626","longitude":"8.1118"},{"country_code":"CH","zipcode":"5708","place":"Birrwil","state":"Kanton Aargau","state_code":"AG","province":"Bezirk Kulm","province_code":"1905","community":"Birrwil","community_code":"4132","latitude":"47.2886","longitude":"8.2"},{"country_code":"CH","zipcode":"5712","place":"Beinwil am See","state":"Kanton Aargau","state_code":"AG","province":"Bezirk Kulm","province_code":"1905","community":"Beinwil am See","community_code":"4131","latitude":"47.2606","longitude":"8.2051"},{"country_code":"CH","zipcode":"5723","place":"Teufenthal AG","state":"Kanton Aargau","state_code":"AG","province":"Bezirk Kulm","province_code":"1905","community":"Teufenthal (AG)","community_code":"4145","latitude":"47.3286","longitude":"8.1207"},{"country_code":"CH","zipcode":"5724","place":"Dürrenäsch","state":"Kanton Aargau","state_code":"AG","province":"Bezirk Kulm","province_code":"1905","community":"Dürrenäsch","community_code":"4134","latitude":"47.3181","longitude":"8.1585"},{"country_code":"CH","zipcode":"5725","place":"Leutwil","state":"Kanton Aargau","state_code":"AG","province":"Bezirk Kulm","province_code":"1905","community":"Leutwil","community_code":"4138","latitude":"47.3083","longitude":"8.1741"},{"country_code":"CH","zipcode":"5726","place":"Unterkulm","state":"Kanton Aargau","state_code":"AG","province":"Bezirk Kulm","province_code":"1905","community":"Unterkulm","community_code":"4146","latitude":"47.31","longitude":"8.1137"},{"country_code":"CH","zipcode":"5727","place":"Oberkulm","state":"Kanton Aargau","state_code":"AG","province":"Bezirk Kulm","province_code":"1905","community":"Oberkulm","community_code":"4140","latitude":"47.3078","longitude":"8.1442"},{"country_code":"CH","zipcode":"5728","place":"Gontenschwil","state":"Kanton Aargau","state_code":"AG","province":"Bezirk Kulm","province_code":"1905","community":"Gontenschwil","community_code":"4135","latitude":"47.2717","longitude":"8.144"},{"country_code":"CH","zipcode":"5732","place":"Zetzwil","state":"Kanton Aargau","state_code":"AG","province":"Bezirk Kulm","province_code":"1905","community":"Zetzwil","community_code":"4147","latitude":"47.2882","longitude":"8.1509"},{"country_code":"CH","zipcode":"5733","place":"Leimbach AG","state":"Kanton Aargau","state_code":"AG","province":"Bezirk Kulm","province_code":"1905","community":"Leimbach (AG)","community_code":"4137","latitude":"47.2749","longitude":"8.1701"},{"country_code":"CH","zipcode":"5734","place":"Reinach AG","state":"Kanton Aargau","state_code":"AG","province":"Bezirk Kulm","province_code":"1905","community":"Reinach (AG)","community_code":"4141","latitude":"47.2573","longitude":"8.1809"},{"country_code":"CH","zipcode":"5736","place":"Burg AG","state":"Kanton Aargau","state_code":"AG","province":"Bezirk Kulm","province_code":"1905","community":"Burg (AG)","community_code":"4133","latitude":"47.2339","longitude":"8.178"},{"country_code":"CH","zipcode":"5737","place":"Menziken","state":"Kanton Aargau","state_code":"AG","province":"Bezirk Kulm","province_code":"1905","community":"Menziken","community_code":"4139","latitude":"47.2425","longitude":"8.1905"},{"country_code":"CH","zipcode":"4333","place":"Münchwilen AG","state":"Kanton Aargau","state_code":"AG","province":"Bezirk Laufenburg","province_code":"1906","community":"Münchwilen (AG)","community_code":"4172","latitude":"47.5357","longitude":"7.9641"},{"country_code":"CH","zipcode":"4334","place":"Sisseln AG","state":"Kanton Aargau","state_code":"AG","province":"Bezirk Laufenburg","province_code":"1906","community":"Sisseln","community_code":"4177","latitude":"47.5531","longitude":"7.9917"},{"country_code":"CH","zipcode":"5027","place":"Herznach","state":"Kanton Aargau","state_code":"AG","province":"Bezirk Laufenburg","province_code":"1906","community":"Herznach","community_code":"4166","latitude":"47.4715","longitude":"8.0475"},{"country_code":"CH","zipcode":"5028","place":"Ueken","state":"Kanton Aargau","state_code":"AG","province":"Bezirk Laufenburg","province_code":"1906","community":"Ueken","community_code":"4179","latitude":"47.4845","longitude":"8.0444"},{"country_code":"CH","zipcode":"5062","place":"Oberhof","state":"Kanton Aargau","state_code":"AG","province":"Bezirk Laufenburg","province_code":"1906","community":"Oberhof","community_code":"4173","latitude":"47.4487","longitude":"8.0027"},{"country_code":"CH","zipcode":"5063","place":"Wölflinswil","state":"Kanton Aargau","state_code":"AG","province":"Bezirk Laufenburg","province_code":"1906","community":"Wölflinswil","community_code":"4182","latitude":"47.4607","longitude":"7.9984"},{"country_code":"CH","zipcode":"5064","place":"Wittnau","state":"Kanton Aargau","state_code":"AG","province":"Bezirk Laufenburg","province_code":"1906","community":"Wittnau","community_code":"4181","latitude":"47.4814","longitude":"7.9758"},{"country_code":"CH","zipcode":"5070","place":"Frick","state":"Kanton Aargau","state_code":"AG","province":"Bezirk Laufenburg","province_code":"1906","community":"Frick","community_code":"4163","latitude":"47.5117","longitude":"8.0247"},{"country_code":"CH","zipcode":"5072","place":"Oeschgen","state":"Kanton Aargau","state_code":"AG","province":"Bezirk Laufenburg","province_code":"1906","community":"Oeschgen","community_code":"4175","latitude":"47.5231","longitude":"8.019"},{"country_code":"CH","zipcode":"5073","place":"Gipf-Oberfrick","state":"Kanton Aargau","state_code":"AG","province":"Bezirk Laufenburg","province_code":"1906","community":"Gipf-Oberfrick","community_code":"4165","latitude":"47.4988","longitude":"8.005"},{"country_code":"CH","zipcode":"5074","place":"Eiken","state":"Kanton Aargau","state_code":"AG","province":"Bezirk Laufenburg","province_code":"1906","community":"Eiken","community_code":"4161","latitude":"47.5339","longitude":"7.9888"},{"country_code":"CH","zipcode":"5075","place":"Hornussen","state":"Kanton Aargau","state_code":"AG","province":"Bezirk Laufenburg","province_code":"1906","community":"Hornussen","community_code":"4167","latitude":"47.5003","longitude":"8.0613"},{"country_code":"CH","zipcode":"5079","place":"Zeihen","state":"Kanton Aargau","state_code":"AG","province":"Bezirk Laufenburg","province_code":"1906","community":"Zeihen","community_code":"4183","latitude":"47.4754","longitude":"8.0831"},{"country_code":"CH","zipcode":"5080","place":"Laufenburg","state":"Kanton Aargau","state_code":"AG","province":"Bezirk Laufenburg","province_code":"1906","community":"Laufenburg","community_code":"4170","latitude":"47.5598","longitude":"8.0622"},{"country_code":"CH","zipcode":"5082","place":"Kaisten","state":"Kanton Aargau","state_code":"AG","province":"Bezirk Laufenburg","province_code":"1906","community":"Kaisten","community_code":"4169","latitude":"47.5416","longitude":"8.0434"},{"country_code":"CH","zipcode":"5083","place":"Ittenthal","state":"Kanton Aargau","state_code":"AG","province":"Bezirk Laufenburg","province_code":"1906","community":"Kaisten","community_code":"4169","latitude":"47.5183","longitude":"8.0596"},{"country_code":"CH","zipcode":"5084","place":"Rheinsulz","state":"Kanton Aargau","state_code":"AG","province":"Bezirk Laufenburg","province_code":"1906","community":"Laufenburg","community_code":"4170","latitude":"47.5556","longitude":"8.0899"},{"country_code":"CH","zipcode":"5085","place":"Sulz AG","state":"Kanton Aargau","state_code":"AG","province":"Bezirk Laufenburg","province_code":"1906","community":"Laufenburg","community_code":"4170","latitude":"47.536","longitude":"8.0963"},{"country_code":"CH","zipcode":"5272","place":"Gansingen","state":"Kanton Aargau","state_code":"AG","province":"Bezirk Laufenburg","province_code":"1906","community":"Gansingen","community_code":"4164","latitude":"47.5429","longitude":"8.1352"},{"country_code":"CH","zipcode":"5273","place":"Oberhofen AG","state":"Kanton Aargau","state_code":"AG","province":"Bezirk Laufenburg","province_code":"1906","community":"Mettauertal","community_code":"4184","latitude":"47.5538","longitude":"8.1332"},{"country_code":"CH","zipcode":"5274","place":"Mettau","state":"Kanton Aargau","state_code":"AG","province":"Bezirk Laufenburg","province_code":"1906","community":"Mettauertal","community_code":"4184","latitude":"47.5636","longitude":"8.1293"},{"country_code":"CH","zipcode":"5275","place":"Etzgen","state":"Kanton Aargau","state_code":"AG","province":"Bezirk Laufenburg","province_code":"1906","community":"Mettauertal","community_code":"4184","latitude":"47.5713","longitude":"8.1106"},{"country_code":"CH","zipcode":"5276","place":"Wil AG","state":"Kanton Aargau","state_code":"AG","province":"Bezirk Laufenburg","province_code":"1906","community":"Mettauertal","community_code":"4184","latitude":"47.5606","longitude":"8.1525"},{"country_code":"CH","zipcode":"5277","place":"Hottwil","state":"Kanton Aargau","state_code":"AG","province":"Bezirk Laufenburg","province_code":"1906","community":"Mettauertal","community_code":"4184","latitude":"47.5484","longitude":"8.1617"},{"country_code":"CH","zipcode":"5326","place":"Schwaderloch","state":"Kanton Aargau","state_code":"AG","province":"Bezirk Laufenburg","province_code":"1906","community":"Schwaderloch","community_code":"4176","latitude":"47.5854","longitude":"8.1446"},{"country_code":"CH","zipcode":"5102","place":"Rupperswil","state":"Kanton Aargau","state_code":"AG","province":"Bezirk Lenzburg","province_code":"1907","community":"Rupperswil","community_code":"4206","latitude":"47.4013","longitude":"8.1288"},{"country_code":"CH","zipcode":"5103","place":"Möriken AG","state":"Kanton Aargau","state_code":"AG","province":"Bezirk Lenzburg","province_code":"1907","community":"Möriken-Wildegg","community_code":"4203","latitude":"47.4156","longitude":"8.1845"},{"country_code":"CH","zipcode":"5103","place":"Wildegg","state":"Kanton Aargau","state_code":"AG","province":"Bezirk Lenzburg","province_code":"1907","community":"Möriken-Wildegg","community_code":"4203","latitude":"47.4147","longitude":"8.1636"},{"country_code":"CH","zipcode":"5113","place":"Holderbank AG","state":"Kanton Aargau","state_code":"AG","province":"Bezirk Lenzburg","province_code":"1907","community":"Holderbank (AG)","community_code":"4199","latitude":"47.4309","longitude":"8.1707"},{"country_code":"CH","zipcode":"5502","place":"Hunzenschwil","state":"Kanton Aargau","state_code":"AG","province":"Bezirk Lenzburg","province_code":"1907","community":"Hunzenschwil","community_code":"4200","latitude":"47.3842","longitude":"8.1229"},{"country_code":"CH","zipcode":"5503","place":"Schafisheim","state":"Kanton Aargau","state_code":"AG","province":"Bezirk Lenzburg","province_code":"1907","community":"Schafisheim","community_code":"4207","latitude":"47.3753","longitude":"8.1408"},{"country_code":"CH","zipcode":"5504","place":"Othmarsingen","state":"Kanton Aargau","state_code":"AG","province":"Bezirk Lenzburg","province_code":"1907","community":"Othmarsingen","community_code":"4205","latitude":"47.4015","longitude":"8.2185"},{"country_code":"CH","zipcode":"5505","place":"Brunegg","state":"Kanton Aargau","state_code":"AG","province":"Bezirk Lenzburg","province_code":"1907","community":"Brunegg","community_code":"4193","latitude":"47.4212","longitude":"8.2158"},{"country_code":"CH","zipcode":"5600","place":"Lenzburg","state":"Kanton Aargau","state_code":"AG","province":"Bezirk Lenzburg","province_code":"1907","community":"Lenzburg","community_code":"4201","latitude":"47.3885","longitude":"8.175"},{"country_code":"CH","zipcode":"5600","place":"Ammerswil AG","state":"Kanton Aargau","state_code":"AG","province":"Bezirk Lenzburg","province_code":"1907","community":"Ammerswil","community_code":"4191","latitude":"47.3682","longitude":"8.2074"},{"country_code":"CH","zipcode":"5603","place":"Staufen","state":"Kanton Aargau","state_code":"AG","province":"Bezirk Lenzburg","province_code":"1907","community":"Staufen","community_code":"4210","latitude":"47.3837","longitude":"8.1661"},{"country_code":"CH","zipcode":"5604","place":"Hendschiken","state":"Kanton Aargau","state_code":"AG","province":"Bezirk Lenzburg","province_code":"1907","community":"Hendschiken","community_code":"4198","latitude":"47.3865","longitude":"8.2178"},{"country_code":"CH","zipcode":"5606","place":"Dintikon","state":"Kanton Aargau","state_code":"AG","province":"Bezirk Lenzburg","province_code":"1907","community":"Dintikon","community_code":"4194","latitude":"47.3652","longitude":"8.2302"},{"country_code":"CH","zipcode":"5615","place":"Fahrwangen","state":"Kanton Aargau","state_code":"AG","province":"Bezirk Lenzburg","province_code":"1907","community":"Fahrwangen","community_code":"4196","latitude":"47.2948","longitude":"8.2421"},{"country_code":"CH","zipcode":"5616","place":"Meisterschwanden","state":"Kanton Aargau","state_code":"AG","province":"Bezirk Lenzburg","province_code":"1907","community":"Meisterschwanden","community_code":"4202","latitude":"47.2949","longitude":"8.2287"},{"country_code":"CH","zipcode":"5617","place":"Tennwil","state":"Kanton Aargau","state_code":"AG","province":"Bezirk Lenzburg","province_code":"1907","community":"Meisterschwanden","community_code":"4202","latitude":"47.3081","longitude":"8.2227"},{"country_code":"CH","zipcode":"5702","place":"Niederlenz","state":"Kanton Aargau","state_code":"AG","province":"Bezirk Lenzburg","province_code":"1907","community":"Niederlenz","community_code":"4204","latitude":"47.4008","longitude":"8.1764"},{"country_code":"CH","zipcode":"5703","place":"Seon","state":"Kanton Aargau","state_code":"AG","province":"Bezirk Lenzburg","province_code":"1907","community":"Seon","community_code":"4209","latitude":"47.3449","longitude":"8.1561"},{"country_code":"CH","zipcode":"5704","place":"Egliswil","state":"Kanton Aargau","state_code":"AG","province":"Bezirk Lenzburg","province_code":"1907","community":"Egliswil","community_code":"4195","latitude":"47.3495","longitude":"8.188"},{"country_code":"CH","zipcode":"5705","place":"Hallwil","state":"Kanton Aargau","state_code":"AG","province":"Bezirk Lenzburg","province_code":"1907","community":"Hallwil","community_code":"4197","latitude":"47.3265","longitude":"8.1779"},{"country_code":"CH","zipcode":"5706","place":"Boniswil","state":"Kanton Aargau","state_code":"AG","province":"Bezirk Lenzburg","province_code":"1907","community":"Boniswil","community_code":"4192","latitude":"47.3173","longitude":"8.1896"},{"country_code":"CH","zipcode":"5707","place":"Seengen","state":"Kanton Aargau","state_code":"AG","province":"Bezirk Lenzburg","province_code":"1907","community":"Seengen","community_code":"4208","latitude":"47.3285","longitude":"8.2051"},{"country_code":"CH","zipcode":"5618","place":"Bettwil","state":"Kanton Aargau","state_code":"AG","province":"Bezirk Muri","province_code":"1908","community":"Bettwil","community_code":"4227","latitude":"47.2906","longitude":"8.2679"},{"country_code":"CH","zipcode":"5622","place":"Waltenschwil","state":"Kanton Aargau","state_code":"AG","province":"Bezirk Muri","province_code":"1908","community":"Waltenschwil","community_code":"4240","latitude":"47.3349","longitude":"8.3034"},{"country_code":"CH","zipcode":"5623","place":"Boswil","state":"Kanton Aargau","state_code":"AG","province":"Bezirk Muri","province_code":"1908","community":"Boswil","community_code":"4228","latitude":"47.3038","longitude":"8.3088"},{"country_code":"CH","zipcode":"5624","place":"Waldhäusern AG","state":"Kanton Aargau","state_code":"AG","province":"Bezirk Muri","province_code":"1908","community":"Bünzen","community_code":"4229","latitude":"47.3283","longitude":"8.3162"},{"country_code":"CH","zipcode":"5624","place":"Bünzen","state":"Kanton Aargau","state_code":"AG","province":"Bezirk Muri","province_code":"1908","community":"Bünzen","community_code":"4229","latitude":"47.3098","longitude":"8.3238"},{"country_code":"CH","zipcode":"5625","place":"Kallern","state":"Kanton Aargau","state_code":"AG","province":"Bezirk Muri","province_code":"1908","community":"Kallern","community_code":"4233","latitude":"47.3016","longitude":"8.2813"},{"country_code":"CH","zipcode":"5627","place":"Besenbüren","state":"Kanton Aargau","state_code":"AG","province":"Bezirk Muri","province_code":"1908","community":"Besenbüren","community_code":"4226","latitude":"47.3144","longitude":"8.3459"},{"country_code":"CH","zipcode":"5628","place":"Aristau","state":"Kanton Aargau","state_code":"AG","province":"Bezirk Muri","province_code":"1908","community":"Aristau","community_code":"4222","latitude":"47.2869","longitude":"8.3636"},{"country_code":"CH","zipcode":"5630","place":"Muri AG","state":"Kanton Aargau","state_code":"AG","province":"Bezirk Muri","province_code":"1908","community":"Muri (AG)","community_code":"4236","latitude":"47.2743","longitude":"8.3385"},{"country_code":"CH","zipcode":"5632","place":"Buttwil","state":"Kanton Aargau","state_code":"AG","province":"Bezirk Muri","province_code":"1908","community":"Buttwil","community_code":"4230","latitude":"47.2683","longitude":"8.3106"},{"country_code":"CH","zipcode":"5634","place":"Merenschwand","state":"Kanton Aargau","state_code":"AG","province":"Bezirk Muri","province_code":"1908","community":"Merenschwand","community_code":"4234","latitude":"47.2587","longitude":"8.3753"},{"country_code":"CH","zipcode":"5636","place":"Benzenschwil","state":"Kanton Aargau","state_code":"AG","province":"Bezirk Muri","province_code":"1908","community":"Merenschwand","community_code":"4234","latitude":"47.248","longitude":"8.3651"},{"country_code":"CH","zipcode":"5637","place":"Geltwil","state":"Kanton Aargau","state_code":"AG","province":"Bezirk Muri","province_code":"1908","community":"Geltwil","community_code":"4232","latitude":"47.249","longitude":"8.326"},{"country_code":"CH","zipcode":"5637","place":"Beinwil (Freiamt)","state":"Kanton Aargau","state_code":"AG","province":"Bezirk Muri","province_code":"1908","community":"Beinwil (Freiamt)","community_code":"4224","latitude":"47.2296","longitude":"8.3392"},{"country_code":"CH","zipcode":"5642","place":"Mühlau","state":"Kanton Aargau","state_code":"AG","province":"Bezirk Muri","province_code":"1908","community":"Mühlau","community_code":"4235","latitude":"47.2304","longitude":"8.3896"},{"country_code":"CH","zipcode":"5643","place":"Meienberg","state":"Kanton Aargau","state_code":"AG","province":"Bezirk Muri","province_code":"1908","community":"Sins","community_code":"4239","latitude":"47.1978","longitude":"8.3762"},{"country_code":"CH","zipcode":"5643","place":"Alikon","state":"Kanton Aargau","state_code":"AG","province":"Bezirk Muri","province_code":"1908","community":"Sins","community_code":"4239","latitude":"47.2005","longitude":"8.3604"},{"country_code":"CH","zipcode":"5643","place":"Sins","state":"Kanton Aargau","state_code":"AG","province":"Bezirk Muri","province_code":"1908","community":"Sins","community_code":"4239","latitude":"47.1922","longitude":"8.3958"},{"country_code":"CH","zipcode":"5643","place":"Sins","state":"Kanton Aargau","state_code":"AG","province":"Bezirk Muri","province_code":"1908","community":"Sins","community_code":"4239","latitude":"47.1922","longitude":"8.3958"},{"country_code":"CH","zipcode":"5644","place":"Auw","state":"Kanton Aargau","state_code":"AG","province":"Bezirk Muri","province_code":"1908","community":"Auw","community_code":"4223","latitude":"47.2108","longitude":"8.3658"},{"country_code":"CH","zipcode":"5645","place":"Aettenschwil","state":"Kanton Aargau","state_code":"AG","province":"Bezirk Muri","province_code":"1908","community":"Sins","community_code":"4239","latitude":"47.1836","longitude":"8.3718"},{"country_code":"CH","zipcode":"5645","place":"Fenkrieden","state":"Kanton Aargau","state_code":"AG","province":"Bezirk Muri","province_code":"1908","community":"Sins","community_code":"4239","latitude":"47.1609","longitude":"8.3702"},{"country_code":"CH","zipcode":"5646","place":"Abtwil AG","state":"Kanton Aargau","state_code":"AG","province":"Bezirk Muri","province_code":"1908","community":"Abtwil","community_code":"4221","latitude":"47.1733","longitude":"8.3577"},{"country_code":"CH","zipcode":"5647","place":"Oberrüti","state":"Kanton Aargau","state_code":"AG","province":"Bezirk Muri","province_code":"1908","community":"Oberrüti","community_code":"4237","latitude":"47.1667","longitude":"8.3944"},{"country_code":"CH","zipcode":"6042","place":"Dietwil","state":"Kanton Aargau","state_code":"AG","province":"Bezirk Muri","province_code":"1908","community":"Dietwil","community_code":"4231","latitude":"47.1466","longitude":"8.3936"},{"country_code":"CH","zipcode":"8919","place":"Rottenschwil","state":"Kanton Aargau","state_code":"AG","province":"Bezirk Muri","province_code":"1908","community":"Rottenschwil","community_code":"4238","latitude":"47.3137","longitude":"8.3614"},{"country_code":"CH","zipcode":"4303","place":"Kaiseraugst","state":"Kanton Aargau","state_code":"AG","province":"Bezirk Rheinfelden","province_code":"1909","community":"Kaiseraugst","community_code":"4252","latitude":"47.5397","longitude":"7.726"},{"country_code":"CH","zipcode":"4305","place":"Olsberg","state":"Kanton Aargau","state_code":"AG","province":"Bezirk Rheinfelden","province_code":"1909","community":"Olsberg","community_code":"4257","latitude":"47.5233","longitude":"7.7837"},{"country_code":"CH","zipcode":"4310","place":"Rheinfelden","state":"Kanton Aargau","state_code":"AG","province":"Bezirk Rheinfelden","province_code":"1909","community":"Rheinfelden","community_code":"4258","latitude":"47.5544","longitude":"7.794"},{"country_code":"CH","zipcode":"4312","place":"Magden","state":"Kanton Aargau","state_code":"AG","province":"Bezirk Rheinfelden","province_code":"1909","community":"Magden","community_code":"4253","latitude":"47.5287","longitude":"7.8113"},{"country_code":"CH","zipcode":"4313","place":"Möhlin","state":"Kanton Aargau","state_code":"AG","province":"Bezirk Rheinfelden","province_code":"1909","community":"Möhlin","community_code":"4254","latitude":"47.5592","longitude":"7.8433"},{"country_code":"CH","zipcode":"4314","place":"Zeiningen","state":"Kanton Aargau","state_code":"AG","province":"Bezirk Rheinfelden","province_code":"1909","community":"Zeiningen","community_code":"4263","latitude":"47.5414","longitude":"7.8718"},{"country_code":"CH","zipcode":"4315","place":"Zuzgen","state":"Kanton Aargau","state_code":"AG","province":"Bezirk Rheinfelden","province_code":"1909","community":"Zuzgen","community_code":"4264","latitude":"47.5251","longitude":"7.8999"},{"country_code":"CH","zipcode":"4316","place":"Hellikon","state":"Kanton Aargau","state_code":"AG","province":"Bezirk Rheinfelden","province_code":"1909","community":"Hellikon","community_code":"4251","latitude":"47.5094","longitude":"7.9242"},{"country_code":"CH","zipcode":"4317","place":"Wegenstetten","state":"Kanton Aargau","state_code":"AG","province":"Bezirk Rheinfelden","province_code":"1909","community":"Wegenstetten","community_code":"4262","latitude":"47.4979","longitude":"7.9316"},{"country_code":"CH","zipcode":"4322","place":"Mumpf","state":"Kanton Aargau","state_code":"AG","province":"Bezirk Rheinfelden","province_code":"1909","community":"Mumpf","community_code":"4255","latitude":"47.5456","longitude":"7.9212"},{"country_code":"CH","zipcode":"4323","place":"Wallbach","state":"Kanton Aargau","state_code":"AG","province":"Bezirk Rheinfelden","province_code":"1909","community":"Wallbach","community_code":"4261","latitude":"47.5598","longitude":"7.9029"},{"country_code":"CH","zipcode":"4324","place":"Obermumpf","state":"Kanton Aargau","state_code":"AG","province":"Bezirk Rheinfelden","province_code":"1909","community":"Obermumpf","community_code":"4256","latitude":"47.5294","longitude":"7.9376"},{"country_code":"CH","zipcode":"4325","place":"Schupfart","state":"Kanton Aargau","state_code":"AG","province":"Bezirk Rheinfelden","province_code":"1909","community":"Schupfart","community_code":"4259","latitude":"47.5137","longitude":"7.9658"},{"country_code":"CH","zipcode":"4332","place":"Stein AG","state":"Kanton Aargau","state_code":"AG","province":"Bezirk Rheinfelden","province_code":"1909","community":"Stein (AG)","community_code":"4260","latitude":"47.544","longitude":"7.9526"},{"country_code":"CH","zipcode":"4663","place":"Aarburg","state":"Kanton Aargau","state_code":"AG","province":"Bezirk Zofingen","province_code":"1910","community":"Aarburg","community_code":"4271","latitude":"47.3207","longitude":"7.8999"},{"country_code":"CH","zipcode":"4665","place":"Oftringen","state":"Kanton Aargau","state_code":"AG","province":"Bezirk Zofingen","province_code":"1910","community":"Oftringen","community_code":"4280","latitude":"47.3138","longitude":"7.9253"},{"country_code":"CH","zipcode":"4800","place":"Zofingen","state":"Kanton Aargau","state_code":"AG","province":"Bezirk Zofingen","province_code":"1910","community":"Zofingen","community_code":"4289","latitude":"47.2878","longitude":"7.9459"},{"country_code":"CH","zipcode":"4801","place":"Zofingen","state":"Kanton Aargau","state_code":"AG","province":"Bezirk Zofingen","province_code":"1910","community":"Zofingen","community_code":"4289","latitude":"47.2888","longitude":"7.9633"},{"country_code":"CH","zipcode":"4802","place":"Strengelbach","state":"Kanton Aargau","state_code":"AG","province":"Bezirk Zofingen","province_code":"1910","community":"Strengelbach","community_code":"4285","latitude":"47.2792","longitude":"7.929"},{"country_code":"CH","zipcode":"4803","place":"Vordemwald","state":"Kanton Aargau","state_code":"AG","province":"Bezirk Zofingen","province_code":"1910","community":"Vordemwald","community_code":"4287","latitude":"47.2759","longitude":"7.9011"},{"country_code":"CH","zipcode":"4805","place":"Brittnau","state":"Kanton Aargau","state_code":"AG","province":"Bezirk Zofingen","province_code":"1910","community":"Brittnau","community_code":"4274","latitude":"47.2595","longitude":"7.9469"},{"country_code":"CH","zipcode":"4807","place":"Zofingen PF","state":"Kanton Aargau","state_code":"AG","province":"Bezirk Zofingen","province_code":"1910","community":"Zofingen","community_code":"4289","latitude":"47.2888","longitude":"7.9633"},{"country_code":"CH","zipcode":"4808","place":"Zofingen PF","state":"Kanton Aargau","state_code":"AG","province":"Bezirk Zofingen","province_code":"1910","community":"Zofingen","community_code":"4289","latitude":"47.2888","longitude":"7.9633"},{"country_code":"CH","zipcode":"4809","place":"Zofingen PF UBS","state":"Kanton Aargau","state_code":"AG","province":"Bezirk Zofingen","province_code":"1910","community":"Zofingen","community_code":"4289","latitude":"47.2888","longitude":"7.9633"},{"country_code":"CH","zipcode":"4809","place":"Zofingen PF","state":"Kanton Aargau","state_code":"AG","province":"Bezirk Zofingen","province_code":"1910","community":"Zofingen","community_code":"4289","latitude":"47.2888","longitude":"7.9633"},{"country_code":"CH","zipcode":"4812","place":"Mühlethal","state":"Kanton Aargau","state_code":"AG","province":"Bezirk Zofingen","province_code":"1910","community":"Zofingen","community_code":"4289","latitude":"47.3028","longitude":"7.9792"},{"country_code":"CH","zipcode":"4813","place":"Uerkheim","state":"Kanton Aargau","state_code":"AG","province":"Bezirk Zofingen","province_code":"1910","community":"Uerkheim","community_code":"4286","latitude":"47.3029","longitude":"8.0237"},{"country_code":"CH","zipcode":"4814","place":"Bottenwil","state":"Kanton Aargau","state_code":"AG","province":"Bezirk Zofingen","province_code":"1910","community":"Bottenwil","community_code":"4273","latitude":"47.2854","longitude":"8.0046"},{"country_code":"CH","zipcode":"4852","place":"Rothrist","state":"Kanton Aargau","state_code":"AG","province":"Bezirk Zofingen","province_code":"1910","community":"Rothrist","community_code":"4282","latitude":"47.3051","longitude":"7.892"},{"country_code":"CH","zipcode":"4853","place":"Riken AG","state":"Kanton Aargau","state_code":"AG","province":"Bezirk Zofingen","province_code":"1910","community":"Murgenthal","community_code":"4279","latitude":"47.278","longitude":"7.8508"},{"country_code":"CH","zipcode":"4853","place":"Murgenthal","state":"Kanton Aargau","state_code":"AG","province":"Bezirk Zofingen","province_code":"1910","community":"Murgenthal","community_code":"4279","latitude":"47.2677","longitude":"7.8358"},{"country_code":"CH","zipcode":"4853","place":"Murgenthal","state":"Kanton Aargau","state_code":"AG","province":"Bezirk Zofingen","province_code":"1910","community":"Murgenthal","community_code":"4279","latitude":"47.2677","longitude":"7.8358"},{"country_code":"CH","zipcode":"4856","place":"Glashütten","state":"Kanton Aargau","state_code":"AG","province":"Bezirk Zofingen","province_code":"1910","community":"Murgenthal","community_code":"4279","latitude":"47.2588","longitude":"7.8446"},{"country_code":"CH","zipcode":"5053","place":"Staffelbach","state":"Kanton Aargau","state_code":"AG","province":"Bezirk Zofingen","province_code":"1910","community":"Staffelbach","community_code":"4284","latitude":"47.2839","longitude":"8.0421"},{"country_code":"CH","zipcode":"5053","place":"Wittwil","state":"Kanton Aargau","state_code":"AG","province":"Bezirk Zofingen","province_code":"1910","community":"Staffelbach","community_code":"4284","latitude":"47.2919","longitude":"8.0364"},{"country_code":"CH","zipcode":"5054","place":"Kirchleerau","state":"Kanton Aargau","state_code":"AG","province":"Bezirk Zofingen","province_code":"1910","community":"Kirchleerau","community_code":"4275","latitude":"47.2758","longitude":"8.0658"},{"country_code":"CH","zipcode":"5054","place":"Moosleerau","state":"Kanton Aargau","state_code":"AG","province":"Bezirk Zofingen","province_code":"1910","community":"Moosleerau","community_code":"4277","latitude":"47.269","longitude":"8.0641"},{"country_code":"CH","zipcode":"5056","place":"Attelwil","state":"Kanton Aargau","state_code":"AG","province":"Bezirk Zofingen","province_code":"1910","community":"Attelwil","community_code":"4272","latitude":"47.2634","longitude":"8.0397"},{"country_code":"CH","zipcode":"5057","place":"Reitnau","state":"Kanton Aargau","state_code":"AG","province":"Bezirk Zofingen","province_code":"1910","community":"Reitnau","community_code":"4281","latitude":"47.2522","longitude":"8.0422"},{"country_code":"CH","zipcode":"5058","place":"Wiliberg","state":"Kanton Aargau","state_code":"AG","province":"Bezirk Zofingen","province_code":"1910","community":"Wiliberg","community_code":"4288","latitude":"47.2687","longitude":"8.0214"},{"country_code":"CH","zipcode":"5742","place":"Kölliken","state":"Kanton Aargau","state_code":"AG","province":"Bezirk Zofingen","province_code":"1910","community":"Kölliken","community_code":"4276","latitude":"47.3388","longitude":"8.0264"},{"country_code":"CH","zipcode":"5745","place":"Safenwil","state":"Kanton Aargau","state_code":"AG","province":"Bezirk Zofingen","province_code":"1910","community":"Safenwil","community_code":"4283","latitude":"47.3214","longitude":"7.9812"},{"country_code":"CH","zipcode":"5304","place":"Endingen","state":"Kanton Aargau","state_code":"AG","province":"Bezirk Zurzach","province_code":"1911","community":"Endingen","community_code":"4305","latitude":"47.5389","longitude":"8.2903"},{"country_code":"CH","zipcode":"5305","place":"Unterendingen","state":"Kanton Aargau","state_code":"AG","province":"Bezirk Zurzach","province_code":"1911","community":"Endingen","community_code":"4305","latitude":"47.5486","longitude":"8.2917"},{"country_code":"CH","zipcode":"5306","place":"Tegerfelden","state":"Kanton Aargau","state_code":"AG","province":"Bezirk Zurzach","province_code":"1911","community":"Tegerfelden","community_code":"4320","latitude":"47.5581","longitude":"8.2891"},{"country_code":"CH","zipcode":"5312","place":"Döttingen","state":"Kanton Aargau","state_code":"AG","province":"Bezirk Zurzach","province_code":"1911","community":"Döttingen","community_code":"4304","latitude":"47.5709","longitude":"8.2585"},{"country_code":"CH","zipcode":"5313","place":"Klingnau","state":"Kanton Aargau","state_code":"AG","province":"Bezirk Zurzach","province_code":"1911","community":"Klingnau","community_code":"4309","latitude":"47.5836","longitude":"8.2488"},{"country_code":"CH","zipcode":"5314","place":"Kleindöttingen","state":"Kanton Aargau","state_code":"AG","province":"Bezirk Zurzach","province_code":"1911","community":"Böttstein","community_code":"4303","latitude":"47.5709","longitude":"8.2465"},{"country_code":"CH","zipcode":"5315","place":"Böttstein","state":"Kanton Aargau","state_code":"AG","province":"Bezirk Zurzach","province_code":"1911","community":"Böttstein","community_code":"4303","latitude":"47.5554","longitude":"8.2226"},{"country_code":"CH","zipcode":"5316","place":"Leuggern","state":"Kanton Aargau","state_code":"AG","province":"Bezirk Zurzach","province_code":"1911","community":"Leuggern","community_code":"4313","latitude":"47.5819","longitude":"8.2195"},{"country_code":"CH","zipcode":"5317","place":"Hettenschwil","state":"Kanton Aargau","state_code":"AG","province":"Bezirk Zurzach","province_code":"1911","community":"Leuggern","community_code":"4313","latitude":"47.5786","longitude":"8.2003"},{"country_code":"CH","zipcode":"5322","place":"Koblenz","state":"Kanton Aargau","state_code":"AG","province":"Bezirk Zurzach","province_code":"1911","community":"Koblenz","community_code":"4310","latitude":"47.6097","longitude":"8.2375"},{"country_code":"CH","zipcode":"5323","place":"Rietheim","state":"Kanton Aargau","state_code":"AG","province":"Bezirk Zurzach","province_code":"1911","community":"Rietheim","community_code":"4316","latitude":"47.6","longitude":"8.2833"},{"country_code":"CH","zipcode":"5324","place":"Full-Reuenthal","state":"Kanton Aargau","state_code":"AG","province":"Bezirk Zurzach","province_code":"1911","community":"Full-Reuenthal","community_code":"4307","latitude":"47.6087","longitude":"8.2027"},{"country_code":"CH","zipcode":"5325","place":"Leibstadt","state":"Kanton Aargau","state_code":"AG","province":"Bezirk Zurzach","province_code":"1911","community":"Leibstadt","community_code":"4311","latitude":"47.5879","longitude":"8.1761"},{"country_code":"CH","zipcode":"5330","place":"Bad Zurzach","state":"Kanton Aargau","state_code":"AG","province":"Bezirk Zurzach","province_code":"1911","community":"Bad Zurzach","community_code":"4323","latitude":"47.5876","longitude":"8.2936"},{"country_code":"CH","zipcode":"5332","place":"Rekingen AG","state":"Kanton Aargau","state_code":"AG","province":"Bezirk Zurzach","province_code":"1911","community":"Rekingen (AG)","community_code":"4315","latitude":"47.5719","longitude":"8.3178"},{"country_code":"CH","zipcode":"5333","place":"Baldingen","state":"Kanton Aargau","state_code":"AG","province":"Bezirk Zurzach","province_code":"1911","community":"Baldingen","community_code":"4301","latitude":"47.5556","longitude":"8.3167"},{"country_code":"CH","zipcode":"5334","place":"Böbikon","state":"Kanton Aargau","state_code":"AG","province":"Bezirk Zurzach","province_code":"1911","community":"Böbikon","community_code":"4302","latitude":"47.5556","longitude":"8.3347"},{"country_code":"CH","zipcode":"5425","place":"Schneisingen","state":"Kanton Aargau","state_code":"AG","province":"Bezirk Zurzach","province_code":"1911","community":"Schneisingen","community_code":"4318","latitude":"47.5194","longitude":"8.3667"},{"country_code":"CH","zipcode":"5426","place":"Lengnau AG","state":"Kanton Aargau","state_code":"AG","province":"Bezirk Zurzach","province_code":"1911","community":"Lengnau (AG)","community_code":"4312","latitude":"47.5222","longitude":"8.3306"},{"country_code":"CH","zipcode":"5462","place":"Siglistorf","state":"Kanton Aargau","state_code":"AG","province":"Bezirk Zurzach","province_code":"1911","community":"Siglistorf","community_code":"4319","latitude":"47.5453","longitude":"8.3806"},{"country_code":"CH","zipcode":"5463","place":"Wislikofen","state":"Kanton Aargau","state_code":"AG","province":"Bezirk Zurzach","province_code":"1911","community":"Wislikofen","community_code":"4322","latitude":"47.5583","longitude":"8.3639"},{"country_code":"CH","zipcode":"5464","place":"Rümikon AG","state":"Kanton Aargau","state_code":"AG","province":"Bezirk Zurzach","province_code":"1911","community":"Rümikon","community_code":"4317","latitude":"47.5656","longitude":"8.3754"},{"country_code":"CH","zipcode":"5465","place":"Mellikon","state":"Kanton Aargau","state_code":"AG","province":"Bezirk Zurzach","province_code":"1911","community":"Mellikon","community_code":"4314","latitude":"47.5694","longitude":"8.3542"},{"country_code":"CH","zipcode":"5466","place":"Kaiserstuhl AG","state":"Kanton Aargau","state_code":"AG","province":"Bezirk Zurzach","province_code":"1911","community":"Kaiserstuhl","community_code":"4308","latitude":"47.5684","longitude":"8.418"},{"country_code":"CH","zipcode":"5467","place":"Fisibach","state":"Kanton Aargau","state_code":"AG","province":"Bezirk Zurzach","province_code":"1911","community":"Fisibach","community_code":"4306","latitude":"47.5639","longitude":"8.4097"},{"country_code":"CH","zipcode":"9050","place":"Appenzell Eggerstanden","state":"Kanton Appenzell Innerrhoden","state_code":"AI","province":"Appenzell Inner Rhodes","province_code":"1600","community":"Rüte","community_code":"3103","latitude":"47.3324","longitude":"9.4686"},{"country_code":"CH","zipcode":"9050","place":"Appenzell Schlatt","state":"Kanton Appenzell Innerrhoden","state_code":"AI","province":"Appenzell Inner Rhodes","province_code":"1600","community":"Schlatt-Haslen","community_code":"3104","latitude":"47.3531","longitude":"9.3623"},{"country_code":"CH","zipcode":"9050","place":"Appenzell Meistersrüte","state":"Kanton Appenzell Innerrhoden","state_code":"AI","province":"Appenzell Inner Rhodes","province_code":"1600","community":"Appenzell","community_code":"3101","latitude":"47.3446","longitude":"9.4324"},{"country_code":"CH","zipcode":"9050","place":"Appenzell","state":"Kanton Appenzell Innerrhoden","state_code":"AI","province":"Appenzell Inner Rhodes","province_code":"1600","community":"Appenzell","community_code":"3101","latitude":"47.331","longitude":"9.41"},{"country_code":"CH","zipcode":"9050","place":"Appenzell Steinegg","state":"Kanton Appenzell Innerrhoden","state_code":"AI","province":"Appenzell Inner Rhodes","province_code":"1600","community":"Rüte","community_code":"3103","latitude":"47.322","longitude":"9.4315"},{"country_code":"CH","zipcode":"9050","place":"Appenzell Enggenhütten","state":"Kanton Appenzell Innerrhoden","state_code":"AI","province":"Appenzell Inner Rhodes","province_code":"1600","community":"Schlatt-Haslen","community_code":"3104","latitude":"47.3531","longitude":"9.3623"},{"country_code":"CH","zipcode":"9054","place":"Haslen AI","state":"Kanton Appenzell Innerrhoden","state_code":"AI","province":"Appenzell Inner Rhodes","province_code":"1600","community":"Schlatt-Haslen","community_code":"3104","latitude":"47.3693","longitude":"9.3675"},{"country_code":"CH","zipcode":"9057","place":"Weissbad","state":"Kanton Appenzell Innerrhoden","state_code":"AI","province":"Appenzell Inner Rhodes","province_code":"1600","community":"Rüte","community_code":"3103","latitude":"47.3089","longitude":"9.4347"},{"country_code":"CH","zipcode":"9057","place":"Schwende","state":"Kanton Appenzell Innerrhoden","state_code":"AI","province":"Appenzell Inner Rhodes","province_code":"1600","community":"Schwende","community_code":"3105","latitude":"47.303","longitude":"9.4367"},{"country_code":"CH","zipcode":"9057","place":"Wasserauen","state":"Kanton Appenzell Innerrhoden","state_code":"AI","province":"Appenzell Inner Rhodes","province_code":"1600","community":"Schwende","community_code":"3105","latitude":"47.2834","longitude":"9.4258"},{"country_code":"CH","zipcode":"9058","place":"Brülisau","state":"Kanton Appenzell Innerrhoden","state_code":"AI","province":"Appenzell Inner Rhodes","province_code":"1600","community":"Rüte","community_code":"3103","latitude":"47.2986","longitude":"9.457"},{"country_code":"CH","zipcode":"9108","place":"Gontenbad","state":"Kanton Appenzell Innerrhoden","state_code":"AI","province":"Appenzell Inner Rhodes","province_code":"1600","community":"Gonten","community_code":"3102","latitude":"47.3331","longitude":"9.3737"},{"country_code":"CH","zipcode":"9108","place":"Gonten","state":"Kanton Appenzell Innerrhoden","state_code":"AI","province":"Appenzell Inner Rhodes","province_code":"1600","community":"Gonten","community_code":"3102","latitude":"47.3272","longitude":"9.347"},{"country_code":"CH","zipcode":"9108","place":"Jakobsbad","state":"Kanton Appenzell Innerrhoden","state_code":"AI","province":"Appenzell Inner Rhodes","province_code":"1600","community":"Gonten","community_code":"3102","latitude":"47.3196","longitude":"9.3263"},{"country_code":"CH","zipcode":"9413","place":"Oberegg","state":"Kanton Appenzell Innerrhoden","state_code":"AI","province":"Appenzell Inner Rhodes","province_code":"1600","community":"Oberegg","community_code":"3111","latitude":"47.4253","longitude":"9.5513"},{"country_code":"CH","zipcode":"9413","place":"Oberegg","state":"Kanton Appenzell Innerrhoden","state_code":"AI","province":"Appenzell Inner Rhodes","province_code":"1600","community":"Oberegg","community_code":"3111","latitude":"47.4253","longitude":"9.5513"},{"country_code":"CH","zipcode":"9442","place":"Büriswilen","state":"Kanton Appenzell Innerrhoden","state_code":"AI","province":"Appenzell Inner Rhodes","province_code":"1600","community":"Oberegg","community_code":"3111","latitude":"47.4349","longitude":"9.6058"},{"country_code":"CH","zipcode":"9063","place":"Stein AR","state":"Kanton Appenzell Ausserrhoden","state_code":"AR","province":"Bezirk Hinterland","province_code":"1501","community":"Stein (AR)","community_code":"3005","latitude":"47.3713","longitude":"9.3435"},{"country_code":"CH","zipcode":"9064","place":"Hundwil","state":"Kanton Appenzell Ausserrhoden","state_code":"AR","province":"Bezirk Hinterland","province_code":"1501","community":"Hundwil","community_code":"3002","latitude":"47.3646","longitude":"9.3185"},{"country_code":"CH","zipcode":"9100","place":"Herisau","state":"Kanton Appenzell Ausserrhoden","state_code":"AR","province":"Bezirk Hinterland","province_code":"1501","community":"Herisau","community_code":"3001","latitude":"47.3861","longitude":"9.2792"},{"country_code":"CH","zipcode":"9102","place":"Herisau","state":"Kanton Appenzell Ausserrhoden","state_code":"AR","province":"Bezirk Hinterland","province_code":"1501","community":"Herisau","community_code":"3001","latitude":"47.3829","longitude":"9.2741"},{"country_code":"CH","zipcode":"9103","place":"Schwellbrunn","state":"Kanton Appenzell Ausserrhoden","state_code":"AR","province":"Bezirk Hinterland","province_code":"1501","community":"Schwellbrunn","community_code":"3004","latitude":"47.3525","longitude":"9.2489"},{"country_code":"CH","zipcode":"9104","place":"Waldstatt","state":"Kanton Appenzell Ausserrhoden","state_code":"AR","province":"Bezirk Hinterland","province_code":"1501","community":"Waldstatt","community_code":"3007","latitude":"47.3563","longitude":"9.2834"},{"country_code":"CH","zipcode":"9105","place":"Schönengrund","state":"Kanton Appenzell Ausserrhoden","state_code":"AR","province":"Bezirk Hinterland","province_code":"1501","community":"Schönengrund","community_code":"3003","latitude":"47.3259","longitude":"9.2269"},{"country_code":"CH","zipcode":"9107","place":"Urnäsch","state":"Kanton Appenzell Ausserrhoden","state_code":"AR","province":"Bezirk Hinterland","province_code":"1501","community":"Urnäsch","community_code":"3006","latitude":"47.3167","longitude":"9.2795"},{"country_code":"CH","zipcode":"9112","place":"Schachen b. Herisau","state":"Kanton Appenzell Ausserrhoden","state_code":"AR","province":"Bezirk Hinterland","province_code":"1501","community":"Herisau","community_code":"3001","latitude":"47.3865","longitude":"9.2445"},{"country_code":"CH","zipcode":"9037","place":"Speicherschwendi","state":"Kanton Appenzell Ausserrhoden","state_code":"AR","province":"Bezirk Mittelland","province_code":"1502","community":"Speicher","community_code":"3023","latitude":"47.4265","longitude":"9.4378"},{"country_code":"CH","zipcode":"9042","place":"Speicher","state":"Kanton Appenzell Ausserrhoden","state_code":"AR","province":"Bezirk Mittelland","province_code":"1502","community":"Speicher","community_code":"3023","latitude":"47.4109","longitude":"9.4433"},{"country_code":"CH","zipcode":"9043","place":"Trogen","state":"Kanton Appenzell Ausserrhoden","state_code":"AR","province":"Bezirk Mittelland","province_code":"1502","community":"Trogen","community_code":"3025","latitude":"47.4078","longitude":"9.465"},{"country_code":"CH","zipcode":"9052","place":"Niederteufen","state":"Kanton Appenzell Ausserrhoden","state_code":"AR","province":"Bezirk Mittelland","province_code":"1502","community":"Teufen (AR)","community_code":"3024","latitude":"47.394","longitude":"9.3667"},{"country_code":"CH","zipcode":"9053","place":"Teufen AR","state":"Kanton Appenzell Ausserrhoden","state_code":"AR","province":"Bezirk Mittelland","province_code":"1502","community":"Teufen (AR)","community_code":"3024","latitude":"47.3908","longitude":"9.3864"},{"country_code":"CH","zipcode":"9055","place":"Bühler","state":"Kanton Appenzell Ausserrhoden","state_code":"AR","province":"Bezirk Mittelland","province_code":"1502","community":"Bühler","community_code":"3021","latitude":"47.3735","longitude":"9.4251"},{"country_code":"CH","zipcode":"9056","place":"Gais","state":"Kanton Appenzell Ausserrhoden","state_code":"AR","province":"Bezirk Mittelland","province_code":"1502","community":"Gais","community_code":"3022","latitude":"47.3615","longitude":"9.4536"},{"country_code":"CH","zipcode":"9062","place":"Lustmühle","state":"Kanton Appenzell Ausserrhoden","state_code":"AR","province":"Bezirk Mittelland","province_code":"1502","community":"Teufen (AR)","community_code":"3024","latitude":"47.3991","longitude":"9.3585"},{"country_code":"CH","zipcode":"9035","place":"Grub AR","state":"Kanton Appenzell Ausserrhoden","state_code":"AR","province":"Bezirk Vorderland","province_code":"1503","community":"Grub (AR)","community_code":"3031","latitude":"47.4477","longitude":"9.5097"},{"country_code":"CH","zipcode":"9038","place":"Rehetobel","state":"Kanton Appenzell Ausserrhoden","state_code":"AR","province":"Bezirk Vorderland","province_code":"1503","community":"Rehetobel","community_code":"3034","latitude":"47.4261","longitude":"9.483"},{"country_code":"CH","zipcode":"9044","place":"Wald AR","state":"Kanton Appenzell Ausserrhoden","state_code":"AR","province":"Bezirk Vorderland","province_code":"1503","community":"Wald (AR)","community_code":"3036","latitude":"47.4156","longitude":"9.491"},{"country_code":"CH","zipcode":"9405","place":"Wienacht-Tobel","state":"Kanton Appenzell Ausserrhoden","state_code":"AR","province":"Bezirk Vorderland","province_code":"1503","community":"Lutzenberg","community_code":"3033","latitude":"47.4648","longitude":"9.5334"},{"country_code":"CH","zipcode":"9410","place":"Heiden","state":"Kanton Appenzell Ausserrhoden","state_code":"AR","province":"Bezirk Vorderland","province_code":"1503","community":"Heiden","community_code":"3032","latitude":"47.4425","longitude":"9.5329"},{"country_code":"CH","zipcode":"9411","place":"Schachen b. Reute","state":"Kanton Appenzell Ausserrhoden","state_code":"AR","province":"Bezirk Vorderland","province_code":"1503","community":"Reute (AR)","community_code":"3035","latitude":"47.4268","longitude":"9.5618"},{"country_code":"CH","zipcode":"9411","place":"Reute AR","state":"Kanton Appenzell Ausserrhoden","state_code":"AR","province":"Bezirk Vorderland","province_code":"1503","community":"Reute (AR)","community_code":"3035","latitude":"47.4201","longitude":"9.5731"},{"country_code":"CH","zipcode":"9426","place":"Lutzenberg","state":"Kanton Appenzell Ausserrhoden","state_code":"AR","province":"Bezirk Vorderland","province_code":"1503","community":"Lutzenberg","community_code":"3033","latitude":"47.4613","longitude":"9.5761"},{"country_code":"CH","zipcode":"9427","place":"Wolfhalden","state":"Kanton Appenzell Ausserrhoden","state_code":"AR","province":"Bezirk Vorderland","province_code":"1503","community":"Wolfhalden","community_code":"3038","latitude":"47.4527","longitude":"9.5481"},{"country_code":"CH","zipcode":"9428","place":"Walzenhausen","state":"Kanton Appenzell Ausserrhoden","state_code":"AR","province":"Bezirk Vorderland","province_code":"1503","community":"Walzenhausen","community_code":"3037","latitude":"47.4487","longitude":"9.605"},{"country_code":"CH","zipcode":"2333","place":"La Ferrière","state":"Canton de Berne","state_code":"BE","province":"Jura bernois","province_code":"241","community":"La Ferrière","community_code":"435","latitude":"47.143","longitude":"6.8922"},{"country_code":"CH","zipcode":"2345","place":"Le Cerneux-Veusil","state":"Canton de Berne","state_code":"BE","province":"Jura bernois","province_code":"241","community":"Saint-Imier","community_code":"443","latitude":"47.1794","longitude":"6.9669"},{"country_code":"CH","zipcode":"2515","place":"Prêles","state":"Canton de Berne","state_code":"BE","province":"Jura bernois","province_code":"241","community":"Plateau de Diesse","community_code":"726","latitude":"47.0993","longitude":"7.1302"},{"country_code":"CH","zipcode":"2516","place":"Lamboing","state":"Canton de Berne","state_code":"BE","province":"Jura bernois","province_code":"241","community":"Plateau de Diesse","community_code":"726","latitude":"47.1168","longitude":"7.1348"},{"country_code":"CH","zipcode":"2517","place":"Diesse","state":"Canton de Berne","state_code":"BE","province":"Jura bernois","province_code":"241","community":"Plateau de Diesse","community_code":"726","latitude":"47.1134","longitude":"7.1169"},{"country_code":"CH","zipcode":"2518","place":"Nods","state":"Canton de Berne","state_code":"BE","province":"Jura bernois","province_code":"241","community":"Nods","community_code":"724","latitude":"47.1149","longitude":"7.0801"},{"country_code":"CH","zipcode":"2520","place":"La Neuveville","state":"Canton de Berne","state_code":"BE","province":"Jura bernois","province_code":"241","community":"La Neuveville","community_code":"723","latitude":"47.0659","longitude":"7.0972"},{"country_code":"CH","zipcode":"2534","place":"Orvin","state":"Canton de Berne","state_code":"BE","province":"Jura bernois","province_code":"241","community":"Orvin","community_code":"438","latitude":"47.1607","longitude":"7.2137"},{"country_code":"CH","zipcode":"2534","place":"Les Prés-d'Orvin","state":"Canton de Berne","state_code":"BE","province":"Jura bernois","province_code":"241","community":"Orvin","community_code":"438","latitude":"47.157","longitude":"7.176"},{"country_code":"CH","zipcode":"2535","place":"Frinvillier","state":"Canton de Berne","state_code":"BE","province":"Jura bernois","province_code":"241","community":"Sauge","community_code":"449","latitude":"47.1691","longitude":"7.2549"},{"country_code":"CH","zipcode":"2536","place":"Plagne","state":"Canton de Berne","state_code":"BE","province":"Jura bernois","province_code":"241","community":"Sauge","community_code":"449","latitude":"47.1883","longitude":"7.2871"},{"country_code":"CH","zipcode":"2537","place":"Vauffelin","state":"Canton de Berne","state_code":"BE","province":"Jura bernois","province_code":"241","community":"Sauge","community_code":"449","latitude":"47.1873","longitude":"7.3001"},{"country_code":"CH","zipcode":"2538","place":"Romont BE","state":"Canton de Berne","state_code":"BE","province":"Jura bernois","province_code":"241","community":"Romont (BE)","community_code":"442","latitude":"47.1886","longitude":"7.3406"},{"country_code":"CH","zipcode":"2603","place":"Péry","state":"Canton de Berne","state_code":"BE","province":"Jura bernois","province_code":"241","community":"Péry-La Heutte","community_code":"450","latitude":"47.194","longitude":"7.2491"},{"country_code":"CH","zipcode":"2604","place":"La Heutte","state":"Canton de Berne","state_code":"BE","province":"Jura bernois","province_code":"241","community":"Péry-La Heutte","community_code":"450","latitude":"47.1907","longitude":"7.2261"},{"country_code":"CH","zipcode":"2605","place":"Sonceboz-Sombeval","state":"Canton de Berne","state_code":"BE","province":"Jura bernois","province_code":"241","community":"Sonceboz-Sombeval","community_code":"444","latitude":"47.1915","longitude":"7.1785"},{"country_code":"CH","zipcode":"2606","place":"Corgémont","state":"Canton de Berne","state_code":"BE","province":"Jura bernois","province_code":"241","community":"Corgémont","community_code":"431","latitude":"47.1946","longitude":"7.1452"},{"country_code":"CH","zipcode":"2607","place":"Cortébert","state":"Canton de Berne","state_code":"BE","province":"Jura bernois","province_code":"241","community":"Cortébert","community_code":"433","latitude":"47.1883","longitude":"7.1089"},{"country_code":"CH","zipcode":"2608","place":"Courtelary","state":"Canton de Berne","state_code":"BE","province":"Jura bernois","province_code":"241","community":"Courtelary","community_code":"434","latitude":"47.1782","longitude":"7.0724"},{"country_code":"CH","zipcode":"2608","place":"Montagne-de-Courtelary","state":"Canton de Berne","state_code":"BE","province":"Jura bernois","province_code":"241","community":"Cortébert","community_code":"433","latitude":"47.1757","longitude":"7.1111"},{"country_code":"CH","zipcode":"2610","place":"Les Pontins","state":"Canton de Berne","state_code":"BE","province":"Jura bernois","province_code":"241","community":"Saint-Imier","community_code":"443","latitude":"47.1312","longitude":"6.9989"},{"country_code":"CH","zipcode":"2610","place":"Mont-Soleil","state":"Canton de Berne","state_code":"BE","province":"Jura bernois","province_code":"241","community":"Saint-Imier","community_code":"443","latitude":"47.1597","longitude":"6.9868"},{"country_code":"CH","zipcode":"2610","place":"St-Imier","state":"Canton de Berne","state_code":"BE","province":"Jura bernois","province_code":"241","community":"Saint-Imier","community_code":"443","latitude":"47.1582","longitude":"7.0066"},{"country_code":"CH","zipcode":"2610","place":"Mont-Crosin","state":"Canton de Berne","state_code":"BE","province":"Jura bernois","province_code":"241","community":"Cormoret","community_code":"432","latitude":"47.1835","longitude":"7.0343"},{"country_code":"CH","zipcode":"2612","place":"Cormoret","state":"Canton de Berne","state_code":"BE","province":"Jura bernois","province_code":"241","community":"Cormoret","community_code":"432","latitude":"47.1708","longitude":"7.0542"},{"country_code":"CH","zipcode":"2613","place":"Villeret","state":"Canton de Berne","state_code":"BE","province":"Jura bernois","province_code":"241","community":"Villeret","community_code":"448","latitude":"47.1584","longitude":"7.0189"},{"country_code":"CH","zipcode":"2615","place":"Sonvilier","state":"Canton de Berne","state_code":"BE","province":"Jura bernois","province_code":"241","community":"Sonvilier","community_code":"445","latitude":"47.1388","longitude":"6.964"},{"country_code":"CH","zipcode":"2615","place":"Montagne-de-Sonvilier","state":"Canton de Berne","state_code":"BE","province":"Jura bernois","province_code":"241","community":"Sonvilier","community_code":"445","latitude":"47.1388","longitude":"6.964"},{"country_code":"CH","zipcode":"2616","place":"Renan BE","state":"Canton de Berne","state_code":"BE","province":"Jura bernois","province_code":"241","community":"Renan (BE)","community_code":"441","latitude":"47.1269","longitude":"6.9283"},{"country_code":"CH","zipcode":"2710","place":"Tavannes","state":"Canton de Berne","state_code":"BE","province":"Jura bernois","province_code":"241","community":"Tavannes","community_code":"713","latitude":"47.2208","longitude":"7.1976"},{"country_code":"CH","zipcode":"2712","place":"Le Fuet","state":"Canton de Berne","state_code":"BE","province":"Jura bernois","province_code":"241","community":"Saicourt","community_code":"706","latitude":"47.2448","longitude":"7.184"},{"country_code":"CH","zipcode":"2713","place":"Bellelay","state":"Canton de Berne","state_code":"BE","province":"Jura bernois","province_code":"241","community":"Saicourt","community_code":"706","latitude":"47.2633","longitude":"7.1666"},{"country_code":"CH","zipcode":"2715","place":"Monible","state":"Canton de Berne","state_code":"BE","province":"Jura bernois","province_code":"241","community":"Petit-Val","community_code":"716","latitude":"47.277","longitude":"7.2033"},{"country_code":"CH","zipcode":"2715","place":"Châtelat","state":"Canton de Berne","state_code":"BE","province":"Jura bernois","province_code":"241","community":"Petit-Val","community_code":"716","latitude":"47.2628","longitude":"7.1885"},{"country_code":"CH","zipcode":"2716","place":"Sornetan","state":"Canton de Berne","state_code":"BE","province":"Jura bernois","province_code":"241","community":"Petit-Val","community_code":"716","latitude":"47.2746","longitude":"7.2169"},{"country_code":"CH","zipcode":"2717","place":"Rebévelier","state":"Canton de Berne","state_code":"BE","province":"Jura bernois","province_code":"241","community":"Rebévelier","community_code":"715","latitude":"47.2914","longitude":"7.1923"},{"country_code":"CH","zipcode":"2717","place":"Fornet-Dessous","state":"Canton de Berne","state_code":"BE","province":"Jura bernois","province_code":"241","community":"Petit-Val","community_code":"716","latitude":"47.2914","longitude":"7.1923"},{"country_code":"CH","zipcode":"2720","place":"Tramelan","state":"Canton de Berne","state_code":"BE","province":"Jura bernois","province_code":"241","community":"Tramelan","community_code":"446","latitude":"47.2239","longitude":"7.0995"},{"country_code":"CH","zipcode":"2720","place":"La Tanne","state":"Canton de Berne","state_code":"BE","province":"Jura bernois","province_code":"241","community":"Tavannes","community_code":"713","latitude":"47.2221","longitude":"7.1533"},{"country_code":"CH","zipcode":"2722","place":"Les Reussilles","state":"Canton de Berne","state_code":"BE","province":"Jura bernois","province_code":"241","community":"Tramelan","community_code":"446","latitude":"47.2259","longitude":"7.0846"},{"country_code":"CH","zipcode":"2723","place":"Mont-Tramelan","state":"Canton de Berne","state_code":"BE","province":"Jura bernois","province_code":"241","community":"Mont-Tramelan","community_code":"437","latitude":"47.21","longitude":"7.0648"},{"country_code":"CH","zipcode":"2732","place":"Loveresse","state":"Canton de Berne","state_code":"BE","province":"Jura bernois","province_code":"241","community":"Loveresse","community_code":"696","latitude":"47.2439","longitude":"7.2388"},{"country_code":"CH","zipcode":"2732","place":"Saicourt","state":"Canton de Berne","state_code":"BE","province":"Jura bernois","province_code":"241","community":"Saicourt","community_code":"706","latitude":"47.2428","longitude":"7.2075"},{"country_code":"CH","zipcode":"2732","place":"Reconvilier","state":"Canton de Berne","state_code":"BE","province":"Jura bernois","province_code":"241","community":"Reconvilier","community_code":"703","latitude":"47.2343","longitude":"7.2224"},{"country_code":"CH","zipcode":"2732","place":"Saules BE","state":"Canton de Berne","state_code":"BE","province":"Jura bernois","province_code":"241","community":"Saules (BE)","community_code":"707","latitude":"47.2457","longitude":"7.2218"},{"country_code":"CH","zipcode":"2733","place":"Pontenet","state":"Canton de Berne","state_code":"BE","province":"Jura bernois","province_code":"241","community":"Valbirse","community_code":"717","latitude":"47.2433","longitude":"7.2546"},{"country_code":"CH","zipcode":"2735","place":"Malleray","state":"Canton de Berne","state_code":"BE","province":"Jura bernois","province_code":"241","community":"Valbirse","community_code":"717","latitude":"47.2384","longitude":"7.2729"},{"country_code":"CH","zipcode":"2735","place":"Bévilard","state":"Canton de Berne","state_code":"BE","province":"Jura bernois","province_code":"241","community":"Valbirse","community_code":"717","latitude":"47.2371","longitude":"7.2832"},{"country_code":"CH","zipcode":"2735","place":"Champoz","state":"Canton de Berne","state_code":"BE","province":"Jura bernois","province_code":"241","community":"Champoz","community_code":"683","latitude":"47.2558","longitude":"7.2953"},{"country_code":"CH","zipcode":"2736","place":"Sorvilier","state":"Canton de Berne","state_code":"BE","province":"Jura bernois","province_code":"241","community":"Sorvilier","community_code":"711","latitude":"47.2393","longitude":"7.3037"},{"country_code":"CH","zipcode":"2738","place":"Court","state":"Canton de Berne","state_code":"BE","province":"Jura bernois","province_code":"241","community":"Court","community_code":"690","latitude":"47.2396","longitude":"7.3365"},{"country_code":"CH","zipcode":"2740","place":"Moutier","state":"Canton de Berne","state_code":"BE","province":"Jura bernois","province_code":"241","community":"Moutier","community_code":"700","latitude":"47.2782","longitude":"7.3695"},{"country_code":"CH","zipcode":"2742","place":"Perrefitte","state":"Canton de Berne","state_code":"BE","province":"Jura bernois","province_code":"241","community":"Perrefitte","community_code":"701","latitude":"47.2757","longitude":"7.3416"},{"country_code":"CH","zipcode":"2743","place":"Eschert","state":"Canton de Berne","state_code":"BE","province":"Jura bernois","province_code":"241","community":"Eschert","community_code":"692","latitude":"47.2753","longitude":"7.4013"},{"country_code":"CH","zipcode":"2744","place":"Belprahon","state":"Canton de Berne","state_code":"BE","province":"Jura bernois","province_code":"241","community":"Belprahon","community_code":"681","latitude":"47.2834","longitude":"7.4058"},{"country_code":"CH","zipcode":"2745","place":"Grandval","state":"Canton de Berne","state_code":"BE","province":"Jura bernois","province_code":"241","community":"Grandval","community_code":"694","latitude":"47.2828","longitude":"7.425"},{"country_code":"CH","zipcode":"2746","place":"Crémines","state":"Canton de Berne","state_code":"BE","province":"Jura bernois","province_code":"241","community":"Crémines","community_code":"691","latitude":"47.2833","longitude":"7.4403"},{"country_code":"CH","zipcode":"2747","place":"Corcelles BE","state":"Canton de Berne","state_code":"BE","province":"Jura bernois","province_code":"241","community":"Corcelles (BE)","community_code":"687","latitude":"47.2849","longitude":"7.4524"},{"country_code":"CH","zipcode":"2747","place":"Seehof","state":"Canton de Berne","state_code":"BE","province":"Jura bernois","province_code":"241","community":"Seehof","community_code":"709","latitude":"47.3032","longitude":"7.5209"},{"country_code":"CH","zipcode":"2748","place":"Souboz","state":"Canton de Berne","state_code":"BE","province":"Jura bernois","province_code":"241","community":"Petit-Val","community_code":"716","latitude":"47.2749","longitude":"7.2445"},{"country_code":"CH","zipcode":"2748","place":"Les Ecorcheresses","state":"Canton de Berne","state_code":"BE","province":"Jura bernois","province_code":"241","community":"Petit-Val","community_code":"716","latitude":"47.2773","longitude":"7.2803"},{"country_code":"CH","zipcode":"2762","place":"Roches BE","state":"Canton de Berne","state_code":"BE","province":"Jura bernois","province_code":"241","community":"Roches (BE)","community_code":"704","latitude":"47.302","longitude":"7.3813"},{"country_code":"CH","zipcode":"2827","place":"Schelten","state":"Canton de Berne","state_code":"BE","province":"Jura bernois","province_code":"241","community":"Schelten","community_code":"708","latitude":"47.3343","longitude":"7.5517"},{"country_code":"CH","zipcode":"2500","place":"Biel/Bienne 4","state":"Canton de Berne","state_code":"BE","province":"Biel/Bienne District","province_code":"242","community":"Biel/Bienne","community_code":"371","latitude":"47.1492","longitude":"7.2611"},{"country_code":"CH","zipcode":"2500","place":"Biel/Bienne 6","state":"Canton de Berne","state_code":"BE","province":"Biel/Bienne District","province_code":"242","community":"Biel/Bienne","community_code":"371","latitude":"47.1492","longitude":"7.2611"},{"country_code":"CH","zipcode":"2500","place":"Biel/Bienne","state":"Canton de Berne","state_code":"BE","province":"Biel/Bienne District","province_code":"242","community":"Biel/Bienne","community_code":"371","latitude":"47.1492","longitude":"7.2611"},{"country_code":"CH","zipcode":"2501","place":"Biel/Bienne","state":"Canton de Berne","state_code":"BE","province":"Biel/Bienne District","province_code":"242","community":"Biel/Bienne","community_code":"371","latitude":"47.1492","longitude":"7.2611"},{"country_code":"CH","zipcode":"2502","place":"Biel/Bienne","state":"Canton de Berne","state_code":"BE","province":"Biel/Bienne District","province_code":"242","community":"Biel/Bienne","community_code":"371","latitude":"47.1371","longitude":"7.2461"},{"country_code":"CH","zipcode":"2503","place":"Biel/Bienne","state":"Canton de Berne","state_code":"BE","province":"Biel/Bienne District","province_code":"242","community":"Biel/Bienne","community_code":"371","latitude":"47.1371","longitude":"7.2461"},{"country_code":"CH","zipcode":"2504","place":"Biel/Bienne","state":"Canton de Berne","state_code":"BE","province":"Biel/Bienne District","province_code":"242","community":"Biel/Bienne","community_code":"371","latitude":"47.1371","longitude":"7.2461"},{"country_code":"CH","zipcode":"2505","place":"Biel/Bienne","state":"Canton de Berne","state_code":"BE","province":"Biel/Bienne District","province_code":"242","community":"Biel/Bienne","community_code":"371","latitude":"47.1371","longitude":"7.2461"},{"country_code":"CH","zipcode":"2512","place":"Tüscherz-Alfermée","state":"Canton de Berne","state_code":"BE","province":"Biel/Bienne District","province_code":"242","community":"Twann-Tüscherz","community_code":"756","latitude":"47.1141","longitude":"7.1942"},{"country_code":"CH","zipcode":"2513","place":"Twann","state":"Canton de Berne","state_code":"BE","province":"Biel/Bienne District","province_code":"242","community":"Twann-Tüscherz","community_code":"756","latitude":"47.0942","longitude":"7.157"},{"country_code":"CH","zipcode":"2514","place":"Ligerz","state":"Canton de Berne","state_code":"BE","province":"Biel/Bienne District","province_code":"242","community":"Ligerz","community_code":"740","latitude":"47.0837","longitude":"7.1348"},{"country_code":"CH","zipcode":"2532","place":"Macolin","state":"Canton de Berne","state_code":"BE","province":"Biel/Bienne District","province_code":"242","community":"Evilard","community_code":"372","latitude":"47.139","longitude":"7.2141"},{"country_code":"CH","zipcode":"2533","place":"Evilard","state":"Canton de Berne","state_code":"BE","province":"Biel/Bienne District","province_code":"242","community":"Evilard","community_code":"372","latitude":"47.1505","longitude":"7.239"},{"country_code":"CH","zipcode":"2542","place":"Pieterlen","state":"Canton de Berne","state_code":"BE","province":"Biel/Bienne District","province_code":"242","community":"Pieterlen","community_code":"392","latitude":"47.175","longitude":"7.3379"},{"country_code":"CH","zipcode":"2543","place":"Lengnau BE","state":"Canton de Berne","state_code":"BE","province":"Biel/Bienne District","province_code":"242","community":"Lengnau (BE)","community_code":"387","latitude":"47.1815","longitude":"7.3681"},{"country_code":"CH","zipcode":"2552","place":"Orpund","state":"Canton de Berne","state_code":"BE","province":"Biel/Bienne District","province_code":"242","community":"Orpund","community_code":"744","latitude":"47.1389","longitude":"7.3078"},{"country_code":"CH","zipcode":"2553","place":"Safnern","state":"Canton de Berne","state_code":"BE","province":"Biel/Bienne District","province_code":"242","community":"Safnern","community_code":"746","latitude":"47.15","longitude":"7.3231"},{"country_code":"CH","zipcode":"2554","place":"Meinisberg","state":"Canton de Berne","state_code":"BE","province":"Biel/Bienne District","province_code":"242","community":"Meinisberg","community_code":"390","latitude":"47.1597","longitude":"7.348"},{"country_code":"CH","zipcode":"2555","place":"Brügg BE","state":"Canton de Berne","state_code":"BE","province":"Biel/Bienne District","province_code":"242","community":"Brügg","community_code":"733","latitude":"47.1237","longitude":"7.2789"},{"country_code":"CH","zipcode":"2556","place":"Scheuren","state":"Canton de Berne","state_code":"BE","province":"Biel/Bienne District","province_code":"242","community":"Scheuren","community_code":"747","latitude":"47.1347","longitude":"7.3209"},{"country_code":"CH","zipcode":"2556","place":"Schwadernau","state":"Canton de Berne","state_code":"BE","province":"Biel/Bienne District","province_code":"242","community":"Schwadernau","community_code":"748","latitude":"47.1278","longitude":"7.3078"},{"country_code":"CH","zipcode":"2558","place":"Aegerten","state":"Canton de Berne","state_code":"BE","province":"Biel/Bienne District","province_code":"242","community":"Aegerten","community_code":"731","latitude":"47.1211","longitude":"7.2916"},{"country_code":"CH","zipcode":"2560","place":"Nidau","state":"Canton de Berne","state_code":"BE","province":"Biel/Bienne District","province_code":"242","community":"Nidau","community_code":"743","latitude":"47.1255","longitude":"7.2403"},{"country_code":"CH","zipcode":"2562","place":"Port","state":"Canton de Berne","state_code":"BE","province":"Biel/Bienne District","province_code":"242","community":"Port","community_code":"745","latitude":"47.1141","longitude":"7.2589"},{"country_code":"CH","zipcode":"2563","place":"Ipsach","state":"Canton de Berne","state_code":"BE","province":"Biel/Bienne District","province_code":"242","community":"Ipsach","community_code":"739","latitude":"47.1139","longitude":"7.2303"},{"country_code":"CH","zipcode":"2564","place":"Bellmund","state":"Canton de Berne","state_code":"BE","province":"Biel/Bienne District","province_code":"242","community":"Bellmund","community_code":"732","latitude":"47.1085","longitude":"7.2461"},{"country_code":"CH","zipcode":"2572","place":"Sutz","state":"Canton de Berne","state_code":"BE","province":"Biel/Bienne District","province_code":"242","community":"Sutz-Lattrigen","community_code":"750","latitude":"47.1034","longitude":"7.2208"},{"country_code":"CH","zipcode":"2572","place":"Mörigen","state":"Canton de Berne","state_code":"BE","province":"Biel/Bienne District","province_code":"242","community":"Mörigen","community_code":"742","latitude":"47.0851","longitude":"7.2141"},{"country_code":"CH","zipcode":"2557","place":"Studen BE","state":"Canton de Berne","state_code":"BE","province":"Seeland District","province_code":"243","community":"Studen (BE)","community_code":"749","latitude":"47.113","longitude":"7.3032"},{"country_code":"CH","zipcode":"2565","place":"Jens","state":"Canton de Berne","state_code":"BE","province":"Seeland District","province_code":"243","community":"Jens","community_code":"738","latitude":"47.0963","longitude":"7.2636"},{"country_code":"CH","zipcode":"2575","place":"Täuffelen","state":"Canton de Berne","state_code":"BE","province":"Seeland District","province_code":"243","community":"Täuffelen","community_code":"751","latitude":"47.0652","longitude":"7.197"},{"country_code":"CH","zipcode":"2575","place":"Gerolfingen","state":"Canton de Berne","state_code":"BE","province":"Seeland District","province_code":"243","community":"Täuffelen","community_code":"751","latitude":"47.0771","longitude":"7.1989"},{"country_code":"CH","zipcode":"2575","place":"Hagneck","state":"Canton de Berne","state_code":"BE","province":"Seeland District","province_code":"243","community":"Hagneck","community_code":"736","latitude":"47.057","longitude":"7.1853"},