<?xml version="1.0" encoding="UTF-8"?>
<zipcodes>
  <object>
    <country_code>MC</country_code>
    <zipcode>98000</zipcode>
    <place>Port de La Condamine</place>
    <state>Monaco</state>
    <state_code>01</state_code>
    <province>Monaco</province>
    <province_code>01</province_code>
    <community>La Condamine</community>
    <community_code></community_code>
    <latitude>43.7361</latitude>
    <longitude>7.425</longitude>
  </object>
  <object>
    <country_code>MC</country_code>
    <zipcode>98000</zipcode>
    <place>Jardin Exotique</place>
    <state>Monaco</state>
    <state_code>01</state_code>
    <province>Monaco</province>
    <province_code>01</province_code>
    <community>Monaco-Ville</community>
    <community_code></community_code>
    <latitude>43.7167</latitude>
    <longitude>7.4</longitude>
  </object>
  <object>
    <country_code>MC</country_code>
    <zipcode>98000</zipcode>
    <place>Larvotto</place>
    <state>Monaco</state>
    <state_code>01</state_code>
    <province>Monaco</province>
    <province_code>01</province_code>
    <community>Larvotto</community>
    <community_code></community_code>
    <latitude>43.7333</latitude>
    <longitude>7.4333</longitude>
  </object>
  <object>
    <country_code>MC</country_code>
    <zipcode>98000</zipcode>
    <place>Monaco-Ville</place>
    <state>Monaco</state>
    <state_code>01</state_code>
    <province>Monaco</province>
    <province_code>01</province_code>
    <community>Monaco-Ville</community>
    <community_code></community_code>
    <latitude>43.7333</latitude>
    <longitude>7.4167</longitude>
  </object>
  <object>
    <country_code>MC</country_code>
    <zipcode>98000</zipcode>
    <place>Monaco</place>
    <state>Monaco</state>
    <state_code>01</state_code>
    <province>Monaco</province>
    <province_code>01</province_code>
    <community>Monaco</community>
    <community_code></community_code>
    <latitude>43.7333</latitude>
    <longitude>7.4</longitude>
  </object>
  <object>
    <country_code>MC</country_code>
    <zipcode>98000</zipcode>
    <place>Port de Fontvieille</place>
    <state>Monaco</state>
    <state_code>01</state_code>
    <province>Monaco</province>
    <province_code>01</province_code>
    <community>Fontvieille</community>
    <community_code></community_code>
    <latitude>43.7306</latitude>
    <longitude>7.4208</longitude>
  </object>
  <object>
    <country_code>MC</country_code>
    <zipcode>98000</zipcode>
    <place>La Condamine</place>
    <state>Monaco</state>
    <state_code>01</state_code>
    <province>Monaco</province>
    <province_code>01</province_code>
    <community>La Condamine</community>
    <community_code></community_code>
    <latitude>43.7333</latitude>
    <longitude>7.4167</longitude>
  </object>
  <object>
    <country_code>MC</country_code>
    <zipcode>98000</zipcode>
    <place>Anse de la Grue</place>
    <state>Monaco</state>
    <state_code>01</state_code>
    <province>Monaco</province>
    <province_code>01</province_code>
    <community>Monte-Carlo</community>
    <community_code></community_code>
    <latitude>43.7306</latitude>
    <longitude>7.4217</longitude>
  </object>
  <object>
    <country_code>MC</country_code>
    <zipcode>98000</zipcode>
    <place>Pointe Saint-Martin</place>
    <state>Monaco</state>
    <state_code>01</state_code>
    <province>Monaco</province>
    <province_code>01</province_code>
    <community>Monaco-Ville</community>
    <community_code></community_code>
    <latitude>43.7306</latitude>
    <longitude>7.425</longitude>
  </object>
  <object>
    <country_code>MC</country_code>
    <zipcode>98000</zipcode>
    <place>Port Hercule</place>
    <state>Monaco</state>
    <state_code>01</state_code>
    <province>Monaco</province>
    <province_code>01</province_code>
    <community>Fontvieille</community>
    <community_code></community_code>
    <latitude>43.7361</latitude>
    <longitude>7.425</longitude>
  </object>
  <object>
    <country_code>MC</country_code>
    <zipcode>98000</zipcode>
    <place>Pointe Saint-Antoine</place>
    <state>Monaco</state>
    <state_code>01</state_code>
    <province>Monaco</province>
    <province_code>01</province_code>
    <community>Larvotto</community>
    <community_code></community_code>
    <latitude>43.7333</latitude>
    <longitude>7.4278</longitude>
  </object>
  <object>
    <country_code>MC</country_code>
    <zipcode>98000</zipcode>
    <place>Anse du Portier</place>
    <state>Monaco</state>
    <state_code>01</state_code>
    <province>Monaco</province>
    <province_code>01</province_code>
    <community>Larvotto</community>
    <community_code></community_code>
    <latitude>43.7417</latitude>
    <longitude>7.4322</longitude>
  </object>
  <object>
    <country_code>MC</country_code>
    <zipcode>98000</zipcode>
    <place>Pointe Focinana</place>
    <state>Monaco</state>
    <state_code>01</state_code>
    <province>Monaco</province>
    <province_code>01</province_code>
    <community>Monte-Carlo</community>
    <community_code></community_code>
    <latitude>43.7333</latitude>
    <longitude>7.4333</longitude>
  </object>
  <object>
    <country_code>MC</country_code>
    <zipcode>98000</zipcode>
    <place>Plage du Larvotto</place>
    <state>Monaco</state>
    <state_code>01</state_code>
    <province>Monaco</province>
    <province_code>01</province_code>
    <community>Larvotto</community>
    <community_code></community_code>
    <latitude>43.7333</latitude>
    <longitude>7.4333</longitude>
  </object>
  <object>
    <country_code>MC</country_code>
    <zipcode>98000</zipcode>
    <place>Rocher de Monaco</place>
    <state>Monaco</state>
    <state_code>01</state_code>
    <province>Monaco</province>
    <province_code>01</province_code>
    <community>Monaco-Ville</community>
    <community_code></community_code>
    <latitude>43.7333</latitude>
    <longitude>7.4333</longitude>
  </object>
  <object>
    <country_code>MC</country_code>
    <zipcode>98000</zipcode>
    <place>Réserve Sous-marine du Larvotto</place>
    <state>Monaco</state>
    <state_code>01</state_code>
    <province>Monaco</province>
    <province_code>01</province_code>
    <community>Larvotto</community>
    <community_code></community_code>
    <latitude>43.7458</latitude>
    <longitude>7.4394</longitude>
  </object>
  <object>
    <country_code>MC</country_code>
    <zipcode>98000</zipcode>
    <place>Réserve Sous-marine de Monaco</place>
    <state>Monaco</state>
    <state_code>01</state_code>
    <province>Monaco</province>
    <province_code>01</province_code>
    <community>Monaco</community>
    <community_code></community_code>
    <latitude>43.7458</latitude>
    <longitude>7.4394</longitude>
  </object>
  <object>
    <country_code>MC</country_code>
    <zipcode>98000</zipcode>
    <place>Commune de Monaco</place>
    <state>Monaco</state>
    <state_code>01</state_code>
    <province>Monaco</province>
    <province_code>01</province_code>
    <community>Monaco</community>
    <community_code></community_code>
    <latitude>43.7333</latitude>
    <longitude>7.4</longitude>
  </object>
  <object>
    <country_code>MC</country_code>
    <zipcode>98000</zipcode>
    <place>Les Moneghetti</place>
    <state>Monaco</state>
    <state_code>01</state_code>
    <province>Monaco</province>
    <province_code>01</province_code>
    <community>Les Moneghetti</community>
    <community_code></community_code>
    <latitude>43.7375</latitude>
    <longitude>7.4153</longitude>
  </object>
  <object>
    <country_code>MC</country_code>
    <zipcode>98000</zipcode>
    <place>Ciappaira</place>
    <state>Monaco</state>
    <state_code>01</state_code>
    <province>Monaco</province>
    <province_code>01</province_code>
    <community>Monaco-Ville</community>
    <community_code></community_code>
    <latitude>43.7167</latitude>
    <longitude>7.4167</longitude>
  </object>
  <object>
    <country_code>MC</country_code>
    <zipcode>98000</zipcode>
    <place>Pointe Sainte-Barbe</place>
    <state>Monaco</state>
    <state_code>01</state_code>
    <province>Monaco</province>
    <province_code>01</province_code>
    <community>Fontvieille</community>
    <community_code></community_code>
    <latitude>43.7167</latitude>
    <longitude>7.4167</longitude>
  </object>
  <object>
    <country_code>MC</country_code>
    <zipcode>98000</zipcode>
    <place>Stade Louis Deux</place>
    <state>Monaco</state>
    <state_code>01</state_code>
    <province>Monaco</province>
    <province_code>01</province_code>
    <community>Fontvieille</community>
    <community_code></community_code>
    <latitude>43.7167</latitude>
    <longitude>7.4167</longitude>
  </object>
  <object>
    <country_code>MC</country_code>
    <zipcode>98000</zipcode>
    <place>Anse de Canton</place>
    <state>Monaco</state>
    <state_code>01</state_code>
    <province>Monaco</province>
    <province_code>01</province_code>
    <community>Fontvieille</community>
    <community_code></community_code>
    <latitude>43.7333</latitude>
    <longitude>7.4167</longitude>
  </object>
  <object>
    <country_code>MC</country_code>
    <zipcode>98000</zipcode>
    <place>Condamine</place>
    <state>Monaco</state>
    <state_code>01</state_code>
    <province>Monaco</province>
    <province_code>01</province_code>
    <community>La Condamine</community>
    <community_code></community_code>
    <latitude>43.7333</latitude>
    <longitude>7.4167</longitude>
  </object>
  <object>
    <country_code>MC</country_code>
    <zipcode>98000</zipcode>
    <place>Jardin Japonais</place>
    <state>Monaco</state>
    <state_code>01</state_code>
    <province>Monaco</province>
    <province_code>01</province_code>
    <community>Larvotto</community>
    <community_code></community_code>
    <latitude>43.7333</latitude>
    <longitude>7.4167</longitude>
  </object>
  <object>
    <country_code>MC</country_code>
    <zipcode>98000</zipcode>
    <place>Monte-Carlo</place>
    <state>Monaco</state>
    <state_code>01</state_code>
    <province>Monaco</province>
    <province_code>01</province_code>
    <community>Monte-Carlo</community>
    <community_code></community_code>
    <latitude>43.7333</latitude>
    <longitude>7.4167</longitude>
  </object>
  <object>
    <country_code>MC</country_code>
    <zipcode>98000</zipcode>
    <place>Fontvieille</place>
    <state>Monaco</state>
    <state_code>01</state_code>
    <province>Monaco</province>
    <province_code>01</province_code>
    <community>Fontvieille</community>
    <community_code></community_code>
    <latitude>43.7333</latitude>
    <longitude>7.4167</longitude>
  </object>
  <object>
    <country_code>MC</country_code>
    <zipcode>98000</zipcode>
    <place>Port de Monaco</place>
    <state>Monaco</state>
    <state_code>01</state_code>
    <province>Monaco</province>
    <province_code>01</province_code>
    <community>La Condamine</community>
    <community_code></community_code>
    <latitude>43.7361</latitude>
    <longitude>7.425</longitude>
  </object>
  <object>
    <country_code>MC</country_code>
    <zipcode>98000</zipcode>
    <place>Pointe de la Poudrière</place>
    <state>Monaco</state>
    <state_code>01</state_code>
    <province>Monaco</province>
    <province_code>01</province_code>
    <community>Monaco-Ville</community>
    <community_code></community_code>
    <latitude>43.7319</latitude>
    <longitude>7.4278</longitude>
  </object>
</zipcodes>
<to_s/>
